time(millisecond),datetime(utc),latitude,longitude,height_above_takeoff(meters),height_above_ground_at_drone_location(meters),ground_elevation_at_drone_location(meters),altitude_above_seaLevel(meters),height_sonar(meters),speed(m/s),distance(meters),mileage(meters),satellites,gpslevel,voltage(v),max_altitude(meters),max_ascent(meters),max_speed(m/s),max_distance(meters), xSpeed(m/s), ySpeed(m/s), zSpeed(m/s), compass_heading(degrees), pitch(degrees), roll(degrees),isPhoto,isVideo,rc_elevator,rc_aileron,rc_throttle,rc_rudder,rc_elevator(percent),rc_aileron(percent),rc_throttle(percent),rc_rudder(percent),gimbal_heading(degrees),gimbal_pitch(degrees),gimbal_roll(degrees),battery_percent,voltageCell1,voltageCell2,voltageCell3,voltageCell4,voltageCell5,voltageCell6,current(A),battery_temperature(c),altitude(meters),ascent(meters),flycStateRaw,flycState,message
0,2024-11-03 23:24:17,-23.4438448391072,151.917264567306,0,Available with any HD 360 subscription,Available with any HD 360 subscription,3.453475,0,0,0,0,12,4,0,3.453475,0,0,0,0,0,0,83.5, 3.9, 1.7,0,0,959,1024,1024,1170,-10,0,0,22,0,0,0,97,4.312,4.315,4.319,4.337,4.34,4.334,0,,3.453475,0,41,Motors_Started,
100,2024-11-03 23:24:17,-23.4438448385926,151.917264571526,0,,,3.453475,0,0,0.000434289,0.000434289,12,4,0,3.453475,0,0,0.000434289,0,0,0,83.8, 3.9, 1.7,0,0,1024,1024,1024,1024,0,0,0,0,0,0,0,97,4.312,4.315,4.319,4.337,4.34,4.334,0,,3.453475,0,41,Motors_Started,
200,2024-11-03 23:24:17,-23.4438448379607,151.917264591929,0,,,3.453475,0,0,0.00251538,0.00251712,12,4,0,3.453475,0,0,0.00251538,0,0,0,84, 3.9, 1.7,0,0,1024,1024,1024,1024,0,0,0,0,0,0,0,97,4.312,4.315,4.319,4.337,4.34,4.334,0,,3.453475,0,41,Motors_Started,"Setting new Return-To-Home altitude to 40m (131 ft). Data Recorder File Index is 357. Setting new Maximum Flight Altitude to 120m (394 ft)"
300,2024-11-03 23:24:18,-23.4438448368143,151.917264619756,0,,,3.453475,0,0,0.00535733,0.00535909,12,4,0,3.453475,0,0,0.00535733,0,0,0,84.2, 3.9, 1.7,0,0,1024,1024,1024,1024,0,0,0,0,0,0,0,97,4.312,4.315,4.319,4.337,4.34,4.334,0,,3.453475,0,41,Motors_Started,
400,2024-11-03 23:24:18,-23.4438448336217,151.917264638553,0,,,3.453475,0,0,0.00729459,0.00730946,12,4,0,3.453475,0,0,0.00729459,0,0,0,84.3, 3.9, 1.7,0,0,1024,1024,1024,1024,0,0,0,0,0,0,0,97,4.312,4.315,4.319,4.337,4.34,4.334,0,,3.453475,0,41,Motors_Started,
500,2024-11-03 23:24:18,-23.4438448302431,151.91726465192,0,,,3.453475,0,0,0.00868893,0.00872406,12,4,0,3.453475,0,0,0.00868893,0,0,0,84.5, 3.9, 1.7,0,0,1024,1024,1024,1024,0,0,0,0,0,0,0,97,4.312,4.315,4.319,4.337,4.34,4.334,0,,3.453475,0,41,Motors_Started,
600,2024-11-03 23:24:18,-23.443844824991,151.91726468347,0,,,3.453475,0,0,0.0119552,0.0119955,12,4,0,3.453475,0,0,0.0119552,0,0,0,84.6, 3.9, 1.7,0,0,1024,1024,1024,1024,0,0,0,0,0,0,0,97,4.312,4.315,4.319,4.337,4.34,4.334,0,,3.453475,0,41,Motors_Started,
700,2024-11-03 23:24:18,-23.4438448206565,151.917264716739,0,,,3.453475,0,0,0.0153835,0.0154239,12,4,0,3.453475,0,0,0.0153835,0,0,0,84.7, 3.9, 1.7,0,0,1024,1024,1024,1024,0,0,0,0,0,0,0,97,4.312,4.315,4.319,4.337,4.34,4.334,0,,3.453475,0,41,Motors_Started,
800,2024-11-03 23:24:18,-23.4438448155436,151.917264710481,0,,,3.453475,0,0,0.0148407,0.0162789,12,4,0,3.453475,0,0,0.0153835,0,0,0,84.8, 3.9, 1.7,0,0,1024,1024,1024,1024,0,0,0,0,0,0,0,97,4.312,4.315,4.319,4.337,4.34,4.334,0,,3.453475,0,41,Motors_Started,
900,2024-11-03 23:24:18,-23.4438448116927,151.917264698464,0,,,3.453475,0,0,0.0137244,0.0175776,12,4,0,3.453475,0,0,0.0153835,0,0,0,84.9, 3.9, 1.7,0,0,1024,1024,1024,1024,0,0,0,0,0,0,0,97,4.312,4.315,4.319,4.337,4.34,4.334,0,,3.453475,0,41,Motors_Started,
1000,2024-11-03 23:24:18,-23.443844775976,151.917264699803,0,,,3.453475,0,0,0.0152325,0.0215518,12,4,25.957,3.453475,0,0,0.0153835,0,0,0,85, 3.9, 1.7,0,0,1024,1024,1024,1024,0,0,0,0,0,0,0,97,4.312,4.315,4.319,4.337,4.34,4.334,0,,3.453475,0,41,Motors_Started,
1100,2024-11-03 23:24:18,-23.4438447435639,151.917264714518,0,,,3.453475,0,0,0.0183977,0.0254564,12,4,25.957,3.453475,0,0,0.0183977,0,0,0,85, 3.9, 1.7,0,0,1024,1024,1024,1024,0,0,0,0,0,0,0,97,4.312,4.315,4.319,4.337,4.34,4.334,0,,3.453475,0,41,Motors_Started,
1200,2024-11-03 23:24:19,-23.4438447388349,151.917264753312,0,,,3.453475,0,0,0.0220111,0.0294492,12,4,25.957,3.453475,0,0,0.0220111,0,0,0,85, 3.9, 1.7,0,0,1024,1024,1024,1024,0,0,0,0,0,0,0,97,4.312,4.315,4.319,4.337,4.34,4.334,0,,3.453475,0,41,Motors_Started,
1400,2024-11-03 23:24:19,-23.4438447648245,151.917264824738,0,,,3.453475,0,0,0.0275332,0.0372888,12,4,25.957,3.453475,0,0,0.0275332,0,0,0,85.1, 3.9, 1.7,0,0,1024,1024,1024,1024,0,0,0,0,0,0,0,97,4.312,4.315,4.319,4.337,4.34,4.334,0,,3.453475,0,41,Motors_Started,
1500,2024-11-03 23:24:19,-23.4438447717596,151.917264845353,0,,,3.453475,0,0,0.02934,0.0395289,12,4,25.957,3.453475,0,0,0.02934,0,0,0,85.2, 3.9, 1.7,0,0,1024,1024,1024,1024,0,0,0,0,0,0,0,97,4.312,4.315,4.319,4.337,4.34,4.334,0,,3.453475,0,41,Motors_Started,
1600,2024-11-03 23:24:19,-23.4438447837339,151.917264884149,0,,,3.453475,0,0,0.0329075,0.0437051,12,4,25.957,3.453475,0,0,0.0329075,0,0,0,85.2, 3.9, 1.7,0,0,1024,1024,1024,1024,0,0,0,0,0,0,0,97,4.312,4.315,4.319,4.337,4.34,4.334,0,,3.453475,0,41,Motors_Started,
1700,2024-11-03 23:24:19,-23.4438447895601,151.917264922959,0,,,3.453475,0,0,0.0367018,0.0477174,12,4,25.957,3.453475,0,0,0.0367018,0,0,0,85.1, 3.9, 1.7,0,0,1024,1024,1024,1024,0,0,0,0,0,0,0,97,4.312,4.315,4.319,4.337,4.34,4.334,0,,3.453475,0,41,Motors_Started,
1800,2024-11-03 23:24:19,-23.4438447980822,151.917264983276,0,,,3.453475,0,0,0.0426843,0.0539438,12,4,25.957,3.453475,0,0,0.0426843,0,0,0,85.2, 3.9, 1.7,0,0,1024,1024,1024,1024,0,0,0,0,0,0,0,97,4.312,4.315,4.319,4.337,4.34,4.334,0,,3.453475,0,41,Motors_Started,
1900,2024-11-03 23:24:19,-23.4438448042878,151.917265034775,0,,,3.453475,0,0,0.0478509,0.0592432,12,4,25.957,3.453475,0,0,0.0478509,0,0,0,85.2, 3.9, 1.7,0,0,1024,1024,1024,1024,0,0,0,0,0,0,0,97,4.312,4.315,4.319,4.337,4.34,4.334,0,,3.453475,0,41,Motors_Started,
2000,2024-11-03 23:24:19,-23.443844811036,151.917265073698,0,,,3.453475,0,0,0.0517594,0.0632847,12,4,25.947,3.453475,0,0,0.0517594,0,0,0,85.2, 3.9, 1.7,0,0,1024,1024,1024,1024,0,0,0,0,0,0,0,97,4.311,4.313,4.317,4.335,4.339,4.332,0,,3.453475,0,10,Assisted_Takeoff,
2100,2024-11-03 23:24:19,-23.4438448161339,151.917265101175,0,,,3.453475,0,0,0.0545284,0.0661448,12,4,25.947,3.453475,0,0,0.0545284,0,0,0,85.2, 3.9, 1.7,0,0,1024,1024,1024,1024,0,0,0,0,0,0,0,97,4.311,4.313,4.317,4.335,4.339,4.332,0,,3.453475,0,10,Assisted_Takeoff,
2200,2024-11-03 23:24:19,-23.4438448203927,151.917265110373,0,,,3.453475,0,0,0.055446,0.0671959,12,4,25.947,3.453475,0,0,0.055446,0,0,0,85.3, 4, 1.7,0,0,1024,1024,1024,1024,0,0,0,0,0,0,0,97,4.311,4.313,4.317,4.335,4.339,4.332,0,,3.453475,0,10,Assisted_Takeoff,
2300,2024-11-03 23:24:20,-23.4438448244886,151.917265121581,0,,,3.453475,0,0,0.0565739,0.0684269,12,4,25.947,3.453475,0,0,0.0565739,0,0,0,85.3, 4, 1.7,0,0,1024,1024,1024,1024,0,0,0,0,0,0,0,97,4.311,4.313,4.317,4.335,4.339,4.332,0,,3.453475,0,10,Assisted_Takeoff,
2400,2024-11-03 23:24:20,-23.4438448270392,151.917265138993,0,,,3.453475,0,0,0.0583424,0.0702258,12,4,25.947,3.453475,0,0,0.0583424,0,0,0,85.4, 4.1, 1.7,0,0,1024,1024,1024,1024,0,0,0,0,0,0,0,97,4.311,4.313,4.317,4.335,4.339,4.332,0,,3.453475,0,10,Assisted_Takeoff,
2500,2024-11-03 23:24:20,-23.443844830706,151.917265165015,0,,,3.453475,0,0,0.0609891,0.0729119,12,4,25.947,3.453475,0,0,0.0609891,0,0,0,85.3, 4.1, 1.7,0,0,1024,1024,1024,1024,0,0,0,0,0,0,0,97,4.311,4.313,4.317,4.335,4.339,4.332,0,,3.453475,0,10,Assisted_Takeoff,
2600,2024-11-03 23:24:20,-23.4438448291985,151.917265181387,0,,,3.453475,0,0,0.062662,0.0745907,12,4,25.947,3.453475,0,0,0.062662,0,0,0,85.3, 4.1, 1.7,0,0,1024,1024,1024,1024,0,0,0,0,0,0,0,97,4.311,4.313,4.317,4.335,4.339,4.332,0,,3.453475,0,10,Assisted_Takeoff,
2700,2024-11-03 23:24:20,-23.4438448288138,151.917265202273,0,,,3.453475,0,0,0.0647933,0.0767221,12,4,25.947,3.453475,0,0,0.0647933,0,0,0,85.3, 4, 1.7,0,0,1024,1024,1024,1024,0,0,0,0,0,0,0,97,4.311,4.313,4.317,4.335,4.339,4.332,0,,3.453475,0,10,Assisted_Takeoff,
2800,2024-11-03 23:24:20,-23.4438448543319,151.917265235237,0,,,3.453475,0,0,0.0681674,0.0811225,12,4,25.947,3.453475,0,0,0.0681674,0,0,0,85.3, 4, 1.8,0,0,1024,1024,1024,1024,0,0,0,0,0,0,0,97,4.311,4.313,4.317,4.335,4.339,4.332,0,,3.453475,0,10,Assisted_Takeoff,
2900,2024-11-03 23:24:20,-23.4438448821628,151.917265267846,0,,,3.453475,0,0,0.0716336,0.0856665,12,4,25.947,3.453475,0,0,0.0716336,0,0,0,85.3, 4.1, 1.8,0,0,1024,1024,1024,1024,0,0,0,0,0,0,0,97,4.311,4.313,4.317,4.335,4.339,4.332,0,,3.453475,0,10,Assisted_Takeoff,
3000,2024-11-03 23:24:20,-23.4438448817622,151.917265284684,0,,,3.453475,0,0,0.0733448,0.0873849,12,4,25.917,3.453475,0,0,0.0733448,0,0,0,85.3, 4.1, 1.7,0,0,1024,1024,1024,1024,0,0,0,0,0,0,0,97,4.305,4.307,4.312,4.331,4.334,4.328,0,,3.453475,0,10,Assisted_Takeoff,
3100,2024-11-03 23:24:20,-23.4438448696108,151.917265303848,0,,,3.453475,0,0,0.075223,0.0897616,12,4,25.917,3.453475,0,0,0.075223,0,0,0,85.3, 4.1, 1.7,0,0,1024,1024,1024,1024,0,0,0,0,0,0,0,97,4.305,4.307,4.312,4.331,4.334,4.328,0,,3.453475,0,10,Assisted_Takeoff,
3200,2024-11-03 23:24:21,-23.4438448799363,151.917265339109,0,,,3.453475,0,0,0.0788748,0.093538,12,4,25.917,3.453475,0,0,0.0788748,0,0,0,85.3, 4, 1.8,0,0,1024,1024,1024,1024,0,0,0,0,0,0,0,97,4.305,4.307,4.312,4.331,4.334,4.328,0,,3.453475,0,10,Assisted_Takeoff,
3400,2024-11-03 23:24:21,-23.4438448962676,151.917265402688,0,,,3.453475,0,0,0.0854674,0.100274,12,4,25.917,3.453475,0,0,0.0854674,0,0,0,85.3, 3.9, 1.8,0,0,1024,1024,1024,1024,0,0,0,0,0,0,0,97,4.305,4.307,4.312,4.331,4.334,4.328,0,,3.453475,0,10,Assisted_Takeoff,
3500,2024-11-03 23:24:21,-23.4438448843091,151.917265420813,0,,,3.453475,0,0,0.0872249,0.102552,12,4,25.917,3.453475,0,0,0.0872249,0,0,0,85.3, 4, 1.7,0,0,1024,1024,1024,1024,0,0,0,0,0,0,0,97,4.305,4.307,4.312,4.331,4.334,4.328,0,,3.453475,0,10,Assisted_Takeoff,
3600,2024-11-03 23:24:21,-23.4438448639751,151.917265444517,0,,,3.453475,0,0,0.0895411,0.105863,12,4,25.917,3.453475,0,0,0.0895411,0,0,0,85.3, 4, 1.7,0,0,1024,1024,1024,1024,0,0,0,0,0,0,0,97,4.305,4.307,4.312,4.331,4.334,4.328,0,,3.453475,0,10,Assisted_Takeoff,
3700,2024-11-03 23:24:21,-23.4438448567986,151.917265475412,0,,,3.453475,0,0,0.0926714,0.109114,12,4,25.917,3.453475,0,0,0.0926714,0,0,0,85.3, 4, 1.8,0,0,1024,1024,1024,1024,0,0,0,0,0,0,0,97,4.305,4.307,4.312,4.331,4.334,4.328,0,,3.453475,0,10,Assisted_Takeoff,
3800,2024-11-03 23:24:21,-23.4438448429002,151.917265493564,0,,,3.453475,0,0,0.0945034,0.111527,12,4,25.917,3.453475,0,0,0.0945034,0,0,0,85.3, 3.9, 1.7,0,0,1024,1024,1024,1024,0,0,0,0,0,0,0,97,4.305,4.307,4.312,4.331,4.334,4.328,0,,3.453475,0,10,Assisted_Takeoff,
3900,2024-11-03 23:24:21,-23.4438448373757,151.917265507706,0,,,3.453475,0,0,0.0959455,0.113095,12,4,25.917,3.453475,0,0,0.0959455,0,0,0,85.3, 3.9, 1.7,0,0,1024,1024,1024,1024,0,0,0,0,0,0,0,97,4.305,4.307,4.312,4.331,4.334,4.328,0,,3.453475,0,10,Assisted_Takeoff,
4000,2024-11-03 23:24:21,-23.4438448595002,151.917265528324,0,,,3.453475,0,0,0.0980751,0.116332,12,4,25.917,3.453475,0,0,0.0980751,0,0,0,85.3, 4, 1.8,0,0,1024,1024,1024,1024,0,0,0,0,0,0,0,97,4.305,4.307,4.312,4.331,4.334,4.328,0,,3.453475,0,10,Assisted_Takeoff,
4100,2024-11-03 23:24:21,-23.4438448886127,151.9172655558,0,,,3.453475,0,0,0.101002,0.120614,12,4,25.779,3.453475,0,0,0.101002,0,0,0,85.4, 4, 1.8,0,0,1024,1024,1024,1024,0,0,0,0,0,0,0,97,4.28,4.28,4.293,4.31,4.312,4.304,0,,3.453475,0,10,Assisted_Takeoff,
4200,2024-11-03 23:24:21,-23.4438448892359,151.917265574519,0,,,3.453475,0,0,0.102913,0.122525,12,4,25.779,3.453475,0,0,0.102913,0,0,0,85.3, 3.9, 1.8,0,0,1024,1024,1024,1024,0,0,0,0,0,0,0,97,4.28,4.28,4.293,4.31,4.312,4.304,0,,3.453475,0,10,Assisted_Takeoff,
4300,2024-11-03 23:24:22,-23.4438448811414,151.917265594667,0,,,3.453475,0,0,0.104922,0.124769,12,4,25.779,3.453475,0,0,0.104922,0,0,0,85.3, 3.9, 1.8,0,0,1024,1024,1024,1024,0,0,0,0,0,0,0,97,4.28,4.28,4.293,4.31,4.312,4.304,0,,3.453475,0,10,Assisted_Takeoff,
4400,2024-11-03 23:24:22,-23.4438448645333,151.917265598095,0,,,3.453475,0,0,0.105205,0.126649,12,4,25.779,3.453475,0,0,0.105205,0,0,0,85.4, 3.8, 1.8,0,0,1024,1024,1024,1024,0,0,0,0,0,0,0,97,4.28,4.28,4.293,4.31,4.312,4.304,0,,3.453475,0,10,Assisted_Takeoff,
4500,2024-11-03 23:24:22,-23.4438448617592,151.917265604228,0,,,3.453475,0,0,0.105823,0.127347,12,4,25.779,3.453475,0,0,0.105823,0,0,0,85.3, 3.9, 1.8,0,0,1024,1024,1024,1024,0,0,0,0,0,0,0,97,4.28,4.28,4.293,4.31,4.312,4.304,0,,3.453475,0,10,Assisted_Takeoff,
4600,2024-11-03 23:24:22,-23.4438448532942,151.917265617775,0,,,3.453475,0,0,0.107187,0.129019,12,4,25.779,3.453475,0,0,0.107187,0,0,0,85.4, 4, 1.8,0,0,1024,1024,1024,1024,0,0,0,0,0,0,0,97,4.28,4.28,4.293,4.31,4.312,4.304,0,,3.453475,0,10,Assisted_Takeoff,
4700,2024-11-03 23:24:22,-23.4438448536703,151.917265642428,0,,,3.453475,0,0,0.109702,0.131535,12,4,25.779,3.453475,0,0,0.109702,0,0,0,85.3, 4, 1.8,0,0,1024,1024,1024,1024,0,0,0,0,0,0,0,97,4.28,4.28,4.293,4.31,4.312,4.304,0,,3.453475,0,10,Assisted_Takeoff,
4800,2024-11-03 23:24:22,-23.4438448495927,151.917265659077,0,,,3.453475,0,0,0.111395,0.133293,12,4,25.779,3.453475,0,0,0.111395,0,0,0,85.4, 4, 1.8,0,0,1024,1024,1024,1024,0,0,0,0,0,0,0,97,4.28,4.28,4.293,4.31,4.312,4.304,0,,3.453475,0,10,Assisted_Takeoff,
4900,2024-11-03 23:24:22,-23.4438448559632,151.917265678164,0,,,3.453475,0,0,0.113352,0.135365,12,4,25.779,3.453475,0,0,0.113352,0,0,0,85.4, 4, 1.8,0,0,1024,1024,1024,1024,0,0,0,0,0,0,0,97,4.28,4.28,4.293,4.31,4.312,4.304,0,,3.453475,0,10,Assisted_Takeoff,
5000,2024-11-03 23:24:22,-23.4438448580671,151.917265721349,0,,,3.453475,0,0,0.117761,0.139777,12,4,25.779,3.453475,0,0,0.117761,0,0,0,85.3, 4, 1.8,0,0,1024,1024,1024,1024,0,0,0,0,0,0,0,97,4.28,4.28,4.293,4.31,4.312,4.304,0,,3.453475,0,10,Assisted_Takeoff,
5100,2024-11-03 23:24:22,-23.4438448692741,151.917265769068,0,,,3.453475,0,0,0.122657,0.144803,12,4,25.761,3.453475,0,0,0.122657,0,0,0,85.4, 4, 1.8,0,0,1024,1024,1024,1024,0,0,0,0,0,0,0,97,4.28,4.28,4.288,4.305,4.307,4.301,0,,3.453475,0,10,Assisted_Takeoff,
5200,2024-11-03 23:24:22,-23.4438448752203,151.917265803357,0,,,3.453475,0,0,0.126173,0.148363,12,4,25.761,3.453475,0,0,0.126173,0,0,0,85.4, 4, 1.8,0,0,1024,1024,1024,1024,0,0,0,0,0,0,0,97,4.28,4.28,4.288,4.305,4.307,4.301,0,,3.453475,0,10,Assisted_Takeoff,
5300,2024-11-03 23:24:23,-23.4438448887759,151.917265835477,0,,,3.453475,0,0,0.129504,0.15197,12,4,25.761,3.453475,0,0,0.129504,0,0,0,85.4, 4, 1.8,0,0,1024,1024,1024,1024,0,0,0,0,0,0,0,97,4.28,4.28,4.288,4.305,4.307,4.301,0,,3.453475,0,10,Assisted_Takeoff,
5400,2024-11-03 23:24:23,-23.4438448935525,151.917265845499,0,,,3.453475,0,0,0.13055,0.153123,12,4,25.761,3.453475,0,0,0.13055,0,0,0,85.4, 4, 1.8,0,0,1024,1024,1024,1024,0,0,0,0,0,0,0,97,4.28,4.28,4.288,4.305,4.307,4.301,0,,3.453475,0,10,Assisted_Takeoff,
5500,2024-11-03 23:24:23,-23.4438449024162,151.917265863429,0,,,3.453475,0,0,0.132426,0.155201,12,4,25.761,3.453475,0,0,0.132426,0,0,0,85.3, 4, 1.8,0,0,1024,1024,1024,1024,0,0,0,0,0,0,0,97,4.28,4.28,4.288,4.305,4.307,4.301,0,,3.453475,0,10,Assisted_Takeoff,
5600,2024-11-03 23:24:23,-23.4438448998603,151.91726589072,0,,,3.453475,0,0,0.135192,0.157999,12,4,25.761,3.453475,0,0,0.135192,0,0,0,85.4, 3.9, 1.8,0,0,1024,1024,1024,1024,0,0,0,0,0,0,0,97,4.28,4.28,4.288,4.305,4.307,4.301,0,,3.453475,0,10,Assisted_Takeoff,
5700,2024-11-03 23:24:23,-23.4438449053417,151.917265931554,0,,,3.453475,0,0,0.139384,0.16221,12,4,25.761,3.453475,0,0,0.139384,0,0,0,85.4, 4, 1.8,0,0,1024,1024,1024,1024,0,0,0,0,0,0,0,97,4.28,4.28,4.288,4.305,4.307,4.301,0,,3.453475,0,10,Assisted_Takeoff,
5800,2024-11-03 23:24:23,-23.4438448994699,151.917265947244,0,,,3.453475,0,0,0.14095,0.163939,12,4,25.761,3.453475,0,0,0.14095,0,0,0,85.4, 4.1, 1.7,0,0,1024,1024,1024,1024,0,0,0,0,0,0,0,97,4.28,4.28,4.288,4.305,4.307,4.301,0,,3.453475,0,10,Assisted_Takeoff,
5900,2024-11-03 23:24:23,-23.4438449029251,151.917265962424,0,,,3.453475,0,0,0.142515,0.165534,12,4,25.761,3.453475,0,0,0.142515,0,0,0,85.4, 4.1, 1.8,0,0,1024,1024,1024,1024,0,0,0,0,0,0,0,97,4.28,4.28,4.288,4.305,4.307,4.301,0,,3.453475,0,10,Assisted_Takeoff,
6000,2024-11-03 23:24:23,-23.4438448950931,151.917265955159,0,,,3.453475,0,0,0.141734,0.166678,12,4,25.761,3.453475,0,0,0.142515,0,0,0,85.4, 4, 1.8,0,0,1024,1024,1024,1024,0,0,0,0,0,0,0,97,4.28,4.28,4.288,4.305,4.307,4.301,0,,3.453475,0,10,Assisted_Takeoff,
6100,2024-11-03 23:24:23,-23.4438448973167,151.91726596737,0,,,3.453475,0,0,0.14299,0.167948,12,4,25.761,3.453475,0,0,0.14299,0,0,0,85.4, 4, 1.8,0,0,1024,1024,1024,1024,0,0,0,0,0,0,0,97,4.28,4.28,4.288,4.305,4.307,4.301,0,,3.453475,0,10,Assisted_Takeoff,
6200,2024-11-03 23:24:24,-23.4438448882076,151.917265950393,0,,,3.453475,0,0,0.141217,0.169955,12,4,25.761,3.453475,0,0,0.14299,0,0,0,85.4, 4, 1.8,0,0,1024,1024,1024,1024,0,0,0,0,0,0,0,97,4.28,4.28,4.288,4.305,4.307,4.301,0,,3.453475,0,10,Assisted_Takeoff,
6300,2024-11-03 23:24:24,-23.4438448915316,151.917265949673,0,,,3.453475,0,0,0.141158,0.170332,12,4,25.761,3.453475,0,0,0.14299,0,0,0,85.4, 4, 1.8,0,0,1024,1024,1024,1024,0,0,0,0,0,0,0,97,4.28,4.28,4.288,4.305,4.307,4.301,0,,3.453475,0,10,Assisted_Takeoff,
6400,2024-11-03 23:24:24,-23.4438448847125,151.917265960081,0,,,3.453475,0,0,0.14219,0.171637,12,4,25.761,3.453475,0,0,0.14299,0,0,0,85.4, 4, 1.8,0,0,1024,1024,1024,1024,0,0,0,0,0,0,0,97,4.28,4.28,4.288,4.305,4.307,4.301,0,,3.453475,0,10,Assisted_Takeoff,
6500,2024-11-03 23:24:24,-23.4438448879861,151.917265990981,0,,,3.453475,0,0,0.145354,0.17481,12,4,25.761,3.453475,0,0,0.145354,0,0,0,85.4, 3.9, 1.8,0,0,1024,1024,1024,1024,0,0,0,0,0,0,0,97,4.28,4.28,4.288,4.305,4.307,4.301,0,,3.453475,0,10,Assisted_Takeoff,
6600,2024-11-03 23:24:24,-23.4438448817602,151.91726600609,0,,,3.453475,0,0,0.14687,0.1765,12,4,25.761,3.453475,0,0,0.14687,0,0,0,85.4, 3.9, 1.8,0,0,1024,1024,1024,1024,0,0,0,0,0,0,0,97,4.28,4.28,4.288,4.305,4.307,4.301,0,,3.453475,0,10,Assisted_Takeoff,
6700,2024-11-03 23:24:24,-23.4438448853924,151.91726601424,0,,,3.453475,0,0,0.147715,0.177424,12,4,25.761,3.453475,0,0,0.147715,0,0,0,85.4, 4, 1.8,0,0,1024,1024,1024,1024,0,0,0,0,0,0,0,97,4.28,4.28,4.288,4.305,4.307,4.301,0,,3.453475,0,10,Assisted_Takeoff,
6800,2024-11-03 23:24:24,-23.4438448810323,151.917265997024,0,,,3.453475,0,0,0.145943,0.179247,12,4,25.761,3.453475,0,0,0.147715,0,0,0,85.3, 4.1, 1.8,0,0,1024,1024,1024,1024,0,0,0,0,0,0,0,97,4.28,4.28,4.288,4.305,4.307,4.301,0,,3.453475,0,10,Assisted_Takeoff,
6900,2024-11-03 23:24:24,-23.443844886845,151.917266004393,0,,,3.453475,0,0,0.146716,0.180238,12,4,25.761,3.453475,0,0,0.147715,0,0,0,85.4, 4, 1.8,0,0,1024,1024,1024,1024,0,0,0,0,0,0,0,97,4.28,4.28,4.288,4.305,4.307,4.301,0,,3.453475,0,10,Assisted_Takeoff,
7000,2024-11-03 23:24:24,-23.4438448833699,151.917266034443,0,,,3.453475,0,0,0.149767,0.183328,12,4,25.761,3.453475,0,0,0.149767,0,0,0,85.4, 3.9, 1.8,0,0,1024,1024,1024,1024,0,0,0,0,0,0,0,97,4.28,4.28,4.288,4.305,4.307,4.301,0,,3.453475,0,10,Assisted_Takeoff,
7100,2024-11-03 23:24:24,-23.4438448899455,151.917266069152,0,,,3.453475,0,0,0.153332,0.186944,12,4,25.761,3.453475,0,0,0.153332,0,0,0,85.4, 3.9, 1.8,0,0,1024,1024,1024,1024,0,0,0,0,0,0,0,97,4.28,4.28,4.288,4.305,4.307,4.301,0,,3.453475,0,10,Assisted_Takeoff,
7200,2024-11-03 23:24:25,-23.443844887934,151.917266083923,-0.1,,,3.353475,0,0,0.15483,0.188468,12,4,25.761,3.453475,0,0,0.15483,0,0,0,85.4, 4, 1.8,0,0,1024,1024,1024,1024,0,0,0,0,0,0,0,97,4.28,4.28,4.288,4.305,4.307,4.301,0,,3.353475,-0.1,10,Assisted_Takeoff,
7300,2024-11-03 23:24:25,-23.4438448941779,151.917266102646,-0.1,,,3.353475,0,0,0.156764,0.1905,12,4,25.761,3.453475,0,0,0.156764,0,0,0,85.4, 4.1, 1.8,0,0,1024,1024,1024,1024,0,0,0,0,0,0,0,97,4.28,4.28,4.288,4.305,4.307,4.301,0,,3.353475,-0.1,10,Assisted_Takeoff,
7400,2024-11-03 23:24:25,-23.4438449203856,151.917266109107,-0.1,,,3.353475,0,0,0.157563,0.193488,12,4,25.761,3.453475,0,0,0.157563,0,0,0,85.4, 4, 1.8,0,0,1024,1024,1024,1024,0,0,0,0,0,0,0,97,4.28,4.28,4.288,4.305,4.307,4.301,0,,3.353475,-0.1,10,Assisted_Takeoff,
7500,2024-11-03 23:24:25,-23.4438449533445,151.917266125034,-0.1,,,3.353475,0,0,0.159436,0.197498,12,4,25.752,3.453475,0,0,0.159436,0,0,0,85.4, 3.9, 1.8,0,0,1024,1024,1024,1024,0,0,0,0,0,0,0,97,4.278,4.28,4.286,4.303,4.305,4.3,0,,3.353475,-0.1,10,Assisted_Takeoff,
7600,2024-11-03 23:24:25,-23.4438449819571,151.917266153341,-0.1,,,3.353475,0,0,0.162595,0.201795,12,4,25.752,3.453475,0,0,0.162595,0,0,0,85.4, 3.9, 1.8,0,0,1024,1024,1024,1024,0,0,0,0,0,0,0,97,4.278,4.28,4.286,4.303,4.305,4.3,0,,3.353475,-0.1,10,Assisted_Takeoff,
7700,2024-11-03 23:24:25,-23.4438450056009,151.917266191783,-0.1,,,3.353475,0,0,0.16677,0.206517,12,4,25.752,3.453475,0,0,0.16677,0,0,0,85.4, 3.9, 1.8,0,0,1024,1024,1024,1024,0,0,0,0,0,0,0,97,4.278,4.28,4.286,4.303,4.305,4.3,0,,3.353475,-0.1,10,Assisted_Takeoff,
7800,2024-11-03 23:24:25,-23.443845018361,151.917266209228,-0.1,,,3.353475,0,0,0.168701,0.208793,12,4,25.752,3.453475,0,0,0.168701,0,0,0,85.4, 4, 1.8,0,0,1024,1024,1024,1024,0,0,0,0,0,0,0,97,4.278,4.28,4.286,4.303,4.305,4.3,0,,3.353475,-0.1,10,Assisted_Takeoff,
7900,2024-11-03 23:24:25,-23.4438450348225,151.917266223051,-0.1,,,3.353475,0,0,0.170326,0.211104,12,4,25.752,3.453475,0,0,0.170326,0,0,0,85.4, 4.1, 1.8,0,0,1024,1024,1024,1024,0,0,0,0,0,0,0,97,4.278,4.28,4.286,4.303,4.305,4.3,0,,3.353475,-0.1,10,Assisted_Takeoff,
8000,2024-11-03 23:24:25,-23.4438450343095,151.917266248534,-0.1,,,3.353475,0,0,0.172897,0.213704,12,4,25.752,3.453475,0,0,0.172897,0,0,0,85.4, 4.1, 1.8,0,0,1024,1024,1024,1024,0,0,0,0,0,0,0,97,4.278,4.28,4.286,4.303,4.305,4.3,0,,3.353475,-0.1,10,Assisted_Takeoff,
8100,2024-11-03 23:24:25,-23.4438450447365,151.917266288782,-0.1,,,3.353475,0,0,0.177118,0.217971,12,4,25.752,3.453475,0,0,0.177118,0,0,0,85.4, 4, 1.8,0,0,1024,1024,1024,1024,0,0,0,0,0,0,0,97,4.278,4.28,4.286,4.303,4.305,4.3,0,,3.353475,-0.1,10,Assisted_Takeoff,
8200,2024-11-03 23:24:26,-23.4438450689905,151.91726631543,-0.1,,,3.353475,0,0,0.180177,0.221801,12,4,25.752,3.453475,0,0,0.180177,0,0,0,85.4, 4, 1.8,0,0,1024,1024,1024,1024,0,0,0,0,0,0,0,97,4.278,4.28,4.286,4.303,4.305,4.3,0,,3.353475,-0.1,10,Assisted_Takeoff,
8300,2024-11-03 23:24:26,-23.4438451040387,151.91726634018,-0.1,,,3.353475,0,0,0.183263,0.226445,12,4,25.752,3.453475,0,0,0.183263,0,0,0,85.4, 4, 1.8,0,0,1024,1024,1024,1024,0,0,0,0,0,0,0,97,4.278,4.28,4.286,4.303,4.305,4.3,0,,3.353475,-0.1,10,Assisted_Takeoff,
8400,2024-11-03 23:24:26,-23.4438451234567,151.917266370108,-0.1,,,3.353475,0,0,0.186631,0.230185,12,4,25.752,3.453475,0,0,0.186631,0,0,0,85.4, 4, 1.8,0,0,1024,1024,1024,1024,0,0,0,0,0,0,0,97,4.278,4.28,4.286,4.303,4.305,4.3,0,,3.353475,-0.1,10,Assisted_Takeoff,
8500,2024-11-03 23:24:26,-23.4438451424732,151.917266402643,-0.1,,,3.353475,0,0,0.190267,0.234121,12,4,25.752,3.453475,0,0,0.190267,0,0,0,85.4, 4.1, 1.8,0,0,1024,1024,1024,1024,0,0,0,0,0,0,0,97,4.278,4.28,4.286,4.303,4.305,4.3,0,,3.353475,-0.1,10,Assisted_Takeoff,
8600,2024-11-03 23:24:26,-23.4438451435309,151.917266420948,-0.1,,,3.353475,0,0,0.192126,0.235992,12,4,25.752,3.453475,0,0,0.192126,0,0,0,85.4, 4, 1.8,0,0,1024,1024,1024,1024,0,0,0,0,0,0,0,97,4.278,4.28,4.286,4.303,4.305,4.3,0,,3.353475,-0.1,10,Assisted_Takeoff,
8700,2024-11-03 23:24:26,-23.443845150806,151.91726644629,-0.1,,,3.353475,0,0,0.194814,0.238701,12,4,25.752,3.453475,0,0,0.194814,0,0,0,85.4, 4, 1.8,0,0,1024,1024,1024,1024,0,0,0,0,0,0,0,97,4.278,4.28,4.286,4.303,4.305,4.3,0,,3.353475,-0.1,10,Assisted_Takeoff,
8800,2024-11-03 23:24:26,-23.443845137559,151.91726647927,-0.1,,,3.353475,0,0,0.197874,0.242374,12,4,25.752,3.453475,0,0,0.197874,0,0,0,85.4, 4, 1.8,0,0,1024,1024,1024,1024,0,0,0,0,0,0,0,97,4.278,4.28,4.286,4.303,4.305,4.3,0,,3.353475,-0.1,10,Assisted_Takeoff,
8900,2024-11-03 23:24:26,-23.4438451404157,151.9172665194,-0.1,,,3.353475,0,0,0.201963,0.246481,12,4,25.752,3.453475,0,0,0.201963,0,0,0,85.4, 4, 1.9,0,0,1024,1024,1024,1024,0,0,0,0,0,0,0,97,4.278,4.28,4.286,4.303,4.305,4.3,0,,3.353475,-0.1,10,Assisted_Takeoff,
9000,2024-11-03 23:24:26,-23.4438451576186,151.917266545024,-0.1,,,3.353475,0,0,0.204864,0.249721,12,4,25.752,3.453475,0,0,0.204864,0,0,0,85.4, 3.9, 1.8,0,0,1024,1024,1024,1024,0,0,0,0,0,0,0,97,4.278,4.28,4.286,4.303,4.305,4.3,0,,3.353475,-0.1,10,Assisted_Takeoff,
9100,2024-11-03 23:24:26,-23.4438451867881,151.917266575983,-0.1,,,3.353475,0,0,0.208553,0.254248,12,4,25.752,3.453475,0,0,0.208553,0,0,0,85.4, 3.9, 1.8,0,0,1024,1024,1024,1024,0,0,0,0,0,0,0,97,4.278,4.28,4.286,4.303,4.305,4.3,0,,3.353475,-0.1,10,Assisted_Takeoff,
9200,2024-11-03 23:24:26,-23.4438452079664,151.917266606028,-0.1,,,3.353475,0,0,0.212009,0.258114,12,4,25.752,3.453475,0,0,0.212009,0,0,0,85.4, 3.9, 1.8,0,0,1024,1024,1024,1024,0,0,0,0,0,0,0,97,4.278,4.28,4.286,4.303,4.305,4.3,0,,3.353475,-0.1,10,Assisted_Takeoff,
9300,2024-11-03 23:24:27,-23.4438452302403,151.91726663666,-0.1,,,3.353475,0,0,0.215562,0.262102,12,4,25.752,3.453475,0,0,0.215562,0,0,0,85.4, 4.1, 1.9,0,0,1024,1024,1024,1024,0,0,0,0,0,0,0,97,4.278,4.28,4.286,4.303,4.305,4.3,0,,3.353475,-0.1,10,Assisted_Takeoff,
9400,2024-11-03 23:24:27,-23.4438452374437,151.91726664636,-0.1,,,3.353475,0,0,0.216694,0.263375,12,4,25.752,3.453475,0,0,0.216694,0,0,0,85.4, 4.1, 1.8,0,0,1024,1024,1024,1024,0,0,0,0,0,0,0,97,4.278,4.28,4.286,4.303,4.305,4.3,0,,3.353475,-0.1,10,Assisted_Takeoff,
9500,2024-11-03 23:24:27,-23.4438452525158,151.917266672568,-0.1,,,3.353475,0,0,0.219657,0.266531,12,4,25.747,3.453475,0,0,0.219657,0,0,0,85.4, 4, 1.8,0,0,1024,1024,1024,1024,0,0,0,0,0,0,0,97,4.277,4.279,4.285,4.302,4.305,4.299,0,,3.353475,-0.1,10,Assisted_Takeoff,
9600,2024-11-03 23:24:27,-23.44384524889,151.91726670694,-0.1,,,3.353475,0,0,0.223004,0.270061,12,4,25.747,3.453475,0,0,0.223004,0,0,0,85.5, 3.9, 1.8,0,0,1024,1024,1024,1024,0,0,0,0,0,0,0,97,4.277,4.279,4.285,4.302,4.305,4.299,0,,3.353475,-0.1,10,Assisted_Takeoff,
9700,2024-11-03 23:24:27,-23.4438452609303,151.917266745999,-0.1,,,3.353475,0,0,0.227179,0.274265,12,4,25.747,3.453475,0,0,0.227179,0,0,0,85.4, 4, 1.8,0,0,1024,1024,1024,1024,0,0,0,0,0,0,0,97,4.277,4.279,4.285,4.302,4.305,4.299,0,,3.353475,-0.1,10,Assisted_Takeoff,
9800,2024-11-03 23:24:27,-23.4438452541071,151.917266786626,-0.1,,,3.353475,0,0,0.231084,0.278478,12,4,25.747,3.453475,0,0,0.231084,0,0,0,85.4, 4.1, 1.8,0,0,1024,1024,1024,1024,0,0,0,0,0,0,0,97,4.277,4.279,4.285,4.302,4.305,4.299,0,,3.353475,-0.1,10,Assisted_Takeoff,
9900,2024-11-03 23:24:27,-23.4438452608945,151.917266835021,-0.1,,,3.353475,0,0,0.236073,0.283473,12,4,25.747,3.453475,0,0,0.236073,0,0,0,85.4, 4.1, 1.8,0,0,1024,1024,1024,1024,0,0,0,0,0,0,0,97,4.277,4.279,4.285,4.302,4.305,4.299,0,,3.353475,-0.1,10,Assisted_Takeoff,
10000,2024-11-03 23:24:27,-23.4438452789242,151.917266868193,-0.1,,,3.353475,0,0,0.239792,0.287407,12,4,25.747,3.453475,0,0,0.239792,0,0,0,85.4, 3.9, 1.8,0,0,1024,1024,1024,1024,0,0,0,0,0,0,0,97,4.277,4.279,4.285,4.302,4.305,4.299,0,,3.353475,-0.1,10,Assisted_Takeoff,
10100,2024-11-03 23:24:27,-23.4438453123497,151.917266897034,-0.1,,,3.353475,0,0,0.243449,0.292148,12,4,25.747,3.453475,0,0,0.243449,0,0,0,85.5, 3.9, 1.8,0,0,1024,1024,1024,1024,0,0,0,0,0,0,0,97,4.277,4.279,4.285,4.302,4.305,4.299,0,,3.353475,-0.1,10,Assisted_Takeoff,
10200,2024-11-03 23:24:27,-23.4438453318784,151.917266919987,-0.1,,,3.353475,0,0,0.246211,0.295342,12,4,25.747,3.453475,0,0,0.246211,0,0,0,85.4, 4, 1.8,0,0,1024,1024,1024,1024,0,0,0,0,0,0,0,97,4.277,4.279,4.285,4.302,4.305,4.299,0,,3.353475,-0.1,10,Assisted_Takeoff,
10300,2024-11-03 23:24:28,-23.4438453527815,151.917266954953,-0.1,,,3.353475,0,0,0.25021,0.2996,12,4,25.747,3.453475,0,0,0.25021,0,0,0,85.4, 4.2, 1.8,0,0,1024,1024,1024,1024,0,0,0,0,0,0,0,97,4.277,4.279,4.285,4.302,4.305,4.299,0,,3.353475,-0.1,10,Assisted_Takeoff,
10400,2024-11-03 23:24:28,-23.4438453565668,151.917266998211,-0.1,,,3.353475,0,0,0.254604,0.304033,12,4,25.747,3.453475,0,0,0.254604,0,0,0,85.4, 4.1, 1.8,0,0,1024,1024,1024,1024,0,0,0,0,0,0,0,97,4.277,4.279,4.285,4.302,4.305,4.299,0,,3.353475,-0.1,10,Assisted_Takeoff,
10500,2024-11-03 23:24:28,-23.4438453691066,151.917267051112,-0.1,,,3.353475,0,0,0.260177,0.309608,12,4,25.747,3.453475,0,0,0.260177,0,0,0,85.4, 4, 1.8,0,0,1024,1024,1024,1024,0,0,0,0,0,0,0,97,4.277,4.279,4.285,4.302,4.305,4.299,0,,3.353475,-0.1,10,Assisted_Takeoff,
10600,2024-11-03 23:24:28,-23.4438453589594,151.917267110636,-0.1,,,3.353475,0,0,0.265848,0.315785,12,4,25.747,3.453475,0,0,0.265848,0,0,0,85.5, 3.9, 1.8,0,0,1024,1024,1024,1024,0,0,0,0,0,0,0,97,4.277,4.279,4.285,4.302,4.305,4.299,0,,3.353475,-0.1,10,Assisted_Takeoff,
10700,2024-11-03 23:24:28,-23.4438453648112,151.917267162264,-0.1,,,3.353475,0,0,0.271131,0.321092,12,4,25.747,3.453475,0,0,0.271131,0,0,0,85.4, 4, 1.8,0,0,1024,1024,1024,1024,0,0,0,0,0,0,0,97,4.277,4.279,4.285,4.302,4.305,4.299,0,,3.353475,-0.1,10,Assisted_Takeoff,
10800,2024-11-03 23:24:28,-23.4438453500978,151.917267219688,-0.1,,,3.353475,0,0,0.276514,0.327175,12,4,25.747,3.453475,0,0,0.276514,0,0,0,85.4, 4, 1.8,0,0,1024,1024,1024,1024,0,0,0,0,0,0,0,97,4.277,4.279,4.285,4.302,4.305,4.299,0,,3.353475,-0.1,10,Assisted_Takeoff,
10900,2024-11-03 23:24:28,-23.4438453522022,151.917267281662,-0.1,,,3.353475,0,0,0.282752,0.333502,12,4,25.747,3.453475,0,0,0.282752,0,0,0,85.5, 4, 1.8,0,0,1024,1024,1024,1024,0,0,0,0,0,0,0,97,4.277,4.279,4.285,4.302,4.305,4.299,0,,3.353475,-0.1,10,Assisted_Takeoff,
11000,2024-11-03 23:24:28,-23.4438453665435,151.917267342503,-0.1,,,3.353475,0,0,0.289154,0.339911,12,4,25.747,3.453475,0,0,0.289154,0,0,0,85.5, 4, 1.8,0,0,1024,1024,1024,1024,0,0,0,0,0,0,0,97,4.277,4.279,4.285,4.302,4.305,4.299,0,,3.353475,-0.1,10,Assisted_Takeoff,
11100,2024-11-03 23:24:28,-23.443845396892,151.917267395626,-0.1,,,3.353475,0,0,0.295154,0.346296,12,4,25.747,3.453475,0,0,0.295154,0,0,0,85.4, 4, 1.8,0,0,1024,1024,1024,1024,0,0,0,0,0,0,0,97,4.277,4.279,4.285,4.302,4.305,4.299,0,,3.353475,-0.1,10,Assisted_Takeoff,
11200,2024-11-03 23:24:28,-23.4438454161699,151.91726744775,-0.1,,,3.353475,0,0,0.300805,0.35203,12,4,25.747,3.453475,0,0,0.300805,0,0,0,85.5, 4, 1.8,0,0,1024,1024,1024,1024,0,0,0,0,0,0,0,97,4.277,4.279,4.285,4.302,4.305,4.299,0,,3.353475,-0.1,10,Assisted_Takeoff,
11300,2024-11-03 23:24:28,-23.4438454345412,151.917267508798,-0.1,,,3.353475,0,0,0.307327,0.358585,12,4,25.737,3.453475,0,0,0.307327,0,0,0,85.5, 4, 1.8,0,0,1024,1024,1024,1024,0,0,0,0,0,0,0,97,4.275,4.277,4.283,4.301,4.303,4.298,0,,3.353475,-0.1,10,Assisted_Takeoff,
11400,2024-11-03 23:24:29,-23.4438454348233,151.917267540391,-0.1,,,3.353475,0,0,0.310482,0.361808,12,4,25.737,3.453475,0,0,0.310482,0,0,0,85.5, 3.9, 1.8,0,0,1024,1024,1024,1024,0,0,0,0,0,0,0,97,4.275,4.277,4.283,4.301,4.303,4.298,0,,3.353475,-0.1,10,Assisted_Takeoff,
11500,2024-11-03 23:24:29,-23.4438454432029,151.917267570433,-0.1,,,3.353475,0,0,0.313676,0.365012,12,4,25.737,3.453475,0,0,0.313676,0,0,0,85.5, 3.9, 1.8,0,0,1024,1024,1024,1024,0,0,0,0,0,0,0,97,4.275,4.277,4.283,4.301,4.303,4.298,0,,3.353475,-0.1,10,Assisted_Takeoff,
11600,2024-11-03 23:24:29,-23.4438454355968,151.917267589614,-0.1,,,3.353475,0,0,0.315408,0.367144,12,4,25.737,3.453475,0,0,0.315408,0,0,0,85.5, 3.9, 1.8,0,0,1024,1024,1024,1024,0,0,0,0,0,0,0,97,4.275,4.277,4.283,4.301,4.303,4.298,0,,3.353475,-0.1,10,Assisted_Takeoff,
11700,2024-11-03 23:24:29,-23.4438454406181,151.917267627158,-0.1,,,3.353475,0,0,0.319271,0.371015,12,4,25.737,3.453475,0,0,0.319271,0,0,0,85.5, 4, 1.8,0,0,1024,1024,1024,1024,0,0,0,0,0,0,0,97,4.275,4.277,4.283,4.301,4.303,4.298,0,,3.353475,-0.1,10,Assisted_Takeoff,
11800,2024-11-03 23:24:29,-23.4438454578735,151.917267661775,-0.1,,,3.353475,0,0,0.323128,0.375034,12,4,25.737,3.453475,0,0,0.323128,0,0,0,85.5, 4, 1.8,0,0,1024,1024,1024,1024,0,0,0,0,0,0,0,97,4.275,4.277,4.283,4.301,4.303,4.298,0,,3.353475,-0.1,10,Assisted_Takeoff,
11900,2024-11-03 23:24:29,-23.4438454878727,151.917267710188,-0.1,,,3.353475,0,0,0.328672,0.380995,12,4,25.737,3.453475,0,0,0.328672,0,0,0,85.5, 3.9, 1.8,0,0,1024,1024,1024,1024,0,0,0,0,0,0,0,97,4.275,4.277,4.283,4.301,4.303,4.298,0,,3.353475,-0.1,10,Assisted_Takeoff,
12000,2024-11-03 23:24:29,-23.4438455038091,151.917267752559,-0.1,,,3.353475,0,0,0.33328,0.385667,12,4,25.737,3.453475,0,0,0.33328,0,0,0,85.5, 3.9, 1.8,0,0,1024,1024,1024,1024,0,0,0,0,0,0,0,97,4.275,4.277,4.283,4.301,4.303,4.298,0,,3.353475,-0.1,10,Assisted_Takeoff,
12100,2024-11-03 23:24:29,-23.4438455195342,151.917267794558,-0.1,,,3.353475,0,0,0.337846,0.390295,12,4,25.737,3.453475,0,0,0.337846,0,0,0,85.5, 4, 1.8,0,0,1024,1024,1024,1024,0,0,0,0,0,0,0,97,4.275,4.277,4.283,4.301,4.303,4.298,0,,3.353475,-0.1,10,Assisted_Takeoff,
12200,2024-11-03 23:24:29,-23.4438455511374,151.917267799971,-0.1,,,3.353475,0,0,0.339188,0.393853,12,4,25.737,3.453475,0,0,0.339188,0,0,0,85.5, 4, 1.8,0,0,1024,1024,1024,1024,0,0,0,0,0,0,0,97,4.275,4.277,4.283,4.301,4.303,4.298,0,,3.353475,-0.1,10,Assisted_Takeoff,
12300,2024-11-03 23:24:30,-23.4438455892963,151.917267816965,-0.1,,,3.353475,0,0,0.341885,0.398437,12,4,25.737,3.453475,0,0,0.341885,0,0,0,85.5, 4, 1.8,0,0,1024,1024,1024,1024,0,0,0,0,0,0,0,97,4.275,4.277,4.283,4.301,4.303,4.298,0,,3.353475,-0.1,10,Assisted_Takeoff,
12400,2024-11-03 23:24:30,-23.4438456161147,151.917267832993,-0.1,,,3.353475,0,0,0.344207,0.401838,12,4,25.735,3.453475,0,0,0.344207,0,0,0,85.5, 3.9, 1.8,0,0,1024,1024,1024,1024,0,0,0,0,0,0,0,97,4.275,4.277,4.283,4.301,4.302,4.297,0,,3.353475,-0.1,10,Assisted_Takeoff,
12500,2024-11-03 23:24:30,-23.4438456414724,151.917267864164,-0.1,,,3.353475,0,0,0.347999,0.406088,12,4,25.735,3.453475,0,0,0.347999,0,0,0,85.5, 3.9, 1.8,0,0,1024,1024,1024,1024,0,0,0,0,0,0,0,97,4.275,4.277,4.283,4.301,4.302,4.297,0,,3.353475,-0.1,10,Assisted_Takeoff,
12600,2024-11-03 23:24:30,-23.4438456499363,151.917267896324,-0.1,,,3.353475,0,0,0.351412,0.409502,12,4,25.735,3.453475,0,0,0.351412,0,0,0,85.5, 4, 1.8,0,0,1024,1024,1024,1024,0,0,0,0,0,0,0,97,4.275,4.277,4.283,4.301,4.302,4.297,0,,3.353475,-0.1,10,Assisted_Takeoff,
12700,2024-11-03 23:24:30,-23.4438456627867,151.917267937657,-0.1,,,3.353475,0,0,0.355855,0.413954,12,4,25.735,3.453475,0,0,0.355855,0,0,0,85.5, 4, 1.8,0,0,1024,1024,1034,1024,0,0,2,0,0,0,0,97,4.275,4.277,4.283,4.301,4.302,4.297,0,,3.353475,-0.1,10,Assisted_Takeoff,
12800,2024-11-03 23:24:30,-23.4438456551567,151.917267959832,-0.1,,,3.353475,0,0,0.357825,0.416371,12,4,25.735,3.453475,0,0,0.357825,0,0,0,85.5, 4, 1.8,0,0,1024,1024,1080,1024,0,0,8,0,0,0,0,97,4.275,4.277,4.283,4.301,4.302,4.297,0,,3.353475,-0.1,10,Assisted_Takeoff,
12900,2024-11-03 23:24:30,-23.4438456631458,151.917267984613,-0.1,,,3.353475,0,0,0.360496,0.419051,12,4,25.735,3.453475,0,0,0.360496,0,0,0,85.5, 3.9, 1.8,0,0,1024,1024,1126,1024,0,0,15,0,0,0,0,97,4.275,4.277,4.283,4.301,4.302,4.297,0,,3.353475,-0.1,10,Assisted_Takeoff,
13000,2024-11-03 23:24:30,-23.4438456818794,151.917268010614,-0.1,,,3.353475,0,0,0.363594,0.422424,12,4,25.735,3.453475,0,0,0.363594,0,0,0,85.5, 3.9, 1.8,0,0,1024,1024,1154,1024,0,0,20,0,0,0,0,97,4.275,4.277,4.283,4.301,4.302,4.297,0,,3.353475,-0.1,10,Assisted_Takeoff,
13100,2024-11-03 23:24:30,-23.443845715699,151.91726804929,-0.1,,,3.353475,0,0,0.368385,0.427875,12,4,25.735,3.453475,0,0,0.368385,0,0,0,85.5, 3.9, 1.8,0,0,1024,1024,1184,1024,0,0,24,0,0,0,0,97,4.275,4.277,4.283,4.301,4.302,4.297,0,,3.353475,-0.1,10,Assisted_Takeoff,
13200,2024-11-03 23:24:30,-23.4438457351686,151.917268097678,-0.1,,,3.353475,0,0,0.37372,0.433266,12,4,25.735,3.453475,0,0,0.37372,0,0,0,85.5, 3.8, 1.8,0,0,1024,1024,1230,1024,0,0,31,0,0,0,0,97,4.275,4.277,4.283,4.301,4.302,4.297,0,,3.353475,-0.1,10,Assisted_Takeoff,
13300,2024-11-03 23:24:31,-23.4438457564145,151.917268157334,-0.1,,,3.353475,0,0,0.380216,0.439795,12,4,25.733,3.453475,0,0,0.380216,0,0,0,85.5, 3.6, 1.8,0,0,1024,1024,1247,1024,0,0,34,0,0,0,0,97,4.275,4.276,4.283,4.3,4.302,4.297,0,,3.353475,-0.1,10,Assisted_Takeoff,
13400,2024-11-03 23:24:31,-23.4438457865155,151.917268225504,0,,,3.453475,0,0,0.387817,0.447513,12,4,25.733,3.453475,0,0,0.387817,0,0,0,85.6, 3.4, 1.7,0,0,1024,1024,1232,1024,0,0,32,0,0,0,0,97,4.275,4.276,4.283,4.3,4.302,4.297,0,,3.453475,0,10,Assisted_Takeoff,
13500,2024-11-03 23:24:31,-23.4438458271256,151.917268272848,0,,,3.453475,0,0,0.393704,0.454126,12,4,25.733,3.453475,0,0,0.393704,0,0,-0.1,85.6, 3.5, 1.8,0,0,1024,1024,1253,1024,0,0,35,0,0,0,0,97,4.275,4.276,4.283,4.3,4.302,4.297,0,,3.453475,0,10,Assisted_Takeoff,
13600,2024-11-03 23:24:31,-23.4438458508081,151.91726830833,0,,,3.453475,0,0,0.397918,0.458603,12,4,25.733,3.453475,0,0,0.397918,0,0,0,85.6, 3.7, 1.7,0,0,1024,1024,1267,1024,0,0,37,0,0,0,0,97,4.275,4.276,4.283,4.3,4.302,4.297,0,,3.453475,0,10,Assisted_Takeoff,
13700,2024-11-03 23:24:31,-23.4438458668857,151.917268326504,0,,,3.453475,0,0,0.400204,0.461178,12,4,25.733,3.453475,0,0,0.400204,0,0,-0.1,85.6, 3.9, 1.7,0,0,1024,1024,1267,1024,0,0,37,0,0,0,0,97,4.275,4.276,4.283,4.3,4.302,4.297,0,,3.453475,0,10,Assisted_Takeoff,
13800,2024-11-03 23:24:31,-23.4438458573158,151.917268298245,0,,,3.453475,0,0,0.397137,0.464252,12,4,25.733,3.453475,0,0,0.400204,0,0,-0.1,85.6, 4.3, 1.6,0,0,1024,1024,1262,1024,0,0,36,0,0,0,0,97,4.275,4.276,4.283,4.3,4.302,4.297,0,,3.453475,0,10,Assisted_Takeoff,
13900,2024-11-03 23:24:31,-23.443845856894,151.917268246984,0,,,3.453475,0,0,0.392114,0.469482,12,4,25.733,3.453475,0,0,0.400204,0,0,-0.1,85.6, 4.9, 1.5,0,0,1024,1024,1260,1024,0,0,36,0,0,0,0,97,4.275,4.276,4.283,4.3,4.302,4.297,0,,3.453475,0,10,Assisted_Takeoff,
14000,2024-11-03 23:24:31,-23.4438458501775,151.917268109735,0,,,3.453475,0,0,0.378506,0.483505,12,4,25.733,3.453475,0,0,0.400204,0,-0.1,-0.2,85.6, 5.9, 1.1,0,0,1024,1024,1267,1024,0,0,37,0,0,0,0,97,4.275,4.276,4.283,4.3,4.302,4.297,0,,3.453475,0,10,Assisted_Takeoff,
14100,2024-11-03 23:24:31,-23.4438458761162,151.917267891444,0,,,3.453475,0,0.2,0.358219,0.505962,12,4,25.733,3.453475,0,0.2,0.400204,0,-0.2,-0.3,85.8, 6.4, 0.5,0,0,1024,1024,1254,1024,0,0,35,0,0,0,0,97,4.275,4.276,4.283,4.3,4.302,4.297,0,,3.453475,0,6,P-GPS,
14200,2024-11-03 23:24:31,-23.4438459048891,151.917267450974,0,,,3.453475,0,0.3,0.317185,0.551015,12,4,25.733,3.453475,0,0.3,0.400204,0,-0.3,-0.4,85.8, 5, 0.1,0,0,1024,1024,1251,1024,0,0,34,0,0,0,0,97,4.275,4.276,4.283,4.3,4.302,4.297,0,,3.453475,0,6,P-GPS,
14300,2024-11-03 23:24:32,-23.4438459672081,151.917266938283,0.1,,,3.553475,0,0.5,0.272497,0.60378,12,4,25.733,3.553475,0.1,0.5,0.400204,0,-0.5,-0.6,85.8, 2.8, -0.1,0,0,1037,1024,1244,1024,2,0,33,0,0,0,0,97,4.275,4.276,4.283,4.3,4.302,4.297,0,,3.553475,0.1,6,P-GPS,
14400,2024-11-03 23:24:32,-23.4438460120973,151.917266281095,0.2,,,3.653475,0,0.5,0.218148,0.671016,12,4,25.721,3.653475,0.2,0.5,0.400204,0,-0.5,-0.6,85.7, 0.9, -0.1,0,0,1052,1024,1229,1024,4,0,31,0,0,0,0,97,4.273,4.275,4.282,4.298,4.301,4.292,0,,3.653475,0.2,6,P-GPS,
14500,2024-11-03 23:24:32,-23.4438460718702,151.917265650832,0.3,,,3.753475,0,0.5,0.17611,0.735662,12,4,25.721,3.753475,0.3,0.5,0.400204,0,-0.5,-0.7,85.7, -0.6, 0,0,0,1055,1024,1237,1024,5,0,32,0,0,0,0,97,4.273,4.275,4.282,4.298,4.301,4.292,0,,3.753475,0.3,6,P-GPS,
14600,2024-11-03 23:24:32,-23.4438460326153,151.917264889547,0.3,,,3.753475,0,0.5,0.136737,0.813456,12,4,25.721,3.753475,0.3,0.5,0.400204,0,-0.5,-0.8,85.8, -1.8, 0,0,0,1052,1024,1233,1024,4,0,32,0,0,0,0,97,4.273,4.275,4.282,4.298,4.301,4.292,0,,3.753475,0.3,6,P-GPS,
14700,2024-11-03 23:24:32,-23.4438459976364,151.917264197779,0.4,,,3.853475,0,0.6,0.134239,0.884141,12,4,25.721,3.853475,0.4,0.6,0.400204,0,-0.6,-0.8,85.8, -2.2, -0.2,0,0,1086,1024,1234,1024,9,0,32,0,0,0,0,97,4.273,4.275,4.282,4.298,4.301,4.292,0,,3.853475,0.4,6,P-GPS,
14800,2024-11-03 23:24:32,-23.4438459272298,151.917263431088,0.5,,,3.953475,0,0.5,0.167573,0.962754,12,4,25.721,3.953475,0.5,0.6,0.400204,0,-0.5,-0.9,85.7, -2, -0.2,0,0,1164,1024,1235,1024,21,0,32,0,0,0,0,97,4.273,4.275,4.282,4.298,4.301,4.292,0,,3.953475,0.5,6,P-GPS,
14900,2024-11-03 23:24:32,-23.4438459084444,151.917262771217,0.6,,,4.053475,0,0.5,0.218451,1.03011,12,4,25.721,4.053475,0.6,0.6,0.400204,0,-0.5,-1,85.7, -1.8, -0.3,0,0,1200,1024,1229,1024,27,0,31,0,0,0,0,97,4.273,4.275,4.282,4.298,4.301,4.292,0,,4.053475,0.6,6,P-GPS,
15000,2024-11-03 23:24:32,-23.4438458746673,151.917262144035,0.7,,,4.153475,0,0.5,0.272742,1.09421,10,4,25.721,4.153475,0.7,0.6,0.400204,0,-0.5,-1,85.7, -1.9, -0.4,0,0,1213,1024,1221,1024,29,0,30,0,0,0,0,97,4.273,4.275,4.282,4.298,4.301,4.292,0,,4.153475,0.7,6,P-GPS,
15100,2024-11-03 23:24:32,-23.4438458598631,151.917261604942,0.8,,,4.253475,0,0.5,0.322852,1.14924,10,4,25.721,4.253475,0.8,0.6,0.400204,0,-0.5,-1,85.7, -2.5, -0.2,0,0,1213,1024,1221,1024,29,0,30,0,0,0,0,97,4.273,4.275,4.282,4.298,4.301,4.292,0,,4.253475,0.8,6,P-GPS,
15200,2024-11-03 23:24:32,-23.443845794512,151.917261150564,0.9,,,4.353475,0,0.4,0.364429,1.19616,12,4,25.721,4.353475,0.9,0.6,0.400204,0,-0.4,-0.9,85.7, -3.6, 0,0,0,1210,1024,1199,1058,28,0,27,5,0,0,0,97,4.273,4.275,4.282,4.298,4.301,4.292,0,,4.353475,0.9,6,P-GPS,
15300,2024-11-03 23:24:33,-23.4438457391115,151.91726074161,1.1,,,4.553475,0,0.4,0.402949,1.23834,12,4,25.721,4.553475,1.1,0.6,0.402949,0,-0.4,-1.1,85.7, -4.9, 0.4,0,0,1210,1024,1196,1070,28,0,26,7,0,0,0,97,4.273,4.275,4.282,4.298,4.301,4.292,0,,4.553475,1.1,6,P-GPS,
15400,2024-11-03 23:24:33,-23.4438456486657,151.917260471717,1.2,,,4.653475,0,0.4,0.427445,1.26765,12,4,24.603,4.653475,1.2,0.6,0.427445,0,-0.4,-1,85.7, -5.7, 0.5,0,0,1205,1024,1195,1097,27,0,26,11,0,0,0,97,4.101,4.083,4.13,4.126,4.068,4.095,0,,4.653475,1.2,6,P-GPS,
15500,2024-11-03 23:24:33,-23.443845581687,151.917260231109,1.3,,,4.753475,0,0.32,0.450046,1.29331,12,4,24.603,4.753475,1.3,0.6,0.450046,0.1,-0.3,-0.9,85.8, -6.5, 0.5,0,0,1213,1024,1190,1104,29,0,25,12,0,0,0,97,4.101,4.083,4.13,4.126,4.068,4.095,0,,4.753475,1.3,6,P-GPS,
15600,2024-11-03 23:24:33,-23.4438455130778,151.917260126962,1.4,,,4.853475,0,0.22,0.459189,1.30639,12,4,24.603,4.853475,1.4,0.6,0.459189,0.1,-0.2,-0.8,86.1, -7.1, 0.4,0,0,1211,1024,1186,1126,28,0,25,15,0,0,0,97,4.101,4.083,4.13,4.126,4.068,4.095,0,,4.853475,1.4,6,P-GPS,
15700,2024-11-03 23:24:33,-23.4438454714328,151.91726004178,1.4,,,4.853475,0,0.14,0.467046,1.31624,12,4,24.603,4.853475,1.4,0.6,0.467046,0.1,-0.1,-0.7,86.7, -7.3, 0.3,0,0,1211,1024,1186,1126,28,0,25,15,0,0,0,97,4.101,4.083,4.13,4.126,4.068,4.095,0,,4.853475,1.4,6,P-GPS,
15800,2024-11-03 23:24:33,-23.443845435835,151.917260168055,1.5,,,4.953475,0,0.1,0.453717,1.32971,12,4,24.603,4.953475,1.5,0.6,0.467046,0.1,0,-0.6,87.6, -7.3, 0,0,0,1189,1024,1193,1124,25,0,26,15,0,0,0,97,4.101,4.083,4.13,4.126,4.068,4.095,0,,4.953475,1.5,6,P-GPS,
15900,2024-11-03 23:24:33,-23.4438453974912,151.917260330498,1.5,,,4.953475,0,0.1,0.436702,1.34683,12,4,24.603,4.953475,1.5,0.6,0.467046,0.1,0,-0.5,88.6, -7, 0,0,0,1182,1024,1196,1126,24,0,26,15,0,0,0,97,4.101,4.083,4.13,4.126,4.068,4.095,0,,4.953475,1.5,6,P-GPS,
16000,2024-11-03 23:24:33,-23.4438453722239,151.917260685155,1.6,,,5.053475,0,0.14,0.400493,1.38312,12,4,24.603,5.053475,1.6,0.6,0.467046,0.1,0.1,-0.5,89.7, -6.4, 0,0,0,1182,1024,1195,1123,24,0,26,15,0,0,0,97,4.101,4.083,4.13,4.126,4.068,4.095,0,,5.053475,1.6,6,P-GPS,
16100,2024-11-03 23:24:33,-23.4438453434924,151.917261022029,1.6,,,5.053475,0,0.1,0.366034,1.41764,12,4,24.603,5.053475,1.6,0.6,0.467046,0,0.1,-0.4,90.9, -5.9, 0.3,0,0,1191,1024,1196,1134,25,0,26,17,0,0,0,97,4.101,4.083,4.13,4.126,4.068,4.095,0,,5.053475,1.6,6,P-GPS,
16200,2024-11-03 23:24:33,-23.4438453362902,151.917261448344,1.6,,,5.053475,0,0.2,0.322983,1.46114,12,4,24.603,5.053475,1.6,0.6,0.467046,0,0.2,-0.4,92, -5.4, 0.5,0,0,1191,1024,1208,1130,25,0,28,16,0,0,0,97,4.101,4.083,4.13,4.126,4.068,4.095,0,,5.053475,1.6,6,P-GPS,
16300,2024-11-03 23:24:34,-23.4438453339595,151.917261858604,1.7,,,5.153475,0,0.2,0.281784,1.503,12,4,24.603,5.153475,1.7,0.6,0.467046,0,0.2,-0.5,93.2, -5.1, 0.7,0,0,1199,1024,1210,1119,27,0,28,14,0,0,0,97,4.101,4.083,4.13,4.126,4.068,4.095,0,,5.153475,1.7,6,P-GPS,
16400,2024-11-03 23:24:34,-23.44384545119,151.917262368851,1.7,,,5.153475,0,0.3,0.2344,1.55666,12,4,24.208,5.153475,1.7,0.6,0.467046,0,0.3,-0.5,94.2, -5, 0.8,0,0,1201,1024,1209,1123,27,0,28,15,0,0,0,97,4.017,4.014,4.04,4.046,4.045,4.046,0,,5.153475,1.7,6,P-GPS,
16500,2024-11-03 23:24:34,-23.4438455779831,151.917262880015,1.8,,,5.253475,0,0.4,0.190752,1.61069,12,4,24.208,5.253475,1.8,0.6,0.467046,0,0.4,-0.5,95.3, -5.1, 0.8,0,0,1202,1024,1207,1121,27,0,28,15,0,0,0,97,4.017,4.014,4.04,4.046,4.045,4.046,0,,5.253475,1.8,6,P-GPS,
16600,2024-11-03 23:24:34,-23.4438457988017,151.917263449395,1.9,,,5.353475,0,0.4,0.156201,1.67376,12,4,24.208,5.353475,1.9,0.6,0.467046,0,0.4,-0.5,96.3, -5.1, 0.8,0,0,1199,1024,1208,1123,27,0,28,15,0,0,0,97,4.017,4.014,4.04,4.046,4.045,4.046,0,,5.353475,1.9,6,P-GPS,
16700,2024-11-03 23:24:34,-23.4438459846483,151.917264009443,1.9,,,5.353475,0,0.41,0.139528,1.73452,12,4,24.208,5.353475,1.9,0.6,0.467046,-0.1,0.4,-0.6,97.3, -5.4, 0.7,0,0,1199,1024,1208,1123,27,0,28,15,0,0,0,97,4.017,4.014,4.04,4.046,4.045,4.046,0,,5.353475,1.9,6,P-GPS,
16800,2024-11-03 23:24:34,-23.443846268551,151.91726461348,2,,,5.453475,0,0.51,0.159033,1.80376,12,4,24.208,5.453475,2,0.6,0.467046,-0.1,0.5,-0.6,98.4, -5.6, 0.5,0,0,1202,1024,1209,1111,27,0,28,13,0,0,0,97,4.017,4.014,4.04,4.046,4.045,4.046,0,,5.453475,2,6,P-GPS,
16900,2024-11-03 23:24:34,-23.4438465198195,151.917265222869,2.1,,,5.553475,0,0.51,0.198512,1.87193,12,4,24.208,5.553475,2.1,0.6,0.467046,-0.1,0.5,-0.7,99.5, -5.7, 0.4,0,0,1207,1024,1212,1109,28,0,28,13,0,0,0,97,4.017,4.014,4.04,4.046,4.045,4.046,0,,5.553475,2.1,6,P-GPS,
17000,2024-11-03 23:24:34,-23.4438468641461,151.917265885581,2.2,,,5.653475,0,0.63,0.262304,1.94963,12,4,24.208,5.653475,2.2,0.63,0.467046,-0.2,0.6,-0.7,100.4, -5.8, 0.3,0,0,1206,1024,1210,1112,28,0,28,13,0,0,0,97,4.017,4.014,4.04,4.046,4.045,4.046,0,,5.653475,2.2,6,P-GPS,
17100,2024-11-03 23:24:34,-23.4438471694429,151.917266605067,2.3,,,5.753475,0,0.63,0.332238,2.03051,12,4,24.208,5.753475,2.3,0.63,0.467046,-0.2,0.6,-0.7,101.4, -5.8, 0,0,0,1198,1024,1216,1112,26,0,29,13,0,0,0,97,4.017,4.014,4.04,4.046,4.045,4.046,0,,5.753475,2.3,6,P-GPS,
17200,2024-11-03 23:24:34,-23.4438475791144,151.917267418316,2.3,,,5.753475,0,0.73,0.421254,2.12517,12,4,24.208,5.753475,2.3,0.73,0.467046,-0.2,0.7,-0.7,102.3, -6, 0.1,0,0,1200,1024,1213,1117,27,0,29,14,0,0,0,97,4.017,4.014,4.04,4.046,4.045,4.046,0,,5.753475,2.3,6,P-GPS,
17300,2024-11-03 23:24:35,-23.4438479680018,151.917268286877,2.4,,,5.853475,0,0.85,0.514865,2.22377,12,4,24.208,5.853475,2.4,0.85,0.514865,-0.3,0.8,-0.8,103.3, -6, 0.1,0,0,1202,1024,1213,1120,27,0,29,15,0,0,0,97,4.017,4.014,4.04,4.046,4.045,4.046,0,,5.853475,2.4,6,P-GPS,
17400,2024-11-03 23:24:35,-23.4438484856055,151.917269281044,2.5,,,5.953475,0,0.85,0.62907,2.3404,12,4,24.208,5.953475,2.5,0.85,0.62907,-0.3,0.8,-0.8,104.2, -5.8, 0,0,0,1203,1024,1218,1130,27,0,29,16,0,0,0,97,4.017,4.014,4.04,4.046,4.045,4.046,0,,5.953475,2.5,6,P-GPS,
17500,2024-11-03 23:24:35,-23.4438489772409,151.9172703052,2.6,,,6.053475,0,0.95,0.744635,2.45833,12,4,24.208,6.053475,2.6,0.95,0.744635,-0.3,0.9,-0.8,105.2, -5.5, -0.2,0,0,1204,1024,1218,1124,27,0,29,15,0,0,0,97,4.017,4.014,4.04,4.046,4.045,4.046,0,,6.053475,2.6,6,P-GPS,
17600,2024-11-03 23:24:35,-23.4438495334648,151.917271411538,2.7,,,6.153475,0,0.98,0.871858,2.58704,12,4,24.208,6.153475,2.7,0.98,0.871858,-0.4,0.9,-0.8,106.3, -5.1, -0.4,0,0,1203,1024,1217,1120,27,0,29,15,0,0,0,97,4.017,4.014,4.04,4.046,4.045,4.046,0,,6.153475,2.7,6,P-GPS,
17700,2024-11-03 23:24:35,-23.4438500409053,151.917272504573,2.8,,,6.253475,0,1.08,0.995198,2.71202,12,4,24.208,6.253475,2.8,1.08,0.995198,-0.4,1,-0.8,107.4, -4.9, -0.3,0,0,1204,1024,1216,1123,27,0,29,15,0,0,0,97,4.017,4.014,4.04,4.046,4.045,4.046,0,,6.253475,2.8,6,P-GPS,
17800,2024-11-03 23:24:35,-23.4438506524666,151.917273713554,2.9,,,6.353475,0,1.08,1.13522,2.85288,12,4,24.208,6.353475,2.9,1.08,1.13522,-0.4,1,-0.7,108.5, -4.8, 0,0,0,1207,1024,1218,1113,28,0,29,13,0,0,0,97,4.017,4.014,4.04,4.046,4.045,4.046,0,,6.353475,2.9,6,P-GPS,
17900,2024-11-03 23:24:35,-23.4438512614074,151.917274933179,3,,,6.453475,0,1.21,1.27616,2.99454,12,4,24.208,6.453475,3,1.21,1.27616,-0.5,1.1,-0.8,109.5, -4.9, 0.2,0,0,1210,1024,1218,1124,28,0,29,15,0,0,0,97,4.017,4.014,4.04,4.046,4.045,4.046,0,,6.453475,3,6,P-GPS,
18000,2024-11-03 23:24:35,-23.4438519805551,151.91727627672,3,,,6.453475,0,1.25,1.43455,3.15324,12,4,24.208,6.453475,3,1.25,1.43455,-0.6,1.1,-0.8,110.6, -4.7, 0.2,0,0,1211,1024,1218,1118,28,0,29,14,0,0,0,97,4.017,4.014,4.04,4.046,4.045,4.046,0,,6.453475,3,6,P-GPS,
18100,2024-11-03 23:24:35,-23.4438526797222,151.917277585641,3.1,,,6.553475,0,1.25,1.58883,3.30777,12,4,24.208,6.553475,3.1,1.25,1.58883,-0.6,1.1,-0.7,111.6, -4.7, 0,0,0,1214,1024,1224,1121,29,0,30,15,0,0,0,97,4.017,4.014,4.04,4.046,4.045,4.046,0,,6.553475,3.1,6,P-GPS,
18200,2024-11-03 23:24:35,-23.4438535029287,151.917278942425,3.2,,,6.653475,0,1.34,1.75479,3.47373,12,4,24.208,6.653475,3.2,1.34,1.75479,-0.6,1.2,-0.7,112.7, -4.8, -0.4,0,0,1214,1024,1233,1121,29,0,32,15,0,0,0,97,4.017,4.014,4.04,4.046,4.045,4.046,0,,6.653475,3.2,6,P-GPS,
18300,2024-11-03 23:24:36,-23.4438543074273,151.917280271666,3.3,,,6.753475,0,1.39,1.91726,3.6362,12,4,24.208,6.753475,3.3,1.39,1.91726,-0.7,1.2,-0.7,113.8, -4.6, -0.5,0,0,1214,1024,1236,1110,29,0,32,13,0,0,0,97,4.017,4.014,4.04,4.046,4.045,4.046,0,,6.753475,3.3,6,P-GPS,
18400,2024-11-03 23:24:36,-23.4438552656343,151.917281702126,3.4,,,6.853475,0,1.39,2.09777,3.81691,12,4,23.999,6.853475,3.4,1.39,2.09777,-0.7,1.2,-0.8,114.8, -4.4, -0.4,0,0,1219,1024,1238,1106,30,0,32,12,0,0,0,97,3.982,3.978,4.01,4.013,4.004,4.012,0,,6.853475,3.4,6,P-GPS,
18500,2024-11-03 23:24:36,-23.443856195107,151.917283132365,3.4,,,6.853475,0,1.53,2.27651,3.99573,12,4,23.999,6.853475,3.4,1.53,2.27651,-0.8,1.3,-0.8,116, -4.4, -0.1,0,0,1220,1024,1239,1106,30,0,33,12,0,0,0,97,3.982,3.978,4.01,4.013,4.004,4.012,0,,6.853475,3.4,6,P-GPS,
18600,2024-11-03 23:24:36,-23.4438572467878,151.917284714494,3.5,,,6.953475,0,1.53,2.4757,4.19506,12,4,23.999,6.953475,3.5,1.53,2.4757,-0.8,1.3,-0.8,116.9, -4.6, 0,0,0,1218,1024,1241,1110,29,0,33,13,0,0,0,97,3.982,3.978,4.01,4.013,4.004,4.012,0,,6.953475,3.5,6,P-GPS,
18700,2024-11-03 23:24:36,-23.4438582567228,151.917286264888,3.6,,,7.053475,0,1.66,2.66964,4.38906,12,4,23.999,7.053475,3.6,1.66,2.66964,-0.9,1.4,-0.8,117.8, -4.9, 0.3,0,0,1216,1024,1244,1111,29,0,33,13,0,0,0,97,3.982,3.978,4.01,4.013,4.004,4.012,0,,7.053475,3.6,6,P-GPS,
18800,2024-11-03 23:24:36,-23.4438594316972,151.917287893918,3.7,,,7.153475,0,1.72,2.88053,4.60047,12,4,23.999,7.153475,3.7,1.72,2.88053,-1,1.4,-0.8,118.6, -5.1, 0.3,0,0,1218,1024,1244,1109,29,0,33,13,0,0,0,97,3.982,3.978,4.01,4.013,4.004,4.012,0,,7.153475,3.7,6,P-GPS,
18900,2024-11-03 23:24:36,-23.4438605800588,151.91728945836,3.8,,,7.253475,0,1.72,3.08439,4.80489,12,4,23.999,7.253475,3.8,1.72,3.08439,-1,1.4,-0.8,119.5, -5, 0,0,0,1220,1024,1247,1104,30,0,34,12,0,0,0,97,3.982,3.978,4.01,4.013,4.004,4.012,0,,7.253475,3.8,6,P-GPS,
19000,2024-11-03 23:24:36,-23.4438618783537,151.917291121423,3.9,,,7.353475,0,1.78,3.30611,5.02768,12,4,23.999,7.353475,3.9,1.78,3.30611,-1.1,1.4,-0.9,120.5, -4.9, -0.2,0,0,1220,1024,1251,1104,30,0,34,12,0,0,0,97,3.982,3.978,4.01,4.013,4.004,4.012,0,,7.353475,3.9,6,P-GPS,
19100,2024-11-03 23:24:36,-23.4438631480751,151.917292739026,4,,,7.453475,0,1.78,3.52234,5.24488,12,4,23.999,7.453475,4,1.78,3.52234,-1.2,1.4,-0.9,121.3, -4.9, -0.4,0,0,1219,1024,1253,1104,30,0,35,12,0,0,0,97,3.982,3.978,4.01,4.013,4.004,4.012,0,,7.453475,4,6,P-GPS,
19200,2024-11-03 23:24:37,-23.4438645585934,151.917294552258,4.1,,,7.553475,0,1.92,3.76403,5.48742,12,4,23.999,7.553475,4.1,1.92,3.76403,-1.2,1.5,-1,122.3, -4.7, -0.7,0,0,1220,1024,1257,1103,30,0,35,12,0,0,0,97,3.982,3.978,4.01,4.013,4.004,4.012,0,,7.553475,4.1,6,P-GPS,
19300,2024-11-03 23:24:37,-23.4438659320328,151.917296310177,4.2,,,7.653475,0,1.92,3.99883,5.723,12,4,23.999,7.653475,4.2,1.92,3.99883,-1.3,1.5,-1,123.2, -4.5, -0.8,0,0,1220,1024,1256,1104,30,0,35,12,0,0,0,97,3.982,3.978,4.01,4.013,4.004,4.012,0,,7.653475,4.2,6,P-GPS,
19400,2024-11-03 23:24:37,-23.4438674194813,151.917298164796,4.3,,,7.753475,0,1.98,4.24917,5.97432,12,4,24.022,7.753475,4.3,1.98,4.24917,-1.3,1.5,-1,124.1, -4.4, -0.8,0,0,1220,1024,1257,1112,30,0,35,13,0,0,0,97,3.985,3.994,4.005,4.019,4.014,4.005,0,,7.753475,4.3,6,P-GPS,
19500,2024-11-03 23:24:37,-23.4438688740726,151.917299910062,4.4,,,7.853475,0,1.98,4.48848,6.21489,12,4,24.022,7.853475,4.4,1.98,4.48848,-1.4,1.5,-1,125, -4.2, -0.9,0,0,1220,1024,1257,1104,30,0,35,12,0,0,0,97,3.985,3.994,4.005,4.019,4.014,4.005,0,,7.853475,4.4,6,P-GPS,
19600,2024-11-03 23:24:37,-23.4438704593677,151.917301697654,4.5,,,7.953475,0,2.19,4.74009,6.46855,12,4,24.022,7.953475,4.5,2.19,4.74009,-1.5,1.6,-1,125.9, -3.8, -1.1,0,0,1225,1024,1257,1104,30,0,35,12,0,0,0,97,3.985,3.994,4.005,4.019,4.014,4.005,0,,7.953475,4.5,6,P-GPS,
19700,2024-11-03 23:24:37,-23.443872016152,151.917303400438,4.6,,,8.053475,0,2.19,4.98311,6.71381,12,4,24.022,8.053475,4.6,2.19,4.98311,-1.5,1.6,-1,126.7, -3.6, -1.4,0,0,1222,1024,1264,1109,30,0,36,13,0,0,0,97,3.985,3.994,4.005,4.019,4.014,4.005,0,,8.053475,4.6,6,P-GPS,
19800,2024-11-03 23:24:37,-23.44387367205,151.917305252415,4.7,,,8.153475,0,2.26,5.24512,6.97765,12,4,24.022,8.153475,4.7,2.26,5.24512,-1.6,1.6,-1,127.6, -3.5, -1.5,0,0,1222,1024,1266,1105,30,0,37,12,0,0,0,97,3.985,3.994,4.005,4.019,4.014,4.005,0,,8.153475,4.7,6,P-GPS,
19900,2024-11-03 23:24:37,-23.4438752837503,151.917307077241,4.8,,,8.253475,0,2.26,5.5021,7.23608,12,4,24.022,8.253475,4.8,2.26,5.5021,-1.6,1.6,-1,128.5, -3.3, -1.4,0,0,1223,1024,1264,1104,30,0,36,12,0,0,0,97,3.985,3.994,4.005,4.019,4.014,4.005,0,,8.253475,4.8,6,P-GPS,
20000,2024-11-03 23:24:37,-23.4438770187955,151.917309057099,4.9,,,8.353475,0,2.33,5.78012,7.51542,12,4,24.022,8.353475,4.9,2.33,5.78012,-1.7,1.6,-1,129.3, -3.2, -1.5,0,0,1220,1024,1266,1107,30,0,37,13,0,0,0,97,3.985,3.994,4.005,4.019,4.014,4.005,0,,8.353475,4.9,6,P-GPS,
20100,2024-11-03 23:24:37,-23.4438786986918,151.917310915686,5,,,8.453475,0,2.33,6.04477,7.78161,12,4,24.022,8.453475,5,2.33,6.04477,-1.7,1.6,-1,130.2, -3.1, -1.6,0,0,1220,1024,1261,1104,30,0,36,12,0,0,0,97,3.985,3.994,4.005,4.019,4.014,4.005,0,,8.453475,5,6,P-GPS,
20200,2024-11-03 23:24:37,-23.4438805275191,151.917312926443,5.1,,,8.553475,0,2.33,6.33202,8.07049,12,4,24.022,8.553475,5.1,2.33,6.33202,-1.7,1.6,-1,131.1, -3.2, -1.6,0,0,1220,1024,1260,1104,30,0,36,12,0,0,0,97,3.985,3.994,4.005,4.019,4.014,4.005,0,,8.553475,5.1,6,P-GPS,
20300,2024-11-03 23:24:38,-23.4438823279137,151.917314816102,5.2,,,8.653475,0,2.41,6.60782,8.34844,12,4,24.022,8.653475,5.2,2.41,6.60782,-1.8,1.6,-1.1,132, -3.1, -1.5,0,0,1220,1024,1264,1104,30,0,36,12,0,0,0,97,3.985,3.994,4.005,4.019,4.014,4.005,0,,8.653475,5.2,6,P-GPS,
20400,2024-11-03 23:24:38,-23.4438842741942,151.917316806068,5.4,,,8.853475,0,2.41,6.90201,8.6452,12,4,24.022,8.853475,5.4,2.41,6.90201,-1.8,1.6,-1.1,132.8, -3, -1.5,0,0,1222,1024,1266,1104,30,0,37,12,0,0,0,97,3.985,3.994,4.005,4.019,4.014,4.005,0,,8.853475,5.4,6,P-GPS,
20500,2024-11-03 23:24:38,-23.4438861500868,151.917318655943,5.5,,,8.953475,0,2.41,7.18042,8.92651,12,4,24.022,8.953475,5.5,2.41,7.18042,-1.8,1.6,-1.1,133.6, -2.9, -1.6,0,0,1222,1024,1263,1103,30,0,36,12,0,0,0,97,3.985,3.994,4.005,4.019,4.014,4.005,0,,8.953475,5.5,6,P-GPS,
20600,2024-11-03 23:24:38,-23.4438881702269,151.917320667746,5.6,,,9.053475,0,2.48,7.48201,9.23081,12,4,24.022,9.053475,5.6,2.48,7.48201,-1.9,1.6,-1.1,134.4, -2.7, -1.6,0,0,1225,1024,1264,1102,30,0,36,12,0,0,0,97,3.985,3.994,4.005,4.019,4.014,4.005,0,,9.053475,5.6,6,P-GPS,
20700,2024-11-03 23:24:38,-23.4438901094887,151.917322585325,5.7,,,9.153475,0,2.48,7.77067,9.52199,12,4,24.022,9.153475,5.7,2.48,7.77067,-1.9,1.6,-1.1,135.2, -2.6, -1.8,0,0,1224,1024,1264,1103,30,0,36,12,0,0,0,97,3.985,3.994,4.005,4.019,4.014,4.005,0,,9.153475,5.7,6,P-GPS,
20800,2024-11-03 23:24:38,-23.4438921565894,151.91732466844,5.9,,,9.353475,0,2.56,8.08013,9.83343,12,4,24.022,9.353475,5.9,2.56,8.08013,-2,1.6,-1.2,135.9, -2.3, -1.7,0,0,1224,1024,1267,1101,30,0,37,12,0,0,0,97,3.985,3.994,4.005,4.019,4.014,4.005,0,,9.353475,5.9,6,P-GPS,
20900,2024-11-03 23:24:38,-23.443894097952,151.917326569631,6,,,9.453475,0,2.56,8.36801,10.1237,12,4,24.022,9.453475,6,2.56,8.36801,-2,1.6,-1.1,136.6, -2.2, -2,0,0,1226,1024,1276,1097,31,0,38,11,0,0,0,97,3.985,3.994,4.005,4.019,4.014,4.005,0,,9.453475,6,6,P-GPS,
21000,2024-11-03 23:24:38,-23.4438961448833,151.917328592699,6.1,,,9.553475,0,2.56,8.67314,10.4309,12,4,24.022,9.553475,6.1,2.56,8.67314,-2,1.6,-1.1,137.4, -2.2, -2.2,0,0,1219,1024,1273,1103,30,0,38,12,0,0,0,97,3.985,3.994,4.005,4.019,4.014,4.005,0,,9.553475,6.1,6,P-GPS,
21100,2024-11-03 23:24:38,-23.4438981329463,151.917330476046,6.2,,,9.653475,0,2.56,8.96338,10.7239,12,4,24.022,9.653475,6.2,2.56,8.96338,-2,1.6,-1.1,138.2, -2.1, -2.3,0,0,1219,1024,1276,1103,30,0,38,12,0,0,0,97,3.985,3.994,4.005,4.019,4.014,4.005,0,,9.653475,6.2,6,P-GPS,
21200,2024-11-03 23:24:38,-23.4439002912599,151.917332532222,6.3,,,9.753475,0,2.64,9.27956,11.0426,12,4,24.022,9.753475,6.3,2.64,9.27956,-2.1,1.6,-1.1,138.9, -2, -2.3,0,0,1219,1024,1276,1103,30,0,38,12,0,0,0,97,3.985,3.994,4.005,4.019,4.014,4.005,0,,9.753475,6.3,6,P-GPS,
21300,2024-11-03 23:24:39,-23.443902377072,151.91733442056,6.4,,,9.853475,0,2.64,9.57777,11.3442,12,4,24.022,9.853475,6.4,2.64,9.57777,-2.1,1.6,-1.1,139.6, -1.8, -2.2,0,0,1219,1024,1275,1103,30,0,38,12,0,0,0,97,3.985,3.994,4.005,4.019,4.014,4.005,0,,9.853475,6.4,6,P-GPS,
21400,2024-11-03 23:24:39,-23.4439046139906,151.917336486017,6.5,,,9.953475,0,2.64,9.90087,11.6702,12,4,23.909,9.953475,6.5,2.64,9.90087,-2.1,1.6,-1.1,140.4, -1.8, -2,0,0,1218,1024,1267,1100,29,0,37,12,0,0,0,97,3.969,3.965,3.984,3.999,4.001,3.991,0,,9.953475,6.5,6,P-GPS,
21500,2024-11-03 23:24:39,-23.4439067417546,151.917338391037,6.6,,,10.053475,0,2.64,10.2039,11.9764,12,4,23.909,10.053475,6.6,2.64,10.2039,-2.1,1.6,-1.1,141.2, -1.8, -1.9,0,0,1218,1024,1266,1100,29,0,37,12,0,0,0,97,3.969,3.965,3.984,3.999,4.001,3.991,0,,10.053475,6.6,6,P-GPS,
21600,2024-11-03 23:24:39,-23.4439088674342,151.917340297359,6.7,,,10.153475,0,2.64,10.507,12.2825,12,4,23.909,10.153475,6.7,2.64,10.507,-2.1,1.6,-1.1,141.9, -1.7, -1.8,0,0,1216,1024,1257,1093,29,0,35,10,0,0,0,97,3.969,3.965,3.984,3.999,4.001,3.991,0,,10.153475,6.7,6,P-GPS,
21700,2024-11-03 23:24:39,-23.443910866473,151.9173420163,6.8,,,10.253475,0,2.64,10.7867,12.5657,12,4,23.909,10.253475,6.8,2.64,10.7867,-2.1,1.6,-1,142.7, -1.5, -1.8,0,0,1214,1024,1259,1100,29,0,36,12,0,0,0,97,3.969,3.965,3.984,3.999,4.001,3.991,0,,10.253475,6.8,6,P-GPS,
21800,2024-11-03 23:24:39,-23.4439131281797,151.917343955099,6.9,,,10.353475,0,2.64,11.1029,12.8856,12,4,23.909,10.353475,6.9,2.64,11.1029,-2.1,1.6,-1,143.4, -1.6, -1.8,0,0,1207,1024,1257,1093,28,0,35,10,0,0,0,97,3.969,3.965,3.984,3.999,4.001,3.991,0,,10.353475,6.9,6,P-GPS,
21900,2024-11-03 23:24:39,-23.4439153395871,151.91734579467,7,,,10.453475,0,2.64,11.4082,13.195,12,4,23.909,10.453475,7,2.64,11.4082,-2.1,1.6,-1,144.1, -1.4, -2.1,0,0,1203,1024,1251,1083,27,0,34,9,0,0,0,97,3.969,3.965,3.984,3.999,4.001,3.991,0,,10.453475,7,6,P-GPS,
22000,2024-11-03 23:24:39,-23.4439175935881,151.917347700829,7.1,,,10.553475,0,2.64,11.7218,13.5123,12,4,23.909,10.553475,7.1,2.64,11.7218,-2.1,1.6,-1,144.9, -1.1, -2.4,0,0,1206,1024,1260,1065,28,0,36,6,0,0,0,97,3.969,3.965,3.984,3.999,4.001,3.991,0,,10.553475,7.1,6,P-GPS,
22100,2024-11-03 23:24:39,-23.4439197088131,151.917349438357,7.2,,,10.653475,0,2.64,12.0125,13.8068,12,4,23.909,10.653475,7.2,2.64,12.0125,-2.1,1.6,-1,145.5, -0.7, -2.4,0,0,1203,1024,1257,1066,27,0,35,6,0,0,0,97,3.969,3.965,3.984,3.999,4.001,3.991,0,,10.653475,7.2,6,P-GPS,
22200,2024-11-03 23:24:39,-23.4439220512582,151.917351439733,7.3,,,10.753475,0,2.72,12.3404,14.1378,12,4,23.909,10.753475,7.3,2.72,12.3404,-2.2,1.6,-0.9,146, -0.5, -2.1,0,0,1195,1024,1248,1059,26,0,34,5,0,0,0,97,3.969,3.965,3.984,3.999,4.001,3.991,0,,10.753475,7.3,6,P-GPS,
22300,2024-11-03 23:24:40,-23.4439243049074,151.917353268113,7.4,,,10.853475,0,2.66,12.6488,14.4502,12,4,23.909,10.853475,7.4,2.72,12.6488,-2.2,1.5,-0.9,146.4, -0.5, -1.9,0,0,1185,1024,1248,1061,24,0,34,6,0,0,0,97,3.969,3.965,3.984,3.999,4.001,3.991,0,,10.853475,7.4,6,P-GPS,
