time(millisecond),datetime(utc),latitude,longitude,height_above_takeoff(meters),height_above_ground_at_drone_location(meters),ground_elevation_at_drone_location(meters),altitude_above_seaLevel(meters),height_sonar(meters),speed(m/s),distance(meters),mileage(meters),satellites,gpslevel,voltage(v),max_altitude(meters),max_ascent(meters),max_speed(m/s),max_distance(meters), xSpeed(m/s), ySpeed(m/s), zSpeed(m/s), compass_heading(degrees), pitch(degrees), roll(degrees),isPhoto,isVideo,rc_elevator,rc_aileron,rc_throttle,rc_rudder,rc_elevator(percent),rc_aileron(percent),rc_throttle(percent),rc_rudder(percent),gimbal_heading(degrees),gimbal_pitch(degrees),gimbal_roll(degrees),battery_percent,voltageCell1,voltageCell2,voltageCell3,voltageCell4,voltageCell5,voltageCell6,current(A),battery_temperature(c),altitude(meters),ascent(meters),flycStateRaw,flycState,message
0,2024-11-03 23:57:00,-23.4438132236508,151.91728553244,0,Available with any HD 360 subscription,Available with any HD 360 subscription,3.6686697,0,0,0,0,14,5,0,3.6686697,0,0,0,0,0,0,81.1, 0.5, 1.5,0,0,1024,1024,1024,1024,0,0,0,0,0,0,0,99,4.326,4.331,4.329,4.332,4.335,4.331,0,,3.6686697,0,41,Motors_Started,"Setting new Return-To-Home altitude to 40m (131 ft). Data Recorder File Index is 360. Setting new Maximum Flight Altitude to 120m (394 ft)"
100,2024-11-03 23:57:00,-23.4438132216674,151.91728550384,0,,,3.6686697,0,0,0.00292621,0.00292621,14,5,0,3.6686697,0,0,0.00292621,0,0,0,81.1, 0.5, 1.5,0,0,1024,1024,1024,1024,0,0,0,0,0,0,0,99,4.326,4.331,4.329,4.332,4.335,4.331,0,,3.6686697,0,41,Motors_Started,
300,2024-11-03 23:57:00,-23.443813276734,151.917285452089,0,,,3.6686697,0,0,0.0101021,0.0110119,14,5,0,3.6686697,0,0,0.0101021,0,0,0,81.1, 0.5, 1.5,0,0,1024,1024,1024,1024,0,0,0,0,0,0,0,99,4.326,4.331,4.329,4.332,4.335,4.331,0,,3.6686697,0,41,Motors_Started,
400,2024-11-03 23:57:00,-23.4438133045824,151.917285436046,0,,,3.6686697,0,0,0.0133313,0.0145148,14,5,0,3.6686697,0,0,0.0133313,0,0,0,81.1, 0.6, 1.5,0,0,1024,1024,1024,1024,0,0,0,0,0,0,0,99,4.326,4.331,4.329,4.332,4.335,4.331,0,,3.6686697,0,41,Motors_Started,
500,2024-11-03 23:57:01,-23.4438133215087,151.917285425809,0,,,3.6686697,0,0,0.0153877,0.0166674,14,5,0,3.6686697,0,0,0.0153877,0,0,0,81.1, 0.5, 1.5,0,0,1024,1024,1024,1024,0,0,0,0,0,0,0,99,4.326,4.331,4.329,4.332,4.335,4.331,0,,3.6686697,0,41,Motors_Started,
600,2024-11-03 23:57:01,-23.443813333093,151.917285421064,0,,,3.6686697,0,0,0.0166508,0.0180436,14,5,0,3.6686697,0,0,0.0166508,0,0,0,81.2, 0.6, 1.5,0,0,1024,1024,1024,1024,0,0,0,0,0,0,0,99,4.326,4.331,4.329,4.332,4.335,4.331,0,,3.6686697,0,41,Motors_Started,
700,2024-11-03 23:57:01,-23.4438133422052,151.917285415961,0,,,3.6686697,0,0,0.0177495,0.0191829,14,5,0,3.6686697,0,0,0.0177495,0,0,0,81.1, 0.6, 1.5,0,0,1024,1024,1024,1024,0,0,0,0,0,0,0,99,4.326,4.331,4.329,4.332,4.335,4.331,0,,3.6686697,0,41,Motors_Started,
800,2024-11-03 23:57:01,-23.4438133431933,151.91728541857,0,,,3.6686697,0,0,0.017655,0.0194708,14,5,0,3.6686697,0,0,0.0177495,0,0,0,81.2, 0.6, 1.5,0,0,1024,1024,1024,1024,0,0,0,0,0,0,0,99,4.326,4.331,4.329,4.332,4.335,4.331,0,,3.6686697,0,41,Motors_Started,
900,2024-11-03 23:57:01,-23.4438133465538,151.917285418132,0,,,3.6686697,0,0,0.017967,0.0198472,14,5,0,3.6686697,0,0,0.017967,0,0,0,81.2, 0.6, 1.5,0,0,1024,1024,1024,1024,0,0,0,0,0,0,0,99,4.326,4.331,4.329,4.332,4.335,4.331,0,,3.6686697,0,41,Motors_Started,
1000,2024-11-03 23:57:01,-23.4438133409859,151.917285423938,0,,,3.6686697,0,0,0.0171116,0.0207041,14,5,0,3.6686697,0,0,0.017967,0,0,0,81.2, 0.6, 1.5,0,0,1024,1024,1024,1024,0,0,0,0,0,0,0,99,4.326,4.331,4.329,4.332,4.335,4.331,0,,3.6686697,0,41,Motors_Started,
1100,2024-11-03 23:57:01,-23.4438133404982,151.917285424622,0,,,3.6686697,0,0,0.0170251,0.0207925,14,5,0,3.6686697,0,0,0.017967,0,0,0,81.2, 0.6, 1.5,0,0,1024,1024,1024,1024,0,0,0,0,0,0,0,99,4.326,4.331,4.329,4.332,4.335,4.331,0,,3.6686697,0,41,Motors_Started,
1200,2024-11-03 23:57:01,-23.4438133663603,151.917285430473,0,,,3.6686697,0,0,0.018976,0.0237298,14,5,0,3.6686697,0,0,0.018976,0,0,0,81.2, 0.6, 1.5,0,0,1024,1024,1024,1024,0,0,0,0,0,0,0,99,4.326,4.331,4.329,4.332,4.335,4.331,0,,3.6686697,0,41,Motors_Started,
1300,2024-11-03 23:57:01,-23.443813393959,151.917285432293,0,,,3.6686697,0,0,0.0215197,0.0268046,14,5,25.984,3.6686697,0,0,0.0215197,0,0,0,81.2, 0.6, 1.5,0,0,1024,1024,1024,1024,0,0,0,0,0,0,0,99,4.326,4.331,4.329,4.332,4.335,4.331,0,,3.6686697,0,41,Motors_Started,
1400,2024-11-03 23:57:01,-23.4438134190765,151.917285404026,0,,,3.6686697,0,0,0.0253762,0.0308194,14,5,25.984,3.6686697,0,0,0.0253762,0,0,0,81.2, 0.6, 1.5,0,0,1024,1024,1024,1024,0,0,0,0,0,0,0,99,4.326,4.331,4.329,4.332,4.335,4.331,0,,3.6686697,0,41,Motors_Started,
1500,2024-11-03 23:57:01,-23.4438134354296,151.917285375684,0,,,3.6686697,0,0,0.0284682,0.0342354,14,5,25.984,3.6686697,0,0,0.0284682,0,0,0,81.2, 0.6, 1.6,0,0,1024,1024,1024,1024,0,0,0,0,0,0,0,99,4.326,4.331,4.329,4.332,4.335,4.331,0,,3.6686697,0,41,Motors_Started,
1600,2024-11-03 23:57:02,-23.4438134449513,151.917285346546,0,,,3.6686697,0,0,0.0310702,0.0373912,14,5,25.984,3.6686697,0,0,0.0310702,0,0,0,81.2, 0.6, 1.6,0,0,1024,1024,1024,1024,0,0,0,0,0,0,0,99,4.326,4.331,4.329,4.332,4.335,4.331,0,,3.6686697,0,41,Motors_Started,
1700,2024-11-03 23:57:02,-23.4438134532093,151.917285328628,0,,,3.6686697,0,0,0.0329255,0.039437,14,5,25.984,3.6686697,0,0,0.0329255,0,0,0,81.2, 0.6, 1.6,0,0,1024,1024,1024,1024,0,0,0,0,0,0,0,99,4.326,4.331,4.329,4.332,4.335,4.331,0,,3.6686697,0,41,Motors_Started,
1800,2024-11-03 23:57:02,-23.4438134520733,151.917285316819,0,,,3.6686697,0,0,0.0336038,0.0406484,14,5,25.984,3.6686697,0,0,0.0336038,0,0,0,81.2, 0.6, 1.6,0,0,1024,1024,1024,1024,0,0,0,0,0,0,0,99,4.326,4.331,4.329,4.332,4.335,4.331,0,,3.6686697,0,41,Motors_Started,
1900,2024-11-03 23:57:02,-23.4438134546574,151.917285307251,0,,,3.6686697,0,0,0.0344644,0.041666,14,5,25.984,3.6686697,0,0,0.0344644,0,0,0,81.2, 0.6, 1.6,0,0,1024,1024,1024,1024,0,0,0,0,0,0,0,99,4.326,4.331,4.329,4.332,4.335,4.331,0,,3.6686697,0,41,Motors_Started,
2000,2024-11-03 23:57:02,-23.4438134477377,151.917285306279,0,,,3.6686697,0,0,0.0339621,0.0424419,14,5,25.984,3.6686697,0,0,0.0344644,0,0,0,81.2, 0.6, 1.6,0,0,1024,1024,1024,1024,0,0,0,0,0,0,0,99,4.326,4.331,4.329,4.332,4.335,4.331,0,,3.6686697,0,11,AutoTakeoff,
2100,2024-11-03 23:57:02,-23.4438134473907,151.917285302144,0,,,3.6686697,0,0,0.0342221,0.0428655,14,5,25.984,3.6686697,0,0,0.0344644,0,0,0,81.2, 0.7, 1.6,0,0,1024,1024,1024,1024,0,0,0,0,0,0,0,99,4.326,4.331,4.329,4.332,4.335,4.331,0,,3.6686697,0,11,AutoTakeoff,
2200,2024-11-03 23:57:02,-23.4438134389686,151.91728530671,0,,,3.6686697,0,0,0.0332226,0.0439116,14,5,25.984,3.6686697,0,0,0.0344644,0,0,0,81.2, 0.7, 1.6,0,0,1024,1024,1024,1024,0,0,0,0,0,0,0,99,4.326,4.331,4.329,4.332,4.335,4.331,0,,3.6686697,0,11,AutoTakeoff,
2300,2024-11-03 23:57:02,-23.4438134374814,151.917285308385,0,,,3.6686697,0,0,0.032985,0.0441494,14,5,25.977,3.6686697,0,0,0.0344644,0,0,0,81.2, 0.7, 1.6,0,0,1024,1024,1024,1024,0,0,0,0,0,0,0,99,4.325,4.33,4.328,4.33,4.334,4.33,0,,3.6686697,0,11,AutoTakeoff,
2400,2024-11-03 23:57:02,-23.4438134633912,151.917285317163,0,,,3.6686697,0,0,0.0345427,0.0471667,14,5,25.977,3.6686697,0,0,0.0345427,0,0,0,81.4, 0.7, 1.6,0,0,1024,1024,1024,1024,0,0,0,0,0,0,0,99,4.325,4.33,4.328,4.33,4.334,4.33,0,,3.6686697,0,11,AutoTakeoff,
2500,2024-11-03 23:57:02,-23.4438134912677,151.917285311923,0,,,3.6686697,0,0,0.0373079,0.0503126,14,5,25.977,3.6686697,0,0,0.0373079,0,0,0,81.5, 0.9, 1.5,0,0,1024,1024,1024,1024,0,0,0,0,0,0,0,99,4.325,4.33,4.328,4.33,4.334,4.33,0,,3.6686697,0,11,AutoTakeoff,
2600,2024-11-03 23:57:03,-23.4438134834682,151.917285307834,0,,,3.6686697,0,0,0.0368775,0.051275,14,5,25.977,3.6686697,0,0,0.0373079,0,0,0,81.5, 1.1, 1.6,0,0,1024,1024,1024,1024,0,0,0,0,0,0,0,99,4.325,4.33,4.328,4.33,4.334,4.33,0,,3.6686697,0,11,AutoTakeoff,
2700,2024-11-03 23:57:03,-23.4438134705109,151.917285297176,0,,,3.6686697,0,0,0.0364661,0.0530802,14,5,25.977,3.6686697,0,0,0.0373079,0,0,0,81.5, 1.2, 1.6,0,0,1024,1024,1024,1024,0,0,0,0,0,0,0,99,4.325,4.33,4.328,4.33,4.334,4.33,0,,3.6686697,0,11,AutoTakeoff,
2800,2024-11-03 23:57:03,-23.4438134738779,151.91728529894,0,,,3.6686697,0,0,0.0366316,0.0534956,14,5,25.977,3.6686697,0,0,0.0373079,0,0,0,81.6, 1.2, 1.5,0,0,1024,1024,1024,1024,0,0,0,0,0,0,0,99,4.325,4.33,4.328,4.33,4.334,4.33,0,,3.6686697,0,11,AutoTakeoff,
2900,2024-11-03 23:57:03,-23.4438134956785,151.917285305574,0,,,3.6686697,0,0,0.0380904,0.0560127,14,5,25.977,3.6686697,0,0,0.0380904,0,0,0,81.7, 1.2, 1.5,0,0,1024,1024,1024,1024,0,0,0,0,0,0,0,99,4.325,4.33,4.328,4.33,4.334,4.33,0,,3.6686697,0,11,AutoTakeoff,
3000,2024-11-03 23:57:03,-23.4438135169022,151.917285339781,0,,,3.6686697,0,0,0.0380771,0.0602258,14,5,25.977,3.6686697,0,0,0.0380904,0,0,0,81.7, 1.3, 1.4,0,0,1024,1024,1024,1024,0,0,0,0,0,0,0,99,4.325,4.33,4.328,4.33,4.334,4.33,0,,3.6686697,0,11,AutoTakeoff,
3100,2024-11-03 23:57:03,-23.44381352992,151.917285349465,0,,,3.6686697,0,0,0.0388396,0.0619786,14,5,25.977,3.6686697,0,0,0.0388396,0,0,0,81.8, 1.6, 1.4,0,0,1024,1024,1024,1024,0,0,0,0,0,0,0,99,4.325,4.33,4.328,4.33,4.334,4.33,0,,3.6686697,0,11,AutoTakeoff,
3200,2024-11-03 23:57:03,-23.4438135457957,151.917285284711,0,,,3.6686697,0,0,0.043843,0.068817,14,5,25.977,3.6686697,0,0,0.043843,0,0,0,81.9, 2.2, 1.2,0,0,1024,1024,1024,1024,0,0,0,0,0,0,0,99,4.325,4.33,4.328,4.33,4.334,4.33,0,,3.6686697,0,11,AutoTakeoff,
3300,2024-11-03 23:57:03,-23.4438135795798,151.917285169739,0,,,3.6686697,0,0.1,0.0541854,0.0811341,14,5,25.958,3.6686697,0,0.1,0.0541854,0,-0.1,-0.1,82, 2.9, 0.6,0,0,1024,1024,1024,1024,0,0,0,0,0,0,0,99,4.321,4.326,4.325,4.327,4.332,4.327,0,,3.6686697,0,11,AutoTakeoff,
3400,2024-11-03 23:57:03,-23.4438136257747,151.917284955246,0,,,3.6686697,0,0.1,0.0739436,0.103613,14,5,25.958,3.6686697,0,0.1,0.0739436,0,-0.1,-0.1,82.2, 3.5, 0,0,0,1024,1024,1024,1024,0,0,0,0,0,0,0,99,4.321,4.326,4.325,4.327,4.332,4.327,0,,3.6686697,0,11,AutoTakeoff,
3500,2024-11-03 23:57:04,-23.4438136875697,151.917284694236,0,,,3.6686697,0,0.2,0.0998751,0.131115,14,5,25.958,3.6686697,0,0.2,0.0998751,0,-0.2,-0.3,82.2, 3.4, -0.7,0,0,1024,1024,1024,1024,0,0,0,0,0,0,0,99,4.321,4.326,4.325,4.327,4.332,4.327,0,,3.6686697,0,11,AutoTakeoff,
3600,2024-11-03 23:57:04,-23.4438137056605,151.917284290688,0.1,,,3.7686697,0,0.3,0.137564,0.172337,14,5,25.958,3.7686697,0.1,0.3,0.137564,0,-0.3,-0.4,82.3, 2.6, -1.5,0,0,1024,1024,1024,1024,0,0,0,0,0,0,0,99,4.321,4.326,4.325,4.327,4.332,4.327,0,,3.7686697,0.1,11,AutoTakeoff,
3700,2024-11-03 23:57:04,-23.4438137311407,151.917283846967,0.1,,,3.7686697,0,0.3,0.180986,0.217696,14,5,25.958,3.7686697,0.1,0.3,0.180986,0,-0.3,-0.5,82.3, 1.5, -1.7,0,0,1024,1024,1024,1024,0,0,0,0,0,0,0,99,4.321,4.326,4.325,4.327,4.332,4.327,0,,3.7686697,0.1,11,AutoTakeoff,
3800,2024-11-03 23:57:04,-23.4438137040662,151.917283275032,0.2,,,3.8686697,0,0.4,0.23643,0.276126,14,5,25.958,3.8686697,0.2,0.4,0.23643,0,-0.4,-0.6,82.3, 0.4, -1.5,0,0,1024,1024,1024,1024,0,0,0,0,0,0,0,99,4.321,4.326,4.325,4.327,4.332,4.327,0,,3.8686697,0.2,11,AutoTakeoff,
3900,2024-11-03 23:57:04,-23.4438136956409,151.917282730439,0.3,,,3.9686697,0,0.4,0.290656,0.331697,14,5,25.958,3.9686697,0.3,0.4,0.290656,0,-0.4,-0.6,82.2, -0.5, -0.9,0,0,1024,1024,1024,1024,0,0,0,0,0,0,0,99,4.321,4.326,4.325,4.327,4.332,4.327,0,,3.9686697,0.3,11,AutoTakeoff,
4000,2024-11-03 23:57:04,-23.4438136454752,151.917282125413,0.3,,,3.9686697,0,0.4,0.350757,0.393677,14,5,25.958,3.9686697,0.3,0.4,0.350757,0,-0.4,-0.6,82.2, -1.3, -0.3,0,0,1024,1024,1024,1024,0,0,0,0,0,0,0,99,4.321,4.326,4.325,4.327,4.332,4.327,0,,3.9686697,0.3,11,AutoTakeoff,
4100,2024-11-03 23:57:04,-23.4438136123748,151.917281565392,0.4,,,4.0686697,0,0.4,0.407044,0.450932,14,5,25.958,4.0686697,0.4,0.4,0.407044,0,-0.4,-0.6,82.2, -1.9, 0.1,0,0,1024,1024,1024,1024,0,0,0,0,0,0,0,99,4.321,4.326,4.325,4.327,4.332,4.327,0,,4.0686697,0.4,11,AutoTakeoff,"Home Point recorded. Return-to-Home Altitude:40.0 m"
4200,2024-11-03 23:57:04,-23.4438135582623,151.917281034741,0.5,,,4.1686697,0,0.4,0.460389,0.505406,14,5,25.958,4.1686697,0.5,0.4,0.460389,0,-0.4,-0.7,82.2, -2.2, 0.4,0,0,1024,1024,1024,1024,0,0,0,0,0,0,0,99,4.321,4.326,4.325,4.327,4.332,4.327,0,,4.1686697,0.5,11,AutoTakeoff,
4300,2024-11-03 23:57:04,-23.4438135328166,151.91728056429,0.6,,,4.2686697,0,0.4,0.508046,0.553487,14,5,25.419,4.2686697,0.6,0.4,0.508046,0,-0.4,-0.6,82.1, -2.2, 0.4,0,0,1024,1024,1024,1024,0,0,0,0,0,0,0,99,4.215,4.224,4.245,4.257,4.253,4.225,0,,4.2686697,0.6,11,AutoTakeoff,
4400,2024-11-03 23:57:04,-23.4438134620367,151.917280155653,0.6,,,4.2686697,0,0.4,0.549213,0.595916,14,5,25.419,4.2686697,0.6,0.4,0.549213,0,-0.4,-0.6,82.1, -2.1, 0.1,0,0,1024,1024,1024,1024,0,0,0,0,0,0,0,99,4.215,4.224,4.245,4.257,4.253,4.225,0,,4.2686697,0.6,11,AutoTakeoff,
4500,2024-11-03 23:57:05,-23.4438134243056,151.917279775073,0.7,,,4.3686697,0,0.3,0.587825,0.634971,14,5,25.419,4.3686697,0.7,0.4,0.587825,0,-0.3,-0.6,82.1, -1.9, 0,0,0,1024,1024,1024,1024,0,0,0,0,0,0,0,99,4.215,4.224,4.245,4.257,4.253,4.225,0,,4.3686697,0.7,11,AutoTakeoff,
4600,2024-11-03 23:57:05,-23.4438133867763,151.917279464078,0.7,,,4.3686697,0,0.3,0.619397,0.666974,14,5,25.419,4.3686697,0.7,0.4,0.619397,0,-0.3,-0.5,82.2, -1.8, -0.1,0,0,1024,1024,1024,1024,0,0,0,0,0,0,0,99,4.215,4.224,4.245,4.257,4.253,4.225,0,,4.3686697,0.7,11,AutoTakeoff,
4700,2024-11-03 23:57:05,-23.4438133775679,151.917279143779,0.8,,,4.4686697,0,0.3,0.652035,0.699669,14,5,25.419,4.4686697,0.8,0.4,0.652035,0,-0.3,-0.5,82.2, -2, 0,0,0,1024,1024,1024,1024,0,0,0,0,0,0,0,99,4.215,4.224,4.245,4.257,4.253,4.225,0,,4.4686697,0.8,11,AutoTakeoff,
4800,2024-11-03 23:57:05,-23.4438134064964,151.917278839289,0.8,,,4.4686697,0,0.3,0.683179,0.730901,14,5,25.419,4.4686697,0.8,0.4,0.683179,0,-0.3,-0.4,82.2, -2.2, 0.1,0,0,1024,1024,1024,1024,0,0,0,0,0,0,0,99,4.215,4.224,4.245,4.257,4.253,4.225,0,,4.4686697,0.8,11,AutoTakeoff,
4900,2024-11-03 23:57:05,-23.4438134434767,151.917278514743,0.9,,,4.5686697,0,0.3,0.716405,0.764267,14,5,25.419,4.5686697,0.9,0.4,0.716405,0,-0.3,-0.4,82.2, -2.5, 0.3,0,0,1024,1024,1024,1024,0,0,0,0,0,0,0,99,4.215,4.224,4.245,4.257,4.253,4.225,0,,4.5686697,0.9,11,AutoTakeoff,
5000,2024-11-03 23:57:05,-23.4438134464122,151.917278236224,0.9,,,4.5686697,0,0.2,0.744817,0.792685,14,5,25.419,4.5686697,0.9,0.4,0.744817,0,-0.2,-0.4,82.2, -2.5, 0.4,0,0,1024,1024,1024,1024,0,0,0,0,0,0,0,99,4.215,4.224,4.245,4.257,4.253,4.225,0,,4.5686697,0.9,11,AutoTakeoff,
5100,2024-11-03 23:57:05,-23.4438134522013,151.917277983195,0.9,,,4.5686697,0,0.2,0.770639,0.818509,14,5,25.419,4.5686697,0.9,0.4,0.770639,0,-0.2,-0.4,82.2, -2.4, 0.4,0,0,1024,1024,1024,1024,0,0,0,0,0,0,0,99,4.215,4.224,4.245,4.257,4.253,4.225,0,,4.5686697,0.9,11,AutoTakeoff,
5200,2024-11-03 23:57:05,-23.4438134435107,151.917277770837,1,,,4.6686697,0,0.2,0.792264,0.840196,13,4,25.419,4.6686697,1,0.4,0.792264,0,-0.2,-0.4,82.2, -2.1, 0.4,0,0,1024,1024,1024,1024,0,0,0,0,0,0,0,99,4.215,4.224,4.245,4.257,4.253,4.225,0,,4.6686697,1,11,AutoTakeoff,
5300,2024-11-03 23:57:05,-23.4438134594216,151.917277554227,1,,,4.6686697,0,0.2,0.814408,0.862367,13,4,25.419,4.6686697,1,0.4,0.814408,0,-0.2,-0.4,82.2, -1.8, 0.4,0,0,1024,1024,1024,1024,0,0,0,0,0,0,0,99,4.215,4.224,4.245,4.257,4.253,4.225,0,,4.6686697,1,11,AutoTakeoff,
5400,2024-11-03 23:57:05,-23.4438135032577,151.917277269676,1,,,4.6686697,0,0.2,0.843591,0.891805,13,4,25.419,4.6686697,1,0.4,0.843591,0,-0.2,-0.4,82.3, -1.8, 0.3,0,0,1024,1024,1024,1024,0,0,0,0,0,0,0,99,4.215,4.224,4.245,4.257,4.253,4.225,0,,4.6686697,1,14,Waypoint,
5500,2024-11-03 23:57:06,-23.4438135659894,151.917276980383,1.1,,,4.7686697,0,0.2,0.873363,0.922134,13,4,25.419,4.7686697,1.1,0.4,0.873363,0,-0.2,-0.2,82.3, -2.1, 0.2,0,0,1024,1024,1024,1024,0,0,0,0,0,0,0,99,4.215,4.224,4.245,4.257,4.253,4.225,0,,4.7686697,1.1,14,Waypoint,
5600,2024-11-03 23:57:06,-23.4438135880457,151.917276652698,1.1,,,4.7686697,0,0.2,0.906871,0.955656,13,4,25.419,4.7686697,1.1,0.4,0.906871,0,-0.2,-0.2,82.5, -2.4, 0.1,0,0,1024,1024,1024,1024,0,0,0,0,0,0,0,99,4.215,4.224,4.245,4.257,4.253,4.225,0,,4.7686697,1.1,14,Waypoint,
5700,2024-11-03 23:57:06,-23.4438136253468,151.917276398658,1.1,,,4.7686697,0,0.2,0.932954,0.981905,13,4,25.419,4.7686697,1.1,0.4,0.932954,0,-0.2,-0.2,82.5, -2.7, 0,0,0,1024,1024,1024,1024,0,0,0,0,0,0,0,99,4.215,4.224,4.245,4.257,4.253,4.225,0,,4.7686697,1.1,14,Waypoint,
5800,2024-11-03 23:57:06,-23.4438137018155,151.91727616749,1.1,,,4.7686697,0,0.1,0.956948,1.00698,13,4,25.419,4.7686697,1.1,0.4,0.956948,0,-0.1,-0.2,82.6, -2.6, -0.1,0,0,1024,1024,1024,1024,0,0,0,0,0,0,0,99,4.215,4.224,4.245,4.257,4.253,4.225,0,,4.7686697,1.1,14,Waypoint,
5900,2024-11-03 23:57:06,-23.4438138027972,151.917275984483,1.2,,,4.8686697,0,0.1,0.976268,1.02876,13,4,25.419,4.8686697,1.2,0.4,0.976268,0,-0.1,-0.3,82.5, -2.3, 0,0,0,1024,1024,1024,1024,0,0,0,0,0,0,0,99,4.215,4.224,4.245,4.257,4.253,4.225,0,,4.8686697,1.2,14,Waypoint,
6000,2024-11-03 23:57:06,-23.4438139360417,151.917275811752,1.2,,,4.8686697,0,0.1,0.994923,1.05179,13,4,25.419,4.8686697,1.2,0.4,0.994923,0,-0.1,-0.4,82.5, -1.7, 0,0,0,1024,1024,1024,1024,0,0,0,0,0,0,0,99,4.215,4.224,4.245,4.257,4.253,4.225,0,,4.8686697,1.2,14,Waypoint,
6100,2024-11-03 23:57:06,-23.4438140594202,151.917275666712,1.3,,,4.9686697,0,0.1,1.01084,1.07197,13,4,25.419,4.9686697,1.3,0.4,1.01084,0,-0.1,-0.6,82.4, -1.2, -0.3,0,0,1024,1024,1024,1024,0,0,0,0,0,0,0,99,4.215,4.224,4.245,4.257,4.253,4.225,0,,4.9686697,1.3,14,Waypoint,
6200,2024-11-03 23:57:06,-23.4438141686194,151.917275483546,1.3,,,4.9686697,0,0.1,1.03062,1.09426,13,4,25.419,4.9686697,1.3,0.4,1.03062,0,-0.1,-0.8,82.3, -0.9, -0.4,0,0,1024,1024,1024,1024,0,0,0,0,0,0,0,99,4.215,4.224,4.245,4.257,4.253,4.225,0,,4.9686697,1.3,14,Waypoint,
6300,2024-11-03 23:57:06,-23.4438142635651,151.917275305708,1.5,,,5.1686697,0,0.1,1.04978,1.11525,13,4,24.436,5.1686697,1.5,0.4,1.04978,0,-0.1,-1.1,82.3, -0.9, -0.9,0,0,1024,1024,1024,1024,0,0,0,0,0,0,0,99,4.054,4.069,4.075,4.088,4.075,4.075,0,,5.1686697,1.5,14,Waypoint,
6400,2024-11-03 23:57:06,-23.4438143427391,151.917275092049,1.6,,,5.2686697,0,0.1,1.07244,1.13876,13,4,24.436,5.2686697,1.6,0.4,1.07244,0,-0.1,-1.4,82.3, -1.3, -1.5,0,0,1024,1024,1024,1024,0,0,0,0,0,0,0,99,4.054,4.069,4.075,4.088,4.075,4.075,0,,5.2686697,1.6,14,Waypoint,
6500,2024-11-03 23:57:07,-23.4438144032766,151.917274895415,1.8,,,5.4686697,0,0.2,1.09315,1.15992,13,4,24.436,5.4686697,1.8,0.4,1.09315,0,-0.2,-1.7,82.3, -1.7, -1.6,0,0,1024,1024,1024,1024,0,0,0,0,0,0,0,99,4.054,4.069,4.075,4.088,4.075,4.075,0,,5.4686697,1.8,14,Waypoint,
6600,2024-11-03 23:57:07,-23.4438144384583,151.917274691057,2,,,5.6686697,0,0.2,1.11432,1.18113,13,4,24.436,5.6686697,2,0.4,1.11432,0,-0.2,-2,82.4, -1.8, -1.4,0,0,1024,1024,1024,1024,0,0,0,0,0,0,0,99,4.054,4.069,4.075,4.088,4.075,4.075,0,,5.6686697,2,14,Waypoint,
6700,2024-11-03 23:57:07,-23.4438144528765,151.917274512189,2.3,,,5.9686697,0,0.2,1.13263,1.19945,13,4,24.436,5.9686697,2.3,0.4,1.13263,0,-0.2,-2.3,82.4, -2.1, -0.9,0,0,1024,1024,1024,1024,0,0,0,0,0,0,0,99,4.054,4.069,4.075,4.088,4.075,4.075,0,,5.9686697,2.3,14,Waypoint,
6800,2024-11-03 23:57:07,-23.4438144381293,151.917274392487,2.6,,,6.2686697,0,0.1,1.14456,1.21177,13,4,24.436,6.2686697,2.6,0.4,1.14456,0,-0.1,-2.6,82.5, -2.7, -0.6,0,0,1024,1024,1024,1024,0,0,0,0,0,0,0,99,4.054,4.069,4.075,4.088,4.075,4.075,0,,6.2686697,2.6,14,Waypoint,
6900,2024-11-03 23:57:07,-23.4438144146809,151.917274304583,2.9,,,6.5686697,0,0.1,1.15317,1.22111,13,4,24.436,6.5686697,2.9,0.4,1.15317,0,-0.1,-2.8,82.6, -3, 0,0,0,1024,1024,1024,1024,0,0,0,0,0,0,0,99,4.054,4.069,4.075,4.088,4.075,4.075,0,,6.5686697,2.9,14,Waypoint,
7000,2024-11-03 23:57:07,-23.443814344418,151.917274213684,3.2,,,6.8686697,0,0.1,1.16151,1.23324,12,4,24.436,6.8686697,3.2,0.4,1.16151,0,-0.1,-3.1,82.6, -2.9, 0.3,0,0,1024,1024,1024,1024,0,0,0,0,0,0,0,99,4.054,4.069,4.075,4.088,4.075,4.075,0,,6.8686697,3.2,14,Waypoint,
7100,2024-11-03 23:57:07,-23.4438142931658,151.917274145507,3.5,,,7.1686697,0,0.1,1.16784,1.24223,12,4,24.436,7.1686697,3.5,0.4,1.16784,0,-0.1,-3.2,82.5, -2.8, 0.5,0,0,1024,1024,1024,1024,0,0,0,0,0,0,0,99,4.054,4.069,4.075,4.088,4.075,4.075,0,,7.1686697,3.5,14,Waypoint,
7200,2024-11-03 23:57:07,-23.4438141836424,151.917273984284,3.9,,,7.5686697,0,0.1,1.18304,1.2627,13,4,24.436,7.5686697,3.9,0.4,1.18304,0,-0.1,-3.3,82.4, -3, 1.2,0,0,1024,1024,1024,1024,0,0,0,0,0,0,0,99,4.054,4.069,4.075,4.088,4.075,4.075,0,,7.5686697,3.9,14,Waypoint,
7300,2024-11-03 23:57:07,-23.4438141378857,151.917273886032,4.2,,,7.8686697,0,0.1,1.19258,1.27394,13,4,24.436,7.8686697,4.2,0.4,1.19258,0,-0.1,-3.3,82.3, -3.3, 1.5,0,0,1024,1024,1024,1024,0,0,0,0,0,0,0,99,4.054,4.069,4.075,4.088,4.075,4.075,0,,7.8686697,4.2,14,Waypoint,
7400,2024-11-03 23:57:07,-23.4438140481902,151.917273719366,4.6,,,8.2686697,0,0.1,1.20872,1.29366,13,4,24.436,8.2686697,4.6,0.4,1.20872,0,-0.1,-3.3,82.1, -3.5, 1.4,0,0,1024,1024,1024,1024,0,0,0,0,0,0,0,99,4.054,4.069,4.075,4.088,4.075,4.075,0,,8.2686697,4.6,14,Waypoint,
7500,2024-11-03 23:57:08,-23.4438140250893,151.917273666539,4.9,,,8.5686697,0,0.1,1.21391,1.29963,13,4,24.436,8.5686697,4.9,0.4,1.21391,0,-0.1,-3.2,82.2, -3.7, 0.9,0,0,1024,1024,1024,1024,0,0,0,0,0,0,0,99,4.054,4.069,4.075,4.088,4.075,4.075,0,,8.5686697,4.9,14,Waypoint,
7600,2024-11-03 23:57:08,-23.4438139788336,151.917273537367,5.2,,,8.8686697,0,0.1,1.22669,1.31378,13,4,24.436,8.8686697,5.2,0.4,1.22669,0,-0.1,-3.1,82.2, -3.8, 0.4,0,0,1024,1024,1024,1024,0,0,0,0,0,0,0,99,4.054,4.069,4.075,4.088,4.075,4.075,0,,8.8686697,5.2,14,Waypoint,
7700,2024-11-03 23:57:08,-23.4438139935114,151.917273508613,5.5,,,9.1686697,0,0.1,1.22973,1.31713,13,4,24.436,9.1686697,5.5,0.4,1.22973,0,-0.1,-3,82.3, -3.9, -0.3,0,0,1024,1024,1024,1024,0,0,0,0,0,0,0,99,4.054,4.069,4.075,4.088,4.075,4.075,0,,9.1686697,5.5,14,Waypoint,
7800,2024-11-03 23:57:08,-23.443814023023,151.917273449307,5.8,,,9.4686697,0,0.1,1.236,1.32402,14,4,24.436,9.4686697,5.8,0.4,1.236,0,-0.1,-2.9,82.3, -4, -0.7,0,0,1024,1024,1024,1024,0,0,0,0,0,0,0,99,4.054,4.069,4.075,4.088,4.075,4.075,0,,9.4686697,5.8,14,Waypoint,
7900,2024-11-03 23:57:08,-23.4438140788978,151.91727348942,6,,,9.6686697,0,0,1.23238,1.33146,14,4,24.436,9.6686697,6,0.4,1.236,0,0,-2.9,82.3, -3.9, -0.7,0,0,1024,1024,1024,1024,0,0,0,0,0,0,0,99,4.054,4.069,4.075,4.088,4.075,4.075,0,,9.6686697,6,14,Waypoint,
8000,2024-11-03 23:57:08,-23.4438141628683,151.917273551733,6.3,,,9.9686697,0,0,1.2268,1.34275,15,4,24.436,9.9686697,6.3,0.4,1.236,0,0,-2.8,82.4, -3.8, -0.5,0,0,1024,1024,1024,1024,0,0,0,0,0,0,0,99,4.054,4.069,4.075,4.088,4.075,4.075,0,,9.9686697,6.3,14,Waypoint,
8100,2024-11-03 23:57:08,-23.443814242828,151.917273688654,6.6,,,10.2686697,0,0,1.21368,1.35931,15,4,24.436,10.2686697,6.6,0.4,1.236,0,0,-2.8,82.3, -3.6, -0.2,0,0,1024,1024,1024,1024,0,0,0,0,0,0,0,99,4.054,4.069,4.075,4.088,4.075,4.075,0,,10.2686697,6.6,14,Waypoint,
8200,2024-11-03 23:57:08,-23.4438143571383,151.917273892536,6.8,,,10.4686697,0,0,1.19424,1.38369,16,4,24.436,10.4686697,6.8,0.4,1.236,0,0,-2.8,82.3, -3.3, -0.3,0,0,1024,1024,1024,1024,0,0,0,0,0,0,0,99,4.054,4.069,4.075,4.088,4.075,4.075,0,,10.4686697,6.8,14,Waypoint,
8300,2024-11-03 23:57:08,-23.4438144570748,151.917274128192,7.1,,,10.7686697,0,0,1.17159,1.41018,16,4,24.436,10.7686697,7.1,0.4,1.236,0,0,-2.8,82.4, -2.9, -0.2,0,0,1024,1024,1024,1024,0,0,0,0,0,0,0,99,4.054,4.069,4.075,4.088,4.075,4.075,0,,10.7686697,7.1,14,Waypoint,
8400,2024-11-03 23:57:08,-23.4438146272374,151.917274387951,7.4,,,11.0686697,0,0,1.14769,1.44274,16,4,24.436,11.0686697,7.4,0.4,1.236,0,0,-2.9,82.3, -2.4, -0.1,0,0,1024,1024,1024,1024,0,0,0,0,0,0,0,99,4.054,4.069,4.075,4.088,4.075,4.075,0,,11.0686697,7.4,14,Waypoint,
8500,2024-11-03 23:57:09,-23.4438147778737,151.917274627233,7.7,,,11.3686697,0,0.1,1.12596,1.47235,16,4,24.436,11.3686697,7.7,0.4,1.236,-0.1,0,-2.9,82.3, -2.1, -0.3,0,0,1024,1024,1024,1024,0,0,0,0,0,0,0,99,4.054,4.069,4.075,4.088,4.075,4.075,0,,11.3686697,7.7,14,Waypoint,
8600,2024-11-03 23:57:09,-23.4438149842382,151.917274862726,8,,,11.6686697,0,0.1,1.10606,1.50558,16,4,24.436,11.6686697,8,0.4,1.236,-0.1,0,-2.9,82.3, -1.8, -0.8,0,0,1024,1024,1024,1024,0,0,0,0,0,0,0,99,4.054,4.069,4.075,4.088,4.075,4.075,0,,11.6686697,8,14,Waypoint,
8700,2024-11-03 23:57:09,-23.4438151594332,151.917275071674,8.3,,,11.9686697,0,0.1,1.08877,1.53446,16,4,24.436,11.9686697,8.3,0.4,1.236,-0.1,0,-3,82.3, -1.8, -1.4,0,0,1024,1024,1024,1024,0,0,0,0,0,0,0,99,4.054,4.069,4.075,4.088,4.075,4.075,0,,11.9686697,8.3,14,Waypoint,
8800,2024-11-03 23:57:09,-23.4438153762768,151.917275256516,8.6,,,12.2686697,0,0.1,1.07539,1.56507,16,4,24.436,12.2686697,8.6,0.4,1.236,-0.1,0,-3,82.3, -1.8, -1.7,0,0,1024,1024,1024,1024,0,0,0,0,0,0,0,99,4.054,4.069,4.075,4.088,4.075,4.075,0,,12.2686697,8.6,14,Waypoint,
8900,2024-11-03 23:57:09,-23.4438155429762,151.917275421004,8.9,,,12.5686697,0,0.1,1.06338,1.59007,16,4,24.154,12.5686697,8.9,0.4,1.236,-0.1,0,-3,82.3, -2.1, -1.9,0,0,1024,1024,1024,1024,0,0,0,0,0,0,0,99,4.021,4.037,4.032,4.034,4.022,4.008,0,,12.5686697,8.9,14,Waypoint,
9000,2024-11-03 23:57:09,-23.4438157585202,151.917275602683,9.2,,,12.8686697,0,0,1.05158,1.62037,16,4,24.154,12.8686697,9.2,0.4,1.236,0,0,-3,82.3, -2.4, -2.2,0,0,1024,1024,1024,1024,0,0,0,0,0,0,0,99,4.021,4.037,4.032,4.034,4.022,4.008,0,,12.8686697,9.2,14,Waypoint,
9100,2024-11-03 23:57:09,-23.4438159188495,151.917275771544,9.5,,,13.1686697,0,0.1,1.03999,1.64517,16,4,24.154,13.1686697,9.5,0.4,1.236,-0.1,0,-3,82.3, -2.5, -2.3,0,0,1024,1024,1024,1024,0,0,0,0,0,0,0,99,4.021,4.037,4.032,4.034,4.022,4.008,0,,13.1686697,9.5,14,Waypoint,
9200,2024-11-03 23:57:09,-23.4438159274065,151.917275903711,9.8,,,13.4686697,0,0,1.02736,1.65869,16,4,24.154,13.4686697,9.8,0.4,1.236,0,0,-3,82.3, -2.5, -2.4,0,0,1024,1024,1024,1024,0,0,0,0,0,0,0,99,4.021,4.037,4.032,4.034,4.022,4.008,0,,13.4686697,9.8,14,Waypoint,
9300,2024-11-03 23:57:09,-23.4438158853658,151.917276031602,10.1,,,13.7686697,0,0,1.01352,1.67255,16,4,24.154,13.7686697,10.1,0.4,1.236,0,0,-3.1,82.3, -2.7, -2.2,0,0,1024,1024,1024,1024,0,0,0,0,0,0,0,99,4.021,4.037,4.032,4.034,4.022,4.008,0,,13.7686697,10.1,14,Waypoint,
9400,2024-11-03 23:57:09,-23.4438157618302,151.917276248825,10.4,,,14.0686697,0,0,0.988334,1.69862,16,4,24.154,14.0686697,10.4,0.4,1.236,0,0,-3,82.3, -2.9, -2.1,0,0,1024,1024,1024,1024,0,0,0,0,0,0,0,99,4.021,4.037,4.032,4.034,4.022,4.008,0,,14.0686697,10.4,14,Waypoint,
9500,2024-11-03 23:57:10,-23.4438156741855,151.917276453837,10.7,,,14.3686697,0,0,0.965511,1.7217,16,4,24.154,14.3686697,10.7,0.4,1.236,0,0,-2.9,82.3, -3.1, -2,0,0,1024,1024,1024,1024,0,0,0,0,0,0,0,99,4.021,4.037,4.032,4.034,4.022,4.008,0,,14.3686697,10.7,14,Waypoint,
9600,2024-11-03 23:57:10,-23.4438155620544,151.917276743559,11,,,14.6686697,0,0.1,0.933641,1.75378,16,4,24.154,14.6686697,11,0.4,1.236,0,0.1,-2.7,82.3, -3.2, -1.8,0,0,1024,1024,1024,1024,0,0,0,0,0,0,0,99,4.021,4.037,4.032,4.034,4.022,4.008,0,,14.6686697,11,14,Waypoint,
9700,2024-11-03 23:57:10,-23.4438154756091,151.917276995526,11.2,,,14.8686697,0,0.1,0.906276,1.78123,16,4,24.154,14.8686697,11.2,0.4,1.236,0,0.1,-2.6,82.3, -3.1, -1.8,0,0,1024,1024,1024,1024,0,0,0,0,0,0,0,99,4.021,4.037,4.032,4.034,4.022,4.008,0,,14.8686697,11.2,14,Waypoint,
9800,2024-11-03 23:57:10,-23.4438153976487,151.917277326391,11.5,,,15.1686697,0,0.1,0.871438,1.81608,16,4,24.154,15.1686697,11.5,0.4,1.236,0,0.1,-2.4,82.3, -2.7, -2,0,0,1024,1024,1024,1024,0,0,0,0,0,0,0,99,4.021,4.037,4.032,4.034,4.022,4.008,0,,15.1686697,11.5,14,Waypoint,
9900,2024-11-03 23:57:10,-23.443815315,151.917277604159,11.7,,,15.3686697,0,0.1,0.841662,1.84587,16,4,24.154,15.3686697,11.7,0.4,1.236,0,0.1,-2.3,82.3, -2.3, -2.1,0,0,1024,1024,1024,1024,0,0,0,0,0,0,0,99,4.021,4.037,4.032,4.034,4.022,4.008,0,,15.3686697,11.7,14,Waypoint,
10000,2024-11-03 23:57:10,-23.4438152406101,151.917277955256,11.9,,,15.5686697,0,0.14,0.804952,1.88263,16,4,24.154,15.5686697,11.9,0.4,1.236,0.1,0.1,-2.1,82.2, -1.7, -1.9,0,0,1024,1024,1024,1024,0,0,0,0,0,0,0,98,4.021,4.037,4.032,4.034,4.022,4.008,0,,15.5686697,11.9,14,Waypoint,
10100,2024-11-03 23:57:10,-23.4438151517181,151.917278215319,12.1,,,15.7686697,0,0.14,0.776718,1.91095,16,4,24.154,15.7686697,12.1,0.4,1.236,0.1,0.1,-2,82.2, -1.1, -1.9,0,0,1024,1024,1024,1024,0,0,0,0,0,0,0,98,4.021,4.037,4.032,4.034,4.022,4.008,0,,15.7686697,12.1,14,Waypoint,
10200,2024-11-03 23:57:10,-23.4438150848026,151.917278482885,12.3,,,15.9686697,0,0.14,0.748426,1.93924,16,4,24.154,15.9686697,12.3,0.4,1.236,0.1,0.1,-1.9,82.3, -0.6, -1.6,0,0,1024,1024,1024,1024,0,0,0,0,0,0,0,98,4.021,4.037,4.032,4.034,4.022,4.008,0,,15.9686697,12.3,14,Waypoint,
10300,2024-11-03 23:57:10,-23.4438149929499,151.917278674152,12.5,,,16.1686697,0,0.14,0.726861,1.96127,16,4,24.154,16.1686697,12.5,0.4,1.236,0.1,0.1,-1.8,82.2, -0.2, -1.4,0,0,1024,1024,1024,1024,0,0,0,0,0,0,0,98,4.021,4.037,4.032,4.034,4.022,4.008,0,,16.1686697,12.5,14,Waypoint,
10400,2024-11-03 23:57:11,-23.4438149408943,151.917278847953,12.7,,,16.3686697,0,0.1,0.708225,1.97992,16,4,23.713,16.3686697,12.7,0.4,1.236,0.1,0,-1.7,82.3, -0.1, -1.3,0,0,1024,1024,1024,1024,0,0,0,0,0,0,0,98,3.94,3.953,3.956,3.956,3.947,3.961,0,,16.3686697,12.7,14,Waypoint,
10500,2024-11-03 23:57:11,-23.443814864029,151.91727895749,12.8,,,16.4686697,0,0.1,0.695178,1.99399,16,4,23.713,16.4686697,12.8,0.4,1.236,0.1,0,-1.6,82.3, 0, -1.1,0,0,1024,1024,1024,1024,0,0,0,0,0,0,0,98,3.94,3.953,3.956,3.956,3.947,3.961,0,,16.4686697,12.8,14,Waypoint,
10600,2024-11-03 23:57:11,-23.4438147862342,151.917279006823,13,,,16.6686697,0,0,0.688086,2.004,16,4,23.713,16.6686697,13,0.4,1.236,0,0,-1.6,82.3, -0.1, -1,0,0,1024,1024,1024,1024,0,0,0,0,0,0,0,98,3.94,3.953,3.956,3.956,3.947,3.961,0,,16.6686697,13,14,Waypoint,
10700,2024-11-03 23:57:11,-23.4438147045142,151.917278991214,13.2,,,16.8686697,0,0,0.687394,2.01323,16,4,23.713,16.8686697,13.2,0.4,1.236,0,0,-1.5,82.3, -0.4, -1.2,0,0,1024,1024,1024,1024,0,0,0,0,0,0,0,98,3.94,3.953,3.956,3.956,3.947,3.961,0,,16.8686697,13.2,14,Waypoint,
10800,2024-11-03 23:57:11,-23.4438146691313,151.917278934714,13.3,,,16.9686697,0,0,0.692067,2.02021,16,4,23.713,16.9686697,13.3,0.4,1.236,0,0,-1.5,82.3, -0.6, -1.2,0,0,1024,1024,1024,1024,0,0,0,0,0,0,0,98,3.94,3.953,3.956,3.956,3.947,3.961,0,,16.9686697,13.3,14,Waypoint,
10900,2024-11-03 23:57:11,-23.4438146306967,151.917278834248,13.5,,,17.1686697,0,0,0.701075,2.03131,16,4,23.713,17.1686697,13.5,0.4,1.236,0,0,-1.4,82.3, -1, -1.3,0,0,1024,1024,1024,1024,0,0,0,0,0,0,0,98,3.94,3.953,3.956,3.956,3.947,3.961,0,,17.1686697,13.5,14,Waypoint,
11000,2024-11-03 23:57:11,-23.443814588025,151.917278757954,13.6,,,17.2686697,0,0,0.707632,2.04043,16,4,23.713,17.2686697,13.6,0.4,1.236,0,0,-1.3,82.3, -1.5, -1.3,0,0,1024,1024,1024,1024,0,0,0,0,0,0,0,98,3.94,3.953,3.956,3.956,3.947,3.961,0,,17.2686697,13.6,14,Waypoint,
11200,2024-11-03 23:57:11,-23.4438144093901,151.917278540145,13.9,,,17.5686697,0,0.1,0.725481,2.07024,16,4,23.713,17.5686697,13.9,0.4,1.236,0.1,0,-1.2,82.3, -1.7, -1.2,0,0,1024,1024,1024,1024,0,0,0,0,0,0,0,98,3.94,3.953,3.956,3.956,3.947,3.961,0,,17.5686697,13.9,14,Waypoint,
11300,2024-11-03 23:57:11,-23.4438142858879,151.917278389131,14,,,17.6686697,0,0.14,0.738315,2.09088,16,4,23.713,17.6686697,14,0.4,1.236,0.1,-0.1,-1.1,82.3, -1.9, -1,0,0,1024,1024,1024,1024,0,0,0,0,0,0,0,98,3.94,3.953,3.956,3.956,3.947,3.961,0,,17.6686697,14,14,Waypoint,
11400,2024-11-03 23:57:12,-23.4438141406718,151.917278283467,14.1,,,17.7686697,0,0.14,0.746582,2.11029,16,4,23.949,17.7686697,14.1,0.4,1.236,0.1,-0.1,-1.1,82.3, -2.2, -0.6,0,0,1024,1024,1024,1024,0,0,0,0,0,0,0,98,3.964,3.996,3.998,3.975,3.995,4.021,0,,17.7686697,14.1,14,Waypoint,
11500,2024-11-03 23:57:12,-23.4438140232366,151.917278144695,14.2,,,17.8686697,0,0.14,0.75897,2.12955,16,4,23.949,17.8686697,14.2,0.4,1.236,0.1,-0.1,-1,82.3, -2.4, -0.5,0,0,1024,1024,1024,1024,0,0,0,0,0,0,0,98,3.964,3.996,3.998,3.975,3.995,4.021,0,,17.8686697,14.2,14,Waypoint,
11600,2024-11-03 23:57:12,-23.4438138985657,151.917278041503,14.3,,,17.9686697,0,0.14,0.767948,2.14696,16,4,23.949,17.9686697,14.3,0.4,1.236,0.1,-0.1,-1,82.5, -2.5, -0.2,0,0,1024,1024,1024,1024,0,0,0,0,0,0,0,98,3.964,3.996,3.998,3.975,3.995,4.021,0,,17.9686697,14.3,14,Waypoint,
11700,2024-11-03 23:57:12,-23.443813806072,151.917277905978,14.4,,,18.0686697,0,0.14,0.780789,2.1642,16,4,23.949,18.0686697,14.4,0.4,1.236,0.1,-0.1,-0.8,84.9, -2.3, -0.1,0,0,1024,1024,1024,1024,0,0,0,0,0,0,0,98,3.964,3.996,3.998,3.975,3.995,4.021,0,,18.0686697,14.4,14,Waypoint,
11800,2024-11-03 23:57:12,-23.4438137156267,151.917277840256,14.4,,,18.0686697,0,0.1,0.786708,2.17629,16,4,23.949,18.0686697,14.4,0.4,1.236,0,-0.1,-0.5,89.5, -1.7, -0.1,0,0,1024,1024,1024,1024,0,0,0,0,0,0,0,98,3.964,3.996,3.998,3.975,3.995,4.021,0,,18.0686697,14.4,14,Waypoint,
11900,2024-11-03 23:57:12,-23.4438136478234,151.917277713416,14.5,,,18.1686697,0,0.1,0.799138,2.19126,16,4,23.949,18.1686697,14.5,0.4,1.236,0,-0.1,-0.3,96.2, -1.3, -0.1,0,0,1024,1024,1024,1024,0,0,0,0,0,0,0,98,3.964,3.996,3.998,3.975,3.995,4.021,0,,18.1686697,14.5,14,Waypoint,
12000,2024-11-03 23:57:12,-23.4438136389496,151.917277657662,14.5,,,18.1686697,0,0.1,0.804759,2.19704,16,4,23.949,18.1686697,14.5,0.4,1.236,0,-0.1,-0.2,105.2, -1.3, -0.6,0,0,1024,1024,1024,1024,0,0,0,0,0,0,0,97,3.964,3.996,3.998,3.975,3.995,4.021,0,,18.1686697,14.5,14,Waypoint,
12100,2024-11-03 23:57:12,-23.4438136459988,151.917277526454,14.5,,,18.1686697,0,0.1,0.818169,2.21045,16,4,23.949,18.1686697,14.5,0.4,1.236,0,-0.1,0,114.6, -1.8, -1.2,0,0,1024,1024,1024,1024,0,0,0,0,0,0,0,97,3.964,3.996,3.998,3.975,3.995,4.021,0,,18.1686697,14.5,14,Waypoint,
12200,2024-11-03 23:57:12,-23.4438137228365,151.917277433274,14.5,,,18.1686697,0,0.1,0.828189,2.22323,15,4,23.949,18.1686697,14.5,0.4,1.236,0,-0.1,0,124.3, -3.1, -1.6,0,0,1024,1024,1024,1024,0,0,0,0,0,0,0,97,3.964,3.996,3.998,3.975,3.995,4.021,0,,18.1686697,14.5,14,Waypoint,
12300,2024-11-03 23:57:12,-23.4438138029337,151.917277294986,14.4,,,18.0686697,0,0.1,0.842901,2.23991,15,4,23.949,18.1686697,14.5,0.4,1.236,0,-0.1,0.1,133.9, -4.2, -1.9,0,0,1024,1024,1024,1024,0,0,0,0,0,0,0,97,3.964,3.996,3.998,3.975,3.995,4.021,0,,18.0686697,14.4,14,Waypoint,
12400,2024-11-03 23:57:12,-23.4438139413252,151.917277173755,14.4,,,18.0686697,0,0.1,0.85653,2.25966,15,4,23.949,18.1686697,14.5,0.4,1.236,0,-0.1,0.1,143.3, -4.9, -1.6,0,0,1024,1024,1024,1024,0,0,0,0,0,0,0,97,3.964,3.996,3.998,3.975,3.995,4.021,0,,18.0686697,14.4,14,Waypoint,
12500,2024-11-03 23:57:13,-23.4438141164,151.917277015463,14.4,,,18.0686697,0,0.14,0.874607,2.28495,15,4,23.949,18.1686697,14.5,0.4,1.236,-0.1,-0.1,0.1,152, -5, -1.1,0,0,1024,1024,1024,1024,0,0,0,0,0,0,0,97,3.964,3.996,3.998,3.975,3.995,4.021,0,,18.0686697,14.4,14,Waypoint,
12600,2024-11-03 23:57:13,-23.4438144085649,151.917276828597,14.4,,,18.0686697,0,0.2,0.897742,2.32262,15,4,23.949,18.1686697,14.5,0.4,1.236,-0.2,0,0,158.5, -5.2, -0.3,0,0,1024,1024,1024,1024,0,0,0,0,0,0,0,97,3.964,3.996,3.998,3.975,3.995,4.021,0,,18.0686697,14.4,14,Waypoint,
12700,2024-11-03 23:57:13,-23.4438147809429,151.91727663162,14.4,,,18.0686697,0,0.32,0.924482,2.36865,15,4,23.949,18.1686697,14.5,0.4,1.236,-0.3,-0.1,0,162.8, -4.4, 0.3,0,0,1024,1024,1024,1024,0,0,0,0,0,0,0,97,3.964,3.996,3.998,3.975,3.995,4.021,0,,18.0686697,14.4,14,Waypoint,
12800,2024-11-03 23:57:13,-23.4438152340794,151.917276384924,14.4,,,18.0686697,0,0.41,0.959691,2.42498,15,5,23.949,18.1686697,14.5,0.41,1.236,-0.4,-0.1,0,165.4, -2.9, 0,0,0,1024,1024,1024,1024,0,0,0,0,0,0,0,97,3.964,3.996,3.998,3.975,3.995,4.021,0,,18.0686697,14.4,14,Waypoint,
12900,2024-11-03 23:57:13,-23.4438157331365,151.917276139164,14.4,,,18.0686697,0,0.51,0.998165,2.48588,15,5,23.949,18.1686697,14.5,0.51,1.236,-0.5,-0.1,0,166.4, -1.6, -0.7,0,0,1024,1024,1024,1024,0,0,0,0,0,0,0,97,3.964,3.996,3.998,3.975,3.995,4.021,0,,18.0686697,14.4,14,Waypoint,
13000,2024-11-03 23:57:13,-23.4438162980724,151.917275964148,14.4,,,18.0686697,0,0.61,1.03435,2.55119,16,5,23.949,18.1686697,14.5,0.61,1.236,-0.6,-0.1,0,166.7, -1.8, -1.5,0,0,1024,1024,1024,1024,0,0,0,0,0,0,0,97,3.964,3.996,3.998,3.975,3.995,4.021,0,,18.0686697,14.4,14,Waypoint,
13100,2024-11-03 23:57:13,-23.4438168938636,151.91727578971,14.5,,,18.1686697,0,0.61,1.07455,2.6198,16,5,23.949,18.1686697,14.5,0.61,1.236,-0.6,-0.1,0,166.9, -2.4, -2.4,0,0,1024,1024,1024,1024,0,0,0,0,0,0,0,97,3.964,3.996,3.998,3.975,3.995,4.021,0,,18.1686697,14.5,14,Waypoint,
13200,2024-11-03 23:57:13,-23.4438176002516,151.917275637908,14.5,,,18.1686697,0,0.71,1.1207,2.69987,16,5,23.949,18.1686697,14.5,0.71,1.236,-0.7,-0.1,0,167.1, -3.5, -3.3,0,0,1024,1024,1024,1024,0,0,0,0,0,0,0,97,3.964,3.996,3.998,3.975,3.995,4.021,0,,18.1686697,14.5,14,Waypoint,
13300,2024-11-03 23:57:13,-23.4438183554588,151.917275463351,14.5,,,18.1686697,0,0.81,1.17518,2.78572,16,5,23.949,18.1686697,14.5,0.81,1.236,-0.8,-0.1,0,167.3, -4.9, -4.1,0,0,1024,1024,1024,1024,0,0,0,0,0,0,0,97,3.964,3.996,3.998,3.975,3.995,4.021,0,,18.1686697,14.5,14,Waypoint,
13400,2024-11-03 23:57:13,-23.4438192301036,151.91727535249,14.5,,,18.1686697,0,0.91,1.23487,2.88364,16,5,23.949,18.1686697,14.5,0.91,1.236,-0.9,-0.1,0,167.5, -6.2, -4.4,0,0,1024,1024,1024,1024,0,0,0,0,0,0,0,97,3.964,3.996,3.998,3.975,3.995,4.021,0,,18.1686697,14.5,14,Waypoint,
13500,2024-11-03 23:57:14,-23.4438201703287,151.917275249307,14.5,,,18.1686697,0,1,1.30288,2.98873,16,5,24.063,18.1686697,14.5,1,1.30288,-1,0,0,167.6, -7.5, -4.6,0,0,1024,1024,1024,1024,0,0,0,0,0,0,0,97,3.988,4.018,4.009,4.006,4.018,4.024,0,,18.1686697,14.5,14,Waypoint,
13600,2024-11-03 23:57:14,-23.4438213150312,151.917275229306,14.6,,,18.2686697,0,1.1,1.38371,3.11604,16,5,24.063,18.2686697,14.6,1.1,1.38371,-1.1,0,0,167.7, -8.3, -4.9,0,0,1024,1024,1024,1024,0,0,0,0,0,0,0,97,3.988,4.018,4.009,4.006,4.018,4.024,0,,18.2686697,14.6,14,Waypoint,
13700,2024-11-03 23:57:14,-23.4438225406853,151.917275237415,14.6,,,18.2686697,0,1.3,1.47539,3.25234,16,5,24.063,18.2686697,14.6,1.3,1.47539,-1.3,0,0,167.7, -8.8, -4.7,0,0,1024,1024,1024,1024,0,0,0,0,0,0,0,97,3.988,4.018,4.009,4.006,4.018,4.024,0,,18.2686697,14.6,14,Waypoint,
13800,2024-11-03 23:57:14,-23.4438240142826,151.91727536098,14.6,,,18.2686697,0,1.4,1.58647,3.4167,16,5,24.063,18.2686697,14.6,1.4,1.58647,-1.4,0,0,167.7, -9.2, -4.6,0,0,1024,1024,1024,1024,0,0,0,0,0,0,0,97,3.988,4.018,4.009,4.006,4.018,4.024,0,,18.2686697,14.6,14,Waypoint,
13900,2024-11-03 23:57:14,-23.4438255670291,151.917275512865,14.6,,,18.2686697,0,1.6,1.71149,3.59007,16,5,24.063,18.2686697,14.6,1.6,1.71149,-1.6,0.1,0,167.7, -9.5, -4.4,0,0,1024,1024,1024,1024,0,0,0,0,0,0,0,97,3.988,4.018,4.009,4.006,4.018,4.024,0,,18.2686697,14.6,14,Waypoint,
14000,2024-11-03 23:57:14,-23.4438273824462,151.917275729894,14.6,,,18.2686697,0,1.7,1.86532,3.79316,16,5,24.063,18.2686697,14.6,1.7,1.86532,-1.7,0.1,0,167.6, -9.8, -4.2,0,0,1024,1024,1024,1024,0,0,0,0,0,0,0,97,3.988,4.018,4.009,4.006,4.018,4.024,0,,18.2686697,14.6,14,Waypoint,
14100,2024-11-03 23:57:14,-23.4438292750018,151.917275967934,14.6,,,18.2686697,0,1.91,2.03433,4.00502,16,5,24.063,18.2686697,14.6,1.91,2.03433,-1.9,0.2,0,167.6, -10, -4,0,0,1024,1024,1024,1024,0,0,0,0,0,0,0,97,3.988,4.018,4.009,4.006,4.018,4.024,0,,18.2686697,14.6,14,Waypoint,
14200,2024-11-03 23:57:14,-23.4438315174042,151.917276220006,14.6,,,18.2686697,0,2.11,2.24531,4.25572,16,5,24.063,18.2686697,14.6,2.11,2.24531,-2.1,0.2,0,167.6, -10.2, -4.2,0,0,1024,1024,1024,1024,0,0,0,0,0,0,0,97,3.988,4.018,4.009,4.006,4.018,4.024,0,,18.2686697,14.6,14,Waypoint,
14300,2024-11-03 23:57:14,-23.4438338051515,151.9172765083,14.6,,,18.2686697,0,2.32,2.46703,4.51182,16,5,24.063,18.2686697,14.6,2.32,2.46703,-2.3,0.3,0,167.5, -10.3, -4.1,0,0,1024,1024,1024,1024,0,0,0,0,0,0,0,97,3.988,4.018,4.009,4.006,4.018,4.024,0,,18.2686697,14.6,14,Waypoint,
14400,2024-11-03 23:57:14,-23.4438365382504,151.917276797317,14.6,,,18.2686697,0,2.52,2.74162,4.81719,16,5,24.063,18.2686697,14.6,2.52,2.74162,-2.5,0.3,0.1,167.6, -10.3, -4.3,0,0,1024,1024,1024,1024,0,0,0,0,0,0,0,97,3.988,4.018,4.009,4.006,4.018,4.024,0,,18.2686697,14.6,14,Waypoint,
14500,2024-11-03 23:57:15,-23.4438392516566,151.917277152,14.6,,,18.2686697,0,2.62,3.01812,5.1211,16,5,23.932,18.2686697,14.6,2.62,3.01812,-2.6,0.3,0.1,167.5, -10.3, -4.6,0,0,1024,1024,1024,1024,0,0,0,0,0,0,0,97,3.969,4,3.994,3.99,3.983,3.996,0,,18.2686697,14.6,14,Waypoint,
14600,2024-11-03 23:57:15,-23.4438423542821,151.917277464084,14.6,,,18.2686697,0,2.83,3.34246,5.46759,16,5,23.932,18.2686697,14.6,2.83,3.34246,-2.8,0.4,0.1,167.6, -10.3, -4.8,0,0,1024,1024,1024,1024,0,0,0,0,0,0,0,97,3.969,4,3.994,3.99,3.983,3.996,0,,18.2686697,14.6,14,Waypoint,
14700,2024-11-03 23:57:15,-23.4438454016643,151.917277874064,14.6,,,18.2686697,0,3.03,3.6627,5.80905,16,5,23.932,18.2686697,14.6,3.03,3.6627,-3,0.4,0.1,167.5, -10.5, -4.9,0,0,1024,1024,1024,1024,0,0,0,0,0,0,0,97,3.969,4,3.994,3.99,3.983,3.996,0,,18.2686697,14.6,14,Waypoint,
14800,2024-11-03 23:57:15,-23.4438488796657,151.917278214647,14.6,,,18.2686697,0,3.22,4.03484,6.19738,16,5,23.932,18.2686697,14.6,3.22,4.03484,-3.2,0.4,0.1,167.5, -10.6, -5,0,0,1024,1024,1024,1024,0,0,0,0,0,0,0,97,3.969,4,3.994,3.99,3.983,3.996,0,,18.2686697,14.6,14,Waypoint,
15000,2024-11-03 23:57:15,-23.4438562446033,151.917279148585,14.6,,,18.2686697,0,3.63,4.82832,7.02193,16,5,23.932,18.2686697,14.6,3.63,4.82832,-3.6,0.5,0.1,167.5, -10.9, -5.4,0,0,1024,1024,1024,1024,0,0,0,0,0,0,0,97,3.969,4,3.994,3.99,3.983,3.996,0,,18.2686697,14.6,14,Waypoint,
15100,2024-11-03 23:57:15,-23.4438601034782,151.917279756187,14.6,,,18.2686697,0,3.85,5.24653,7.45552,16,5,23.932,18.2686697,14.6,3.85,5.24653,-3.8,0.6,0.1,167.4, -11, -6,0,0,1024,1024,1024,1024,0,0,0,0,0,0,0,97,3.969,4,3.994,3.99,3.983,3.996,0,,18.2686697,14.6,14,Waypoint,
15200,2024-11-03 23:57:15,-23.44386453835,151.917280379664,14.6,,,18.2686697,0,4.06,5.73067,7.95279,16,5,23.932,18.2686697,14.6,4.06,5.73067,-4,0.7,0.1,167.4, -11.2, -6.1,0,0,1024,1024,1024,1024,0,0,0,0,0,0,0,97,3.969,4,3.994,3.99,3.983,3.996,0,,18.2686697,14.6,14,Waypoint,
15300,2024-11-03 23:57:15,-23.4438688272937,151.917281126924,14.6,,,18.2686697,0,4.26,6.19978,8.4358,16,5,23.932,18.2686697,14.6,4.26,6.19978,-4.2,0.7,0,167.4, -11.1, -6.2,0,0,1024,1024,1024,1024,0,0,0,0,0,0,0,97,3.969,4,3.994,3.99,3.983,3.996,0,,18.2686697,14.6,14,Waypoint,
15400,2024-11-03 23:57:15,-23.4438737226992,151.917281868736,14.6,,,18.2686697,0,4.47,6.73824,8.98544,15,5,23.932,18.2686697,14.6,4.47,6.73824,-4.4,0.8,0,167.4, -11.1, -6.5,0,0,1024,1024,1024,1024,0,0,0,0,0,0,0,97,3.969,4,3.994,3.99,3.983,3.996,0,,18.2686697,14.6,14,Waypoint,
15500,2024-11-03 23:57:16,-23.4438784371097,151.91728273458,14.6,,,18.2686697,0,4.69,7.25775,9.5171,15,5,23.932,18.2686697,14.6,4.69,7.25775,-4.6,0.9,0,167.3, -11.1, -6.5,0,0,1024,1024,1024,1024,0,0,0,0,0,0,0,97,3.969,4,3.994,3.99,3.983,3.996,0,,18.2686697,14.6,14,Waypoint,
15600,2024-11-03 23:57:16,-23.4438837929383,151.917283628445,14.6,,,18.2686697,0,4.79,7.85014,10.1196,16,5,23.985,18.2686697,14.6,4.79,7.85014,-4.7,0.9,0.1,167.3, -11.5, -6.7,0,0,1024,1024,1024,1024,0,0,0,0,0,0,0,97,3.98,3.999,3.999,4.004,3.998,4.005,0,,18.2686697,14.6,14,Waypoint,
15700,2024-11-03 23:57:16,-23.4438889131375,151.917284638093,14.5,,,18.1686697,0,5,8.41763,10.6983,16,5,23.985,18.2686697,14.6,5,8.41763,-4.9,1,0.1,167.3, -11.6, -6.7,0,0,1024,1024,1024,1024,0,0,0,0,0,0,0,97,3.98,3.999,3.999,4.004,3.998,4.005,0,,18.1686697,14.5,14,Waypoint,
15800,2024-11-03 23:57:16,-23.4438947087501,151.917285678497,14.5,,,18.1686697,0,5.22,9.06165,11.3515,16,5,23.985,18.2686697,14.6,5.22,9.06165,-5.1,1.1,0.1,167.2, -11.9, -6.5,0,0,1024,1024,1024,1024,0,0,0,0,0,0,0,97,3.98,3.999,3.999,4.004,3.998,4.005,0,,18.1686697,14.5,14,Waypoint,
15900,2024-11-03 23:57:16,-23.4439002531199,151.917286863579,14.5,,,18.1686697,0,5.53,9.67916,11.9798,16,5,23.985,18.2686697,14.6,5.53,9.67916,-5.4,1.2,0.1,167.2, -11.7, -6.1,0,0,1024,1024,1024,1024,0,0,0,0,0,0,0,97,3.98,3.999,3.999,4.004,3.998,4.005,0,,18.1686697,14.5,14,Waypoint,
16000,2024-11-03 23:57:16,-23.4439065205905,151.917288149426,14.5,,,18.1686697,0,5.73,10.3786,12.689,16,5,23.985,18.2686697,14.6,5.73,10.3786,-5.6,1.2,0.1,167.1, -11.5, -5.6,0,0,1024,1024,1024,1024,0,0,0,0,0,0,0,97,3.98,3.999,3.999,4.004,3.998,4.005,0,,18.1686697,14.5,14,Waypoint,
16100,2024-11-03 23:57:16,-23.4439124863755,151.917289516702,14.5,,,18.1686697,0,5.85,11.0461,13.3669,16,5,23.985,18.2686697,14.6,5.85,11.0461,-5.7,1.3,0.1,167.1, -11.4, -5.3,0,0,1024,1024,1024,1024,0,0,0,0,0,0,0,97,3.98,3.999,3.999,4.004,3.998,4.005,0,,18.1686697,14.5,14,Waypoint,
16200,2024-11-03 23:57:16,-23.443919208879,151.917290930932,14.4,,,18.0686697,0,6.14,11.7991,14.1283,16,5,23.985,18.2686697,14.6,6.14,11.7991,-6,1.3,0.1,167.1, -11.4, -5.2,0,0,1024,1024,1024,1024,0,0,0,0,0,0,0,97,3.98,3.999,3.999,4.004,3.998,4.005,0,,18.0686697,14.4,14,Waypoint,
16300,2024-11-03 23:57:16,-23.4439256195679,151.917292405749,14.4,,,18.0686697,0,6.36,12.5188,14.8569,16,5,23.985,18.2686697,14.6,6.36,12.5188,-6.2,1.4,0.1,167.1, -11.2, -5,0,0,1024,1024,1024,1024,0,0,0,0,0,0,0,97,3.98,3.999,3.999,4.004,3.998,4.005,0,,18.0686697,14.4,14,Waypoint,
16400,2024-11-03 23:57:16,-23.4439329082748,151.917293987935,14.4,,,18.0686697,0,6.57,13.3376,15.6834,16,5,23.985,18.2686697,14.6,6.57,13.3376,-6.4,1.5,0.1,167.1, -11, -5.1,0,0,1024,1024,1024,1024,0,0,0,0,0,0,0,97,3.98,3.999,3.999,4.004,3.998,4.005,0,,18.0686697,14.4,14,Waypoint,
16500,2024-11-03 23:57:17,-23.4439398154698,151.917295629788,14.4,,,18.0686697,0,6.79,14.1154,16.4696,16,5,23.985,18.2686697,14.6,6.79,14.1154,-6.6,1.6,0.1,167.1, -10.8, -5.1,0,0,1024,1024,1024,1024,0,0,0,0,0,0,0,97,3.98,3.999,3.999,4.004,3.998,4.005,0,,18.0686697,14.4,14,Waypoint,
16600,2024-11-03 23:57:17,-23.4439475188307,151.917297300075,14.4,,,18.0686697,0,7.08,14.9826,17.343,16,5,23.831,18.2686697,14.6,7.08,14.9826,-6.9,1.6,0.1,167.1, -10.6, -4.8,0,0,1024,1024,1024,1024,0,0,0,0,0,0,0,97,3.952,3.976,3.976,3.977,3.971,3.979,0,,18.0686697,14.4,14,Waypoint,
16700,2024-11-03 23:57:17,-23.4439547824205,151.91729899321,14.4,,,18.0686697,0,7.2,15.802,18.169,16,5,23.831,18.2686697,14.6,7.2,15.802,-7,1.7,0.1,167, -10.3, -4.8,0,0,1024,1024,1024,1024,0,0,0,0,0,0,0,97,3.952,3.976,3.976,3.977,3.971,3.979,0,,18.0686697,14.4,14,Waypoint,
16800,2024-11-03 23:57:17,-23.4439628878376,151.917300787381,14.3,,,17.9686697,0,7.4,16.7162,19.0888,16,5,23.831,18.2686697,14.6,7.4,16.7162,-7.2,1.7,0.1,166.9, -9.8, -4.3,0,0,1024,1024,1024,1024,0,0,0,0,0,0,0,97,3.952,3.976,3.976,3.977,3.971,3.979,0,,17.9686697,14.3,14,Waypoint,
16900,2024-11-03 23:57:17,-23.4439705301513,151.917302617993,14.3,,,17.9686697,0,7.59,17.5801,19.959,16,5,23.831,18.2686697,14.6,7.59,17.5801,-7.4,1.7,0,166.9, -9.1, -4,0,0,1024,1024,1024,1024,0,0,0,0,0,0,0,97,3.952,3.976,3.976,3.977,3.971,3.979,0,,17.9686697,14.3,14,Waypoint,
17000,2024-11-03 23:57:17,-23.4439789712103,151.917304471203,14.3,,,17.9686697,0,7.69,18.5331,20.9165,16,5,23.831,18.2686697,14.6,7.69,18.5331,-7.5,1.7,0.1,166.9, -8.9, -3.7,0,0,1024,1024,1024,1024,0,0,0,0,0,0,0,97,3.952,3.976,3.976,3.977,3.971,3.979,0,,17.9686697,14.3,14,Waypoint,
17100,2024-11-03 23:57:17,-23.4439868954924,151.917306305524,14.2,,,17.8686697,0,7.89,19.4293,21.8174,16,5,23.831,18.2686697,14.6,7.89,19.4293,-7.7,1.7,0.1,166.9, -7.7, -3.8,0,0,1024,1024,1024,1024,0,0,0,0,0,0,0,97,3.952,3.976,3.976,3.977,3.971,3.979,0,,17.8686697,14.2,14,Waypoint,
17200,2024-11-03 23:57:17,-23.4439956000336,151.917308102398,14.2,,,17.8686697,0,7.98,20.4117,22.8026,16,5,23.831,18.2686697,14.6,7.98,20.4117,-7.8,1.7,0.1,166.9, -6, -4,0,0,1024,1024,1024,1024,0,0,0,0,0,0,0,97,3.952,3.976,3.976,3.977,3.971,3.979,0,,17.8686697,14.2,14,Waypoint,
17300,2024-11-03 23:57:17,-23.4440037276107,151.917309881644,14.2,,,17.8686697,0,8.08,21.3304,23.7245,16,5,23.831,18.2686697,14.6,8.08,21.3304,-7.9,1.7,0.1,166.9, -3.9, -4.6,0,0,1024,1024,1024,1024,0,0,0,0,0,0,0,97,3.952,3.976,3.976,3.977,3.971,3.979,0,,17.8686697,14.2,14,Waypoint,
17400,2024-11-03 23:57:18,-23.4440125476802,151.917311667777,14.2,,,17.8686697,0,8.08,22.3259,24.7221,16,5,23.831,18.2686697,14.6,8.08,22.3259,-7.9,1.7,0.1,166.8, -2.2, -4.8,0,0,1024,1024,1024,1024,0,0,0,0,0,0,0,97,3.952,3.976,3.976,3.977,3.971,3.979,0,,17.8686697,14.2,14,Waypoint,
17500,2024-11-03 23:57:18,-23.4440207278364,151.917313459713,14.1,,,17.7686697,0,8.08,23.251,25.65,16,5,23.79,18.2686697,14.6,8.08,23.251,-7.9,1.7,0,166.8, 0, -4.7,0,0,1024,1024,1024,1024,0,0,0,0,0,0,0,97,3.95,3.963,3.971,3.969,3.961,3.976,0,,17.7686697,14.1,14,Waypoint,
17600,2024-11-03 23:57:18,-23.4440294663535,151.917315150195,14.1,,,17.7686697,0,8.08,24.2366,26.637,16,5,23.79,18.2686697,14.6,8.08,24.2366,-7.9,1.7,0,166.7, 1, -4.6,0,0,1024,1024,1024,1024,0,0,0,0,0,0,0,97,3.95,3.963,3.971,3.969,3.961,3.976,0,,17.7686697,14.1,14,Waypoint,
17700,2024-11-03 23:57:18,-23.4440375536494,151.91731682499,14.2,,,17.8686697,0,8.08,25.1503,27.5524,16,5,23.79,18.2686697,14.6,8.08,25.1503,-7.9,1.7,0,166.7, 1.6, -5.1,0,0,1024,1024,1024,1024,0,0,0,0,0,0,0,97,3.95,3.963,3.971,3.969,3.961,3.976,0,,17.8686697,14.2,14,Waypoint,
17800,2024-11-03 23:57:18,-23.4440462286702,151.91731857399,14.2,,,17.8686697,0,8.08,26.1299,28.5335,16,5,23.79,18.2686697,14.6,8.08,26.1299,-7.9,1.7,-0.1,166.6, 1.8, -5.6,0,0,1024,1024,1024,1024,0,0,0,0,0,0,0,97,3.95,3.963,3.971,3.969,3.961,3.976,0,,17.8686697,14.2,14,Waypoint,
17900,2024-11-03 23:57:18,-23.4440542716723,151.917320323312,14.2,,,17.8686697,0,8.08,27.04,29.4455,16,5,23.79,18.2686697,14.6,8.08,27.04,-7.9,1.7,0,166.6, 2.2, -6,0,0,1024,1024,1024,1024,0,0,0,0,0,0,0,97,3.95,3.963,3.971,3.969,3.961,3.976,0,,17.8686697,14.2,14,Waypoint,
18000,2024-11-03 23:57:18,-23.4440627522699,151.917322201806,14.2,,,17.8686697,0,7.98,28.0002,30.4079,16,5,23.79,18.2686697,14.6,8.08,28.0002,-7.8,1.7,-0.1,166.5, 2.2, -6.3,0,0,1024,1024,1024,1024,0,0,0,0,0,0,0,97,3.95,3.963,3.971,3.969,3.961,3.976,0,,17.8686697,14.2,14,Waypoint,
18100,2024-11-03 23:57:18,-23.4440706144757,151.917323995485,14.2,,,17.8686697,0,7.96,28.8912,31.3012,16,5,23.79,18.2686697,14.6,8.08,28.8912,-7.8,1.6,0,166.5, 2.6, -6.3,0,0,1024,1024,1024,1024,0,0,0,0,0,0,0,97,3.95,3.963,3.971,3.969,3.961,3.976,0,,17.8686697,14.2,14,Waypoint,
18200,2024-11-03 23:57:18,-23.4440790990077,151.917326010321,14.2,,,17.8686697,0,7.96,29.854,32.2669,16,5,23.79,18.2686697,14.6,8.08,29.854,-7.8,1.6,-0.1,166.5, 2.5, -6.1,0,0,1024,1024,1024,1024,0,0,0,0,0,0,0,97,3.95,3.963,3.971,3.969,3.961,3.976,0,,17.8686697,14.2,14,Waypoint,
18300,2024-11-03 23:57:18,-23.4440869640534,151.917327916476,14.2,,,17.8686697,0,7.98,30.7472,33.1629,16,5,23.79,18.2686697,14.6,8.08,30.7472,-7.8,1.7,-0.1,166.6, 3, -5.9,0,0,1024,1024,1024,1024,0,0,0,0,0,0,0,97,3.95,3.963,3.971,3.969,3.961,3.976,0,,17.8686697,14.2,14,Waypoint,
18400,2024-11-03 23:57:19,-23.4440951451737,151.917330044825,14.3,,,17.9686697,0,7.89,31.6786,34.0982,16,5,23.79,18.2686697,14.6,8.08,31.6786,-7.7,1.7,-0.1,166.5, 3.5, -5.4,0,0,1024,1024,1024,1024,0,0,0,0,0,0,0,97,3.95,3.963,3.971,3.969,3.961,3.976,0,,17.9686697,14.3,14,Waypoint,
18500,2024-11-03 23:57:19,-23.4441027313257,151.917331991913,14.3,,,17.9686697,0,7.89,32.5421,34.9649,16,5,23.79,18.2686697,14.6,8.08,32.5421,-7.7,1.7,0,166.5, 4.1, -5.3,0,0,1024,1024,1024,1024,0,0,0,0,0,0,0,97,3.95,3.963,3.971,3.969,3.961,3.976,0,,17.9686697,14.3,14,Waypoint,
18600,2024-11-03 23:57:19,-23.4441114097336,151.917334410203,14.3,,,17.9686697,0,7.89,33.533,35.961,16,5,23.724,18.2686697,14.6,8.08,33.533,-7.7,1.7,-0.1,166.5, 4.5, -4.9,0,0,1024,1024,1024,1024,0,0,0,0,0,0,0,97,3.933,3.963,3.96,3.951,3.957,3.96,0,,17.9686697,14.3,14,Waypoint,
18700,2024-11-03 23:57:19,-23.4441193410375,151.917336549255,14.3,,,17.9686697,0,7.79,34.4377,36.8696,16,5,23.724,18.2686697,14.6,8.08,34.4377,-7.6,1.7,-0.1,166.6, 5.3, -4.4,0,0,1024,1024,1024,1024,0,0,0,0,0,0,0,97,3.933,3.963,3.96,3.951,3.957,3.96,0,,17.9686697,14.3,14,Waypoint,
18800,2024-11-03 23:57:19,-23.4441279476637,151.917339122446,14.3,,,17.9686697,0,7.69,35.4237,37.8621,16,5,23.724,18.2686697,14.6,8.08,35.4237,-7.5,1.7,-0.1,166.5, 6.1, -4.1,0,0,1024,1024,1024,1024,0,0,0,0,0,0,0,97,3.933,3.963,3.96,3.951,3.957,3.96,0,,17.9686697,14.3,14,Waypoint,
18900,2024-11-03 23:57:19,-23.4441356709958,151.917341340338,14.3,,,17.9686697,0,7.59,36.3074,38.7503,16,5,23.724,18.2686697,14.6,8.08,36.3074,-7.4,1.7,-0.2,166.6, 6.9, -3.8,0,0,1024,1024,1024,1024,0,0,0,0,0,0,0,97,3.933,3.963,3.96,3.951,3.957,3.96,0,,17.9686697,14.3,14,Waypoint,
19000,2024-11-03 23:57:19,-23.4441437799955,151.917343876784,14.4,,,18.0686697,0,7.5,37.2387,39.6885,16,5,23.724,18.2686697,14.6,8.08,37.2387,-7.3,1.7,-0.2,166.6, 6.8, -3.5,0,0,1024,1024,1024,1024,0,0,0,0,0,0,0,97,3.933,3.963,3.96,3.951,3.957,3.96,0,,18.0686697,14.4,14,Waypoint,
19100,2024-11-03 23:57:19,-23.444151130453,151.917346025683,14.4,,,18.0686697,0,7.4,38.0808,40.5348,16,5,23.724,18.2686697,14.6,8.08,38.0808,-7.2,1.7,-0.1,166.7, 6.2, -3.6,0,0,1024,1024,1024,1024,0,0,0,0,0,0,0,97,3.933,3.963,3.96,3.951,3.957,3.96,0,,18.0686697,14.4,14,Waypoint,
19200,2024-11-03 23:57:19,-23.4441589372656,151.917348467019,14.4,,,18.0686697,0,7.4,38.978,41.438,16,5,23.724,18.2686697,14.6,8.08,38.978,-7.2,1.7,-0.1,166.8, 5.6, -3.1,0,0,1024,1024,1024,1024,0,0,0,0,0,0,0,97,3.933,3.963,3.96,3.951,3.957,3.96,0,,18.0686697,14.4,14,Waypoint,
19300,2024-11-03 23:57:19,-23.4441660889487,151.917350555755,14.5,,,18.1686697,0,7.28,39.7976,42.2613,16,5,23.724,18.2686697,14.6,8.08,39.7976,-7.1,1.6,-0.1,166.7, 5.4, -2.7,0,0,1024,1024,1024,1024,0,0,0,0,0,0,0,97,3.933,3.963,3.96,3.951,3.957,3.96,0,,18.1686697,14.5,14,Waypoint,
19400,2024-11-03 23:57:20,-23.4441737177008,151.917352892643,14.5,,,18.1686697,0,7.28,40.6739,43.1426,16,5,23.724,18.2686697,14.6,8.08,40.6739,-7.1,1.6,-0.1,166.8, 5.1, -2.6,0,0,1024,1024,1024,1024,0,0,0,0,0,0,0,97,3.933,3.963,3.96,3.951,3.957,3.96,0,,18.1686697,14.5,14,Waypoint,
19500,2024-11-03 23:57:20,-23.4441807320735,151.917354896231,14.5,,,18.1686697,0,7.18,41.4774,43.9489,16,5,23.724,18.2686697,14.6,8.08,41.4774,-7,1.6,0,166.7, 5, -2.2,0,0,1024,1024,1024,1024,0,0,0,0,0,0,0,97,3.933,3.963,3.96,3.951,3.957,3.96,0,,18.1686697,14.5,14,Waypoint,
19600,2024-11-03 23:57:20,-23.4441881671319,151.917357236499,14.5,,,18.1686697,0,7.08,42.3329,44.8095,16,5,23.778,18.2686697,14.6,8.08,42.3329,-6.9,1.6,0,166.7, 4.8, -1.7,0,0,1024,1024,1024,1024,0,0,0,0,0,0,0,97,3.939,3.965,3.975,3.965,3.963,3.971,0,,18.1686697,14.5,14,Waypoint,
19700,2024-11-03 23:57:20,-23.4441950055024,151.917359240522,14.5,,,18.1686697,0,7.08,43.1173,45.597,16,5,23.778,18.2686697,14.6,8.08,43.1173,-6.9,1.6,-0.1,166.8, 4.8, -1.2,0,0,1024,1024,1024,1024,0,0,0,0,0,0,0,97,3.939,3.965,3.975,3.965,3.963,3.971,0,,18.1686697,14.5,14,Waypoint,
19800,2024-11-03 23:57:20,-23.4442024220877,151.917361552156,14.5,,,18.1686697,0,6.96,43.9707,46.4548,16,5,23.778,18.2686697,14.6,8.08,43.9707,-6.8,1.5,-0.1,166.8, 4.2, -1,0,0,1024,1024,1024,1024,0,0,0,0,0,0,0,97,3.939,3.965,3.975,3.965,3.963,3.971,0,,18.1686697,14.5,14,Waypoint,
19900,2024-11-03 23:57:20,-23.4442092044397,151.917363460321,14.5,,,18.1686697,0,6.87,44.7475,47.2338,16,5,23.778,18.2686697,14.6,8.08,44.7475,-6.7,1.5,-0.1,166.8, 3.8, -0.6,0,0,1024,1024,1024,1024,0,0,0,0,0,0,0,97,3.939,3.965,3.975,3.965,3.963,3.971,0,,18.1686697,14.5,14,Waypoint,
20000,2024-11-03 23:57:20,-23.4442164254815,151.917365692168,14.5,,,18.1686697,0,6.84,45.5783,48.0685,16,5,23.778,18.2686697,14.6,8.08,45.5783,-6.7,1.4,-0.1,166.8, 3.5, -0.2,0,0,1024,1024,1024,1024,0,0,0,0,0,0,0,97,3.939,3.965,3.975,3.965,3.963,3.971,0,,18.1686697,14.5,14,Waypoint,
20100,2024-11-03 23:57:20,-23.4442230804761,151.917367555339,14.5,,,18.1686697,0,6.84,46.3405,48.8326,16,5,23.778,18.2686697,14.6,8.08,46.3405,-6.7,1.4,0,166.8, 3.4, 0,0,0,1024,1024,1024,1024,0,0,0,0,0,0,0,97,3.939,3.965,3.975,3.965,3.963,3.971,0,,18.1686697,14.5,14,Waypoint,
20200,2024-11-03 23:57:20,-23.4442299811965,151.917369559394,14.6,,,18.2686697,0,6.84,47.1322,49.6268,16,5,23.778,18.2686697,14.6,8.08,47.1322,-6.7,1.4,0,166.8, 3, 0.2,0,0,1024,1024,1024,1024,0,0,0,0,0,0,0,97,3.939,3.965,3.975,3.965,3.963,3.971,0,,18.2686697,14.6,14,Waypoint,
20300,2024-11-03 23:57:20,-23.4442364262912,151.917371233138,14.6,,,18.2686697,0,6.82,47.8681,50.3636,16,5,23.778,18.2686697,14.6,8.08,47.8681,-6.7,1.3,0,166.7, 2.9, 0.1,0,0,1024,1024,1024,1024,0,0,0,0,0,0,0,97,3.939,3.965,3.975,3.965,3.963,3.971,0,,18.2686697,14.6,14,Waypoint,
20400,2024-11-03 23:57:21,-23.4442431894406,151.917373128926,14.6,,,18.2686697,0,6.82,48.6429,51.1401,15,5,23.778,18.2686697,14.6,8.08,48.6429,-6.7,1.3,0,166.7, 2.9, 0,0,0,1024,1024,1024,1024,0,0,0,0,0,0,0,97,3.939,3.965,3.975,3.965,3.963,3.971,0,,18.2686697,14.6,14,Waypoint,
20500,2024-11-03 23:57:21,-23.4442495818519,151.917374752484,14.6,,,18.2686697,0,6.82,49.3721,51.8701,15,5,23.778,18.2686697,14.6,8.08,49.3721,-6.6,1.3,0,166.8, 3, -0.1,0,0,1024,1024,1024,1024,0,0,0,0,0,0,0,97,3.939,3.965,3.975,3.965,3.963,3.971,0,,18.2686697,14.6,14,Waypoint,
20600,2024-11-03 23:57:21,-23.4442563315308,151.917376535662,14.6,,,18.2686697,0,6.71,50.1434,52.6424,15,5,23.903,18.2686697,14.6,8.08,50.1434,-6.6,1.2,0,166.8, 2.7, 0.1,0,0,1024,1024,1024,1024,0,0,0,0,0,0,0,97,3.967,3.993,3.994,3.971,3.981,3.997,0,,18.2686697,14.6,14,Waypoint,
20700,2024-11-03 23:57:21,-23.4442627053909,151.917377996555,14.6,,,18.2686697,0,6.59,50.8675,53.3667,15,5,23.903,18.2686697,14.6,8.08,50.8675,-6.5,1.1,0,166.8, 2.4, 0,0,0,1024,1024,1024,1024,0,0,0,0,0,0,0,97,3.967,3.993,3.994,3.971,3.981,3.997,0,,18.2686697,14.6,14,Waypoint,
20800,2024-11-03 23:57:21,-23.4442692489739,151.917379563395,14.6,,,18.2686697,0,6.59,51.6123,54.1117,16,5,23.903,18.2686697,14.6,8.08,51.6123,-6.5,1.1,0,166.8, 2, -0.3,0,0,1024,1024,1024,1024,0,0,0,0,0,0,0,97,3.967,3.993,3.994,3.971,3.981,3.997,0,,18.2686697,14.6,14,Waypoint,
20900,2024-11-03 23:57:21,-23.4442753963109,151.917380878272,14.5,,,18.1686697,0,6.48,52.3089,54.8084,16,5,23.903,18.2686697,14.6,8.08,52.3089,-6.4,1,0,166.8, 1.7, -0.4,0,0,1024,1024,1024,1024,0,0,0,0,0,0,0,97,3.967,3.993,3.994,3.971,3.981,3.997,0,,18.1686697,14.5,14,Waypoint,
21000,2024-11-03 23:57:21,-23.4442816422925,151.917382324,14.5,,,18.1686697,0,6.38,53.0188,55.5185,16,5,23.903,18.2686697,14.6,8.08,53.0188,-6.3,1,0,166.9, 0.9, -0.6,0,0,1024,1024,1024,1024,0,0,0,0,0,0,0,97,3.967,3.993,3.994,3.971,3.981,3.997,0,,18.1686697,14.5,14,Waypoint,
21100,2024-11-03 23:57:21,-23.4442876066706,151.917383553904,14.5,,,18.1686697,0,6.38,53.6938,56.1935,16,5,23.903,18.2686697,14.6,8.08,53.6938,-6.3,1,0,166.9, 0, -0.5,0,0,1024,1024,1024,1024,0,0,0,0,0,0,0,97,3.967,3.993,3.994,3.971,3.981,3.997,0,,18.1686697,14.5,14,Waypoint,
21200,2024-11-03 23:57:21,-23.4442936060667,151.917384854653,14.5,,,18.1686697,0,6.36,54.3741,56.8738,15,5,23.903,18.2686697,14.6,8.08,54.3741,-6.3,0.9,0,166.9, -0.8, -0.6,0,0,1024,1024,1024,1024,0,0,0,0,0,0,0,97,3.967,3.993,3.994,3.971,3.981,3.997,0,,18.1686697,14.5,14,Waypoint,
21300,2024-11-03 23:57:21,-23.444299415469,151.917385960438,14.5,,,18.1686697,0,6.36,55.0298,57.5296,15,5,23.903,18.2686697,14.6,8.08,55.0298,-6.3,0.9,0,166.9, -1.7, -0.8,0,0,1024,1024,1024,1024,0,0,0,0,0,0,0,97,3.967,3.993,3.994,3.971,3.981,3.997,0,,18.1686697,14.5,14,Waypoint,
21400,2024-11-03 23:57:21,-23.4443053815667,151.917387170087,14.5,,,18.1686697,0,6.35,55.7047,58.2044,15,5,23.903,18.2686697,14.6,8.08,55.7047,-6.3,0.8,0,166.9, -2.6, -1.1,0,0,1024,1024,1024,1024,0,0,0,0,0,0,0,97,3.967,3.993,3.994,3.971,3.981,3.997,0,,18.1686697,14.5,14,Waypoint,
21500,2024-11-03 23:57:22,-23.4443112269772,151.91738816703,14.5,,,18.1686697,0,6.35,56.3623,58.8624,15,5,23.903,18.2686697,14.6,8.08,56.3623,-6.3,0.8,0,166.9, -3.4, -1.7,0,0,1024,1024,1024,1024,0,0,0,0,0,0,0,97,3.967,3.993,3.994,3.971,3.981,3.997,0,,18.1686697,14.5,14,Waypoint,
21600,2024-11-03 23:57:22,-23.4443170779113,151.917389249349,14.5,,,18.1686697,0,6.35,57.0221,59.5223,16,5,24.061,18.2686697,14.6,8.08,57.0221,-6.3,0.8,0,166.9, -4.2, -2.5,0,0,1024,1024,1024,1024,0,0,0,0,0,0,0,97,3.99,4.016,4,4.021,3.993,4.041,0,,18.1686697,14.5,14,Waypoint,
21700,2024-11-03 23:57:22,-23.4443228589657,151.917390243099,14.5,,,18.1686697,0,6.46,57.6727,60.1732,16,5,24.061,18.2686697,14.6,8.08,57.6727,-6.4,0.9,0,166.9, -4.6, -2.8,0,0,1024,1024,1024,1024,0,0,0,0,0,0,0,97,3.99,4.016,4,4.021,3.993,4.041,0,,18.1686697,14.5,14,Waypoint,
