time(millisecond),datetime(utc),latitude,longitude,height_above_takeoff(meters),height_above_ground_at_drone_location(meters),ground_elevation_at_drone_location(meters),altitude_above_seaLevel(meters),height_sonar(meters),speed(m/s),distance(meters),mileage(meters),satellites,gpslevel,voltage(v),max_altitude(meters),max_ascent(meters),max_speed(m/s),max_distance(meters), xSpeed(m/s), ySpeed(m/s), zSpeed(m/s), compass_heading(degrees), pitch(degrees), roll(degrees),isPhoto,isVideo,rc_elevator,rc_aileron,rc_throttle,rc_rudder,rc_elevator(percent),rc_aileron(percent),rc_throttle(percent),rc_rudder(percent),gimbal_heading(degrees),gimbal_pitch(degrees),gimbal_roll(degrees),battery_percent,voltageCell1,voltageCell2,voltageCell3,voltageCell4,voltageCell5,voltageCell6,current(A),battery_temperature(c),altitude(meters),ascent(meters),flycStateRaw,flycState,message
0,2024-11-03 23:38:15,-23.4438318203733,151.917294482134,0,Available with any HD 360 subscription,Available with any HD 360 subscription,3.4801013,0,0,0,0,13,4,0,3.4801013,0,0,0,0,0,0,79, 0.8, 1,0,0,1024,1024,1024,1024,0,0,0,0,0,0,0,99,4.33,4.338,4.339,4.349,4.35,4.347,0,,3.4801013,0,41,Motors_Started,
100,2024-11-03 23:38:15,-23.4438318200095,151.917294481191,0,,,3.4801013,0,0,0.00010438,0.00010438,13,4,0,3.4801013,0,0,0.00010438,0,0,0,79.2, 0.8, 1,0,0,1024,1024,1024,1024,0,0,0,0,0,0,0,99,4.33,4.338,4.339,4.349,4.35,4.347,0,,3.4801013,0,41,Motors_Started,
200,2024-11-03 23:38:15,-23.4438318198351,151.917294480857,0,,,3.4801013,0,0,0.000143399,0.000143602,13,4,0,3.4801013,0,0,0.000143399,0,0,0,79.4, 0.8, 1,0,0,1024,1024,1024,1024,0,0,0,0,0,0,0,99,4.33,4.338,4.339,4.349,4.35,4.347,0,,3.4801013,0,41,Motors_Started,"Setting new Return-To-Home altitude to 40m (131 ft). Data Recorder File Index is 358. Setting new Maximum Flight Altitude to 120m (394 ft)"
300,2024-11-03 23:38:15,-23.4438318197555,151.917294480554,0,,,3.4801013,0,0,0.000175216,0.00017572,13,4,0,3.4801013,0,0,0.000175216,0,0,0,79.5, 0.8, 1,0,0,1024,1024,1024,1024,0,0,0,0,0,0,0,99,4.33,4.338,4.339,4.349,4.35,4.347,0,,3.4801013,0,41,Motors_Started,
400,2024-11-03 23:38:15,-23.4438318186879,151.91729448093,0,,,3.4801013,0,0,0.000224131,0.000300469,13,4,0,3.4801013,0,0,0.000224131,0,0,0,79.6, 0.8, 1,0,0,1024,1024,1024,1024,0,0,0,0,0,0,0,99,4.33,4.338,4.339,4.349,4.35,4.347,0,,3.4801013,0,41,Motors_Started,
500,2024-11-03 23:38:15,-23.443831817221,151.917294480203,0,,,3.4801013,0,0,0.000402142,0.000479655,13,4,0,3.4801013,0,0,0.000402142,0,0,0,79.8, 0.8, 1,0,0,1024,1024,1024,1024,0,0,0,0,0,0,0,99,4.33,4.338,4.339,4.349,4.35,4.347,0,,3.4801013,0,41,Motors_Started,
600,2024-11-03 23:38:15,-23.4438318138105,151.917294479728,0,,,3.4801013,0,0,0.000769992,0.000862005,13,4,0,3.4801013,0,0,0.000769992,0,0,0,79.8, 0.8, 1,0,0,1024,1024,1024,1024,0,0,0,0,0,0,0,99,4.33,4.338,4.339,4.349,4.35,4.347,0,,3.4801013,0,41,Motors_Started,
700,2024-11-03 23:38:15,-23.4438318107816,151.917294479386,0,,,3.4801013,0,0,0.0011029,0.00120065,13,4,0,3.4801013,0,0,0.0011029,0,0,0,79.9, 0.8, 1,0,0,1024,1024,1024,1024,0,0,0,0,0,0,0,99,4.33,4.338,4.339,4.349,4.35,4.347,0,,3.4801013,0,41,Motors_Started,
800,2024-11-03 23:38:15,-23.4438318062274,151.917294479576,0,,,3.4801013,0,0,0.00159462,0.00170747,13,4,0,3.4801013,0,0,0.00159462,0,0,0,79.9, 0.8, 1,0,0,1024,1024,1024,1024,0,0,0,0,0,0,0,99,4.33,4.338,4.339,4.349,4.35,4.347,0,,3.4801013,0,41,Motors_Started,
900,2024-11-03 23:38:16,-23.4438318028867,151.9172944793,0,,,3.4801013,0,0,0.00196601,0.00208005,13,4,0,3.4801013,0,0,0.00196601,0,0,0,80, 0.8, 1,0,0,1024,1024,1024,1024,0,0,0,0,0,0,0,99,4.33,4.338,4.339,4.349,4.35,4.347,0,,3.4801013,0,41,Motors_Started,
1000,2024-11-03 23:38:16,-23.4438318254807,151.917294478893,0,,,3.4801013,0,0,0.000657224,0.00459298,13,4,26.053,3.4801013,0,0,0.00196601,0,0,0,80, 0.8, 1,0,0,1024,1024,1024,1024,0,0,0,0,0,0,0,99,4.33,4.338,4.339,4.349,4.35,4.347,0,,3.4801013,0,41,Motors_Started,
1100,2024-11-03 23:38:16,-23.443831852609,151.917294478295,0,,,3.4801013,0,0,0.00360614,0.00761043,13,4,26.053,3.4801013,0,0,0.00360614,0,0,0,80.1, 0.8, 1,0,0,1024,1024,1024,1024,0,0,0,0,0,0,0,99,4.33,4.338,4.339,4.349,4.35,4.347,0,,3.4801013,0,41,Motors_Started,
1200,2024-11-03 23:38:16,-23.443831859905,151.91729447851,0,,,3.4801013,0,0,0.00441169,0.00842209,13,4,26.053,3.4801013,0,0,0.00441169,0,0,0,80.1, 0.8, 1,0,0,1024,1024,1024,1024,0,0,0,0,0,0,0,99,4.33,4.338,4.339,4.349,4.35,4.347,0,,3.4801013,0,41,Motors_Started,
1300,2024-11-03 23:38:16,-23.4438318471254,151.917294478541,0,,,3.4801013,0,0,0.00299749,0.00984326,13,4,26.053,3.4801013,0,0,0.00441169,0,0,0,80.1, 0.8, 1,0,0,1024,1024,1024,1024,0,0,0,0,0,0,0,99,4.33,4.338,4.339,4.349,4.35,4.347,0,,3.4801013,0,41,Motors_Started,
1400,2024-11-03 23:38:16,-23.4438318283645,151.917294478558,0,,,3.4801013,0,0,0.000960662,0.0119296,13,4,26.053,3.4801013,0,0,0.00441169,0,0,0,80.1, 0.8, 1,0,0,1024,1024,1024,1024,0,0,0,0,0,0,0,99,4.33,4.338,4.339,4.349,4.35,4.347,0,,3.4801013,0,41,Motors_Started,
1500,2024-11-03 23:38:16,-23.4438318182579,151.917294477924,0,,,3.4801013,0,0,0.000489718,0.0130554,13,4,26.053,3.4801013,0,0,0.00441169,0,0,0,80.2, 0.8, 1,0,0,1024,1024,1024,1024,0,0,0,0,0,0,0,99,4.33,4.338,4.339,4.349,4.35,4.347,0,,3.4801013,0,41,Motors_Started,
1600,2024-11-03 23:38:16,-23.4438318058303,151.917294478016,0,,,3.4801013,0,0,0.00167097,0.0144374,13,4,26.053,3.4801013,0,0,0.00441169,0,0,0,80.2, 0.8, 1,0,0,1024,1024,1024,1024,0,0,0,0,0,0,0,99,4.33,4.338,4.339,4.349,4.35,4.347,0,,3.4801013,0,41,Motors_Started,
1700,2024-11-03 23:38:16,-23.4438317996709,151.917294477713,0,,,3.4801013,0,0,0.002346,0.0151231,13,4,26.053,3.4801013,0,0,0.00441169,0,0,0,80.2, 0.8, 1,0,0,1024,1024,1024,1024,0,0,0,0,0,0,0,99,4.33,4.338,4.339,4.349,4.35,4.347,0,,3.4801013,0,41,Motors_Started,
1800,2024-11-03 23:38:16,-23.4438318182415,151.917294477477,0,,,3.4801013,0,0,0.000530966,0.0171884,13,4,26.053,3.4801013,0,0,0.00441169,0,0,0,80.2, 0.8, 1,0,0,1024,1024,1024,1024,0,0,0,0,0,0,0,99,4.33,4.338,4.339,4.349,4.35,4.347,0,,3.4801013,0,41,Motors_Started,
1900,2024-11-03 23:38:17,-23.443831845088,151.917294477201,0,,,3.4801013,0,0,0.00279413,0.020174,13,4,26.053,3.4801013,0,0,0.00441169,0,0,0,80.2, 0.9, 1.1,0,0,1024,1024,1024,1024,0,0,0,0,0,0,0,99,4.33,4.338,4.339,4.349,4.35,4.347,0,,3.4801013,0,41,Motors_Started,
2000,2024-11-03 23:38:17,-23.4438318805099,151.91729447816,0,,,3.4801013,0,0,0.00669984,0.0241144,13,4,26.053,3.4801013,0,0,0.00669984,0,0,0,80.2, 0.9, 1.1,0,0,1024,1024,1024,1024,0,0,0,0,0,0,0,99,4.33,4.338,4.339,4.349,4.35,4.347,0,,3.4801013,0,41,Motors_Started,
2100,2024-11-03 23:38:17,-23.4438318987049,151.917294479385,0,,,3.4801013,0,0,0.00871547,0.0261416,13,4,26.048,3.4801013,0,0,0.00871547,0,0,0,80.3, 0.9, 1.1,0,0,1024,1024,1024,1024,0,0,0,0,0,0,0,99,4.329,4.338,4.338,4.348,4.349,4.346,0,,3.4801013,0,11,AutoTakeoff,
2200,2024-11-03 23:38:17,-23.443831890924,151.917294481799,0,,,3.4801013,0,0,0.00784574,0.0270413,13,4,26.048,3.4801013,0,0,0.00871547,0,0,0,80.2, 0.9, 1.1,0,0,1024,1024,1024,1024,0,0,0,0,0,0,0,99,4.329,4.338,4.338,4.348,4.349,4.346,0,,3.4801013,0,11,AutoTakeoff,
2300,2024-11-03 23:38:17,-23.4438318734321,151.917294483486,0,,,3.4801013,0,0,0.00590207,0.0289941,13,4,26.048,3.4801013,0,0,0.00871547,0,0,0,80.3, 0.9, 1.1,0,0,1024,1024,1024,1024,0,0,0,0,0,0,0,99,4.329,4.338,4.338,4.348,4.349,4.346,0,,3.4801013,0,11,AutoTakeoff,
2400,2024-11-03 23:38:17,-23.4438318459938,151.917294485594,0,,,3.4801013,0,0,0.00287094,0.0320529,13,4,26.048,3.4801013,0,0,0.00871547,0,0,0,80.4, 0.9, 1.1,0,0,1024,1024,1024,1024,0,0,0,0,0,0,0,99,4.329,4.338,4.338,4.348,4.349,4.346,0,,3.4801013,0,11,AutoTakeoff,
2500,2024-11-03 23:38:17,-23.4438318331694,151.917294484378,0,,,3.4801013,0,0,0.00144131,0.0334845,13,4,26.048,3.4801013,0,0,0.00871547,0,0,0,80.5, 1, 1.1,0,0,1024,1024,1024,1024,0,0,0,0,0,0,0,99,4.329,4.338,4.338,4.348,4.349,4.346,0,,3.4801013,0,11,AutoTakeoff,
2600,2024-11-03 23:38:17,-23.4438318160469,151.917294478001,0,,,3.4801013,0,0,0.000639744,0.0354967,13,4,26.048,3.4801013,0,0,0.00871547,0,0,0,80.6, 1.1, 1.1,0,0,1024,1024,1024,1024,0,0,0,0,0,0,0,99,4.329,4.338,4.338,4.348,4.349,4.346,0,,3.4801013,0,11,AutoTakeoff,
2700,2024-11-03 23:38:17,-23.443831811241,151.917294471882,0,,,3.4801013,0,0,0.00145787,0.0363185,13,4,26.048,3.4801013,0,0,0.00871547,0,0,0,80.7, 1.1, 1,0,0,1024,1024,1024,1024,0,0,0,0,0,0,0,99,4.329,4.338,4.338,4.348,4.349,4.346,0,,3.4801013,0,11,AutoTakeoff,
2800,2024-11-03 23:38:17,-23.4438318035502,151.917294468252,0,,,3.4801013,0,0,0.00234649,0.0372505,13,4,26.048,3.4801013,0,0,0.00871547,0,0,0,80.8, 1.1, 1,0,0,1024,1024,1024,1024,0,0,0,0,0,0,0,99,4.329,4.338,4.338,4.348,4.349,4.346,0,,3.4801013,0,11,AutoTakeoff,
2900,2024-11-03 23:38:17,-23.4438318029038,151.917294460879,0,,,3.4801013,0,0,0.00291154,0.0380062,13,4,26.048,3.4801013,0,0,0.00871547,0,0,0,80.9, 1.2, 1,0,0,1024,1024,1024,1024,0,0,0,0,0,0,0,99,4.329,4.338,4.338,4.348,4.349,4.346,0,,3.4801013,0,11,AutoTakeoff,
3000,2024-11-03 23:38:18,-23.4438317982515,151.917294436429,0,,,3.4801013,0,0,0.00527225,0.0405538,13,4,26.048,3.4801013,0,0,0.00871547,0,0,0,81, 1.4, 0.9,0,0,1024,1024,1024,1024,0,0,0,0,0,0,0,99,4.329,4.338,4.338,4.348,4.349,4.346,0,,3.4801013,0,11,AutoTakeoff,
3100,2024-11-03 23:38:18,-23.4438317989306,151.917294384314,0,,,3.4801013,0,0,0.0102611,0.0458714,13,4,26.034,3.4801013,0,0,0.0102611,0,0,0,81.1, 1.8, 0.8,0,0,1024,1024,1024,1024,0,0,0,0,0,0,0,99,4.327,4.335,4.336,4.346,4.347,4.343,0,,3.4801013,0,11,AutoTakeoff,
3200,2024-11-03 23:38:18,-23.4438317922362,151.91729427683,0,,,3.4801013,0,0.1,0.0211788,0.0568628,13,4,26.034,3.4801013,0,0.1,0.0211788,0,-0.1,0,81.3, 2.4, 0.5,0,0,1024,1024,1024,1024,0,0,0,0,0,0,0,99,4.327,4.335,4.336,4.346,4.347,4.343,0,,3.4801013,0,11,AutoTakeoff,
3300,2024-11-03 23:38:18,-23.4438317976927,151.917294116568,0,,,3.4801013,0,0.1,0.0373825,0.073225,13,4,26.034,3.4801013,0,0.1,0.0373825,0,-0.1,0,81.6, 2.8, 0.4,0,0,1024,1024,1024,1024,0,0,0,0,0,0,0,99,4.327,4.335,4.336,4.346,4.347,4.343,0,,3.4801013,0,11,AutoTakeoff,
3400,2024-11-03 23:38:18,-23.4438318174743,151.91729389167,0,,,3.4801013,0,0.2,0.0602436,0.0962757,13,4,26.034,3.4801013,0,0.2,0.0602436,0,-0.2,-0.1,81.8, 3.2, -0.1,0,0,1024,1024,1024,1024,0,0,0,0,0,0,0,99,4.327,4.335,4.336,4.346,4.347,4.343,0,,3.4801013,0,11,AutoTakeoff,
3500,2024-11-03 23:38:18,-23.4438318446774,151.91729361371,0,,,3.4801013,0,0.2,0.0886431,0.124796,13,4,26.034,3.4801013,0,0.2,0.0886431,0,-0.2,-0.2,81.9, 2.9, -0.9,0,0,1024,1024,1024,1024,0,0,0,0,0,0,0,99,4.327,4.335,4.336,4.346,4.347,4.343,0,,3.4801013,0,11,AutoTakeoff,
3600,2024-11-03 23:38:18,-23.4438318613101,151.917293215726,0,,,3.4801013,0,0.3,0.129287,0.165443,13,4,26.034,3.4801013,0,0.3,0.129287,0,-0.3,-0.5,81.9, 2.2, -1.2,0,0,1024,1024,1024,1024,0,0,0,0,0,0,0,99,4.327,4.335,4.336,4.346,4.347,4.343,0,,3.4801013,0,11,AutoTakeoff,
3700,2024-11-03 23:38:18,-23.4438318788033,151.917292759075,0.1,,,3.5801013,0,0.4,0.175917,0.212074,13,4,26.034,3.5801013,0.1,0.4,0.175917,0,-0.4,-0.6,81.8, 1.4, -0.9,0,0,1024,1024,1024,1024,0,0,0,0,0,0,0,99,4.327,4.335,4.336,4.346,4.347,4.343,0,,3.5801013,0.1,11,AutoTakeoff,
3900,2024-11-03 23:38:18,-23.4438318366237,151.917291661107,0.2,,,3.6801013,0,0.4,0.287824,0.324193,13,4,26.034,3.6801013,0.2,0.4,0.287824,0,-0.4,-0.6,81.7, -0.2, -0.1,0,0,1024,1024,1024,1024,0,0,0,0,0,0,0,99,4.327,4.335,4.336,4.346,4.347,4.343,0,,3.6801013,0.2,11,AutoTakeoff,
4000,2024-11-03 23:38:19,-23.4438317736348,151.917291060777,0.3,,,3.7801013,0,0.5,0.349106,0.385842,13,4,26.034,3.7801013,0.3,0.5,0.349106,0,-0.5,-0.6,81.6, -1.1, 0.3,0,0,1024,1024,1024,1024,0,0,0,0,0,0,0,99,4.327,4.335,4.336,4.346,4.347,4.343,0,,3.7801013,0.3,11,AutoTakeoff,
4100,2024-11-03 23:38:19,-23.4438317244643,151.917290504912,0.4,,,3.8801013,0,0.4,0.405921,0.442817,13,4,26.034,3.8801013,0.4,0.5,0.405921,0,-0.4,-0.7,81.6, -1.9, 0.2,0,0,1024,1024,1024,1024,0,0,0,0,0,0,0,99,4.327,4.335,4.336,4.346,4.347,4.343,0,,3.8801013,0.4,11,AutoTakeoff,
4200,2024-11-03 23:38:19,-23.4438316331654,151.917289944538,0.5,,,3.9801013,0,0.4,0.463421,0.500885,13,4,25.619,3.9801013,0.5,0.5,0.463421,0,-0.4,-0.7,81.6, -2.2, 0.1,0,0,1024,1024,1024,1024,0,0,0,0,0,0,0,99,4.265,4.321,4.275,4.251,4.23,4.277,0,,3.9801013,0.5,11,AutoTakeoff,
4300,2024-11-03 23:38:19,-23.4438315675896,151.917289437424,0.5,,,3.9801013,0,0.4,0.515459,0.553135,13,4,25.619,3.9801013,0.5,0.5,0.515459,0,-0.4,-0.7,81.7, -2.3, 0,0,0,1024,1024,1024,1024,0,0,0,0,0,0,0,99,4.265,4.321,4.275,4.251,4.23,4.277,0,,3.9801013,0.5,11,AutoTakeoff,
4400,2024-11-03 23:38:19,-23.4438314588838,151.917288950667,0.6,,,4.0801013,0,0.4,0.565784,0.604247,13,4,25.619,4.0801013,0.6,0.5,0.565784,0,-0.4,-0.6,81.7, -2.2, -0.1,0,0,1024,1024,1024,1024,0,0,0,0,0,0,0,99,4.265,4.321,4.275,4.251,4.23,4.277,0,,4.0801013,0.6,11,AutoTakeoff,
4500,2024-11-03 23:38:19,-23.4438313783366,151.917288496061,0.7,,,4.1801013,0,0.4,0.612711,0.651486,13,4,25.619,4.1801013,0.7,0.5,0.612711,0,-0.4,-0.6,81.7, -2.2, 0,0,0,1024,1024,1024,1024,0,0,0,0,0,0,0,99,4.265,4.321,4.275,4.251,4.23,4.277,0,,4.1801013,0.7,11,AutoTakeoff,
4600,2024-11-03 23:38:19,-23.4438312742512,151.917288125363,0.7,,,4.1801013,0,0.4,0.651394,0.691038,13,4,25.619,4.1801013,0.7,0.5,0.651394,0,-0.4,-0.5,81.7, -2.3, 0.6,0,0,1024,1024,1024,1024,0,0,0,0,0,0,0,99,4.265,4.321,4.275,4.251,4.23,4.277,0,,4.1801013,0.7,11,AutoTakeoff,
4700,2024-11-03 23:38:19,-23.4438312009638,151.917287777681,0.8,,,4.2801013,0,0.3,0.687489,0.727435,13,4,25.619,4.2801013,0.8,0.5,0.687489,0,-0.3,-0.5,81.7, -2.3, 1.1,0,0,1024,1024,1024,1024,0,0,0,0,0,0,0,99,4.265,4.321,4.275,4.251,4.23,4.277,0,,4.2801013,0.8,11,AutoTakeoff,
4800,2024-11-03 23:38:19,-23.4438311215465,151.91728749154,0.9,,,4.3801013,0,0.3,0.717444,0.757935,13,4,25.619,4.3801013,0.9,0.5,0.717444,0,-0.3,-0.5,81.6, -2.5, 1.2,0,0,1024,1024,1024,1024,0,0,0,0,0,0,0,99,4.265,4.321,4.275,4.251,4.23,4.277,0,,4.3801013,0.9,11,AutoTakeoff,
4900,2024-11-03 23:38:20,-23.4438310725967,151.917287193794,0.9,,,4.3801013,0,0.3,0.748236,0.788797,13,4,25.619,4.3801013,0.9,0.5,0.748236,0,-0.3,-0.4,81.6, -2.7, 1.2,0,0,1024,1024,1024,1024,0,0,0,0,0,0,0,99,4.265,4.321,4.275,4.251,4.23,4.277,0,,4.3801013,0.9,11,AutoTakeoff,
5000,2024-11-03 23:38:20,-23.4438310505347,151.917286903325,0.9,,,4.3801013,0,0.3,0.777961,0.818534,13,4,25.619,4.3801013,0.9,0.5,0.777961,0,-0.3,-0.4,81.6, -2.8, 1.1,0,0,1024,1024,1024,1024,0,0,0,0,0,0,0,99,4.265,4.321,4.275,4.251,4.23,4.277,0,,4.3801013,0.9,11,AutoTakeoff,
5100,2024-11-03 23:38:20,-23.4438310565216,151.917286597389,1,,,4.4801013,0,0.3,0.808922,0.849755,13,4,24.544,4.4801013,1,0.5,0.808922,0,-0.3,-0.4,81.6, -2.6, 1,0,0,1024,1024,1024,1024,0,0,0,0,0,0,0,99,4.097,4.104,4.09,4.097,4.067,4.089,0,,4.4801013,1,11,AutoTakeoff,
5200,2024-11-03 23:38:20,-23.4438310977968,151.91728631503,1,,,4.4801013,0,0.2,0.837123,0.878926,13,4,24.544,4.4801013,1,0.5,0.837123,0,-0.2,-0.4,81.6, -2.5, 0.7,0,0,1024,1024,1024,1024,0,0,0,0,0,0,0,99,4.097,4.104,4.09,4.097,4.067,4.089,0,,4.4801013,1,6,P-GPS,
5300,2024-11-03 23:38:20,-23.4438311440552,151.917286049123,1.1,,,4.5801013,0,0.3,0.863668,0.906539,13,4,24.544,4.5801013,1.1,0.5,0.863668,0,-0.3,-0.3,81.6, -2.5, 0.6,0,0,1024,1024,1024,1024,0,0,0,0,0,0,0,99,4.097,4.104,4.09,4.097,4.067,4.089,0,,4.5801013,1.1,14,Waypoint,
5400,2024-11-03 23:38:20,-23.4438311865588,151.917285799802,1.1,,,4.5801013,0,0.2,0.888624,0.932411,13,4,24.544,4.5801013,1.1,0.5,0.888624,0,-0.2,-0.2,81.6, -2.5, 0.5,0,0,1024,1024,1024,1024,0,0,0,0,0,0,0,99,4.097,4.104,4.09,4.097,4.067,4.089,0,,4.5801013,1.1,14,Waypoint,
5500,2024-11-03 23:38:20,-23.4438312131393,151.917285567494,1.1,,,4.5801013,0,0.2,0.912029,0.956297,13,4,24.544,4.5801013,1.1,0.5,0.912029,0,-0.2,-0.2,81.6, -2.4, 0.3,0,0,1024,1024,1024,1024,0,0,0,0,0,0,0,99,4.097,4.104,4.09,4.097,4.067,4.089,0,,4.5801013,1.1,14,Waypoint,
5600,2024-11-03 23:38:20,-23.4438312594324,151.917285291384,1.2,,,4.6801013,0,0.2,0.939769,0.984933,13,4,24.544,4.6801013,1.2,0.5,0.939769,0,-0.2,-0.3,81.6, -2.2, 0.2,0,0,1024,1024,1024,1024,0,0,0,0,0,0,0,99,4.097,4.104,4.09,4.097,4.067,4.089,0,,4.6801013,1.2,14,Waypoint,
5700,2024-11-03 23:38:20,-23.4438313121741,151.917285023304,1.2,,,4.6801013,0,0.2,0.966701,1.01291,13,4,24.544,4.6801013,1.2,0.5,0.966701,0,-0.2,-0.4,81.6, -2.2, 0.1,0,0,1024,1024,1024,1024,0,0,0,0,0,0,0,99,4.097,4.104,4.09,4.097,4.067,4.089,0,,4.6801013,1.2,14,Waypoint,
5800,2024-11-03 23:38:20,-23.4438313534051,151.917284769577,1.3,,,4.7801013,0,0.2,0.992294,1.0392,13,4,24.544,4.7801013,1.3,0.5,0.992294,0,-0.2,-0.5,81.6, -1.9, 0.2,0,0,1024,1024,1024,1024,0,0,0,0,0,0,0,99,4.097,4.104,4.09,4.097,4.067,4.089,0,,4.7801013,1.3,14,Waypoint,
5900,2024-11-03 23:38:21,-23.4438313722796,151.917284571802,1.3,,,4.7801013,0,0.1,1.01234,1.05948,13,4,24.544,4.7801013,1.3,0.5,1.01234,0,-0.1,-0.6,81.6, -1.8, 0.3,0,0,1024,1024,1024,1024,0,0,0,0,0,0,0,99,4.097,4.104,4.09,4.097,4.067,4.089,0,,4.7801013,1.3,14,Waypoint,
6000,2024-11-03 23:38:21,-23.4438313958653,151.917284380793,1.4,,,4.8801013,0,0.1,1.03168,1.07915,13,4,24.544,4.8801013,1.4,0.5,1.03168,0,-0.1,-0.8,81.7, -2, 0.1,0,0,1024,1024,1024,1024,0,0,0,0,0,0,0,99,4.097,4.104,4.09,4.097,4.067,4.089,0,,4.8801013,1.4,14,Waypoint,
6100,2024-11-03 23:38:21,-23.4438314272008,151.917284212342,1.5,,,4.9801013,0,0.1,1.0487,1.09668,13,4,24.544,4.9801013,1.5,0.5,1.0487,0,-0.1,-1,81.7, -1.6, 0.1,0,0,1024,1024,1024,1024,0,0,0,0,0,0,0,99,4.097,4.104,4.09,4.097,4.067,4.089,0,,4.9801013,1.5,14,Waypoint,
6200,2024-11-03 23:38:21,-23.4438314438994,151.917284018085,1.7,,,5.1801013,0,0.1,1.06843,1.11659,12,4,24.544,5.1801013,1.7,0.5,1.06843,0,-0.1,-1.3,81.8, -1.5, 0.1,0,0,1024,1024,1024,1024,0,0,0,0,0,0,0,99,4.097,4.104,4.09,4.097,4.067,4.089,0,,5.1801013,1.7,14,Waypoint,
6300,2024-11-03 23:38:21,-23.443831455169,151.917283843041,1.8,,,5.2801013,0,0.1,1.08622,1.13449,12,4,24.544,5.2801013,1.8,0.5,1.08622,0,-0.1,-1.5,81.7, -1.5, -0.1,0,0,1024,1024,1024,1024,0,0,0,0,0,0,0,99,4.097,4.104,4.09,4.097,4.067,4.089,0,,5.2801013,1.8,14,Waypoint,
6400,2024-11-03 23:38:21,-23.443831483653,151.917283588937,2,,,5.4801013,0,0.1,1.11202,1.16061,12,4,24.544,5.4801013,2,0.5,1.11202,0,-0.1,-1.8,81.7, -1.4, 0.1,0,0,1024,1024,1024,1024,0,0,0,0,0,0,0,99,4.097,4.104,4.09,4.097,4.067,4.089,0,,5.4801013,2,14,Waypoint,
6500,2024-11-03 23:38:21,-23.4438315348999,151.917283354321,2.2,,,5.6801013,0,0.1,1.13577,1.18522,12,4,24.544,5.6801013,2.2,0.5,1.13577,0,-0.1,-2,81.7, -1.8, -0.1,0,0,1024,1024,1024,1024,0,0,0,0,0,0,0,99,4.097,4.104,4.09,4.097,4.067,4.089,0,,5.6801013,2.2,14,Waypoint,
6600,2024-11-03 23:38:21,-23.4438316054325,151.917283034791,2.4,,,5.8801013,0,0.1,1.16817,1.21875,12,4,24.544,5.8801013,2.4,0.5,1.16817,0,-0.1,-2.2,81.9, -2.4, -0.2,0,0,1024,1024,1024,1024,0,0,0,0,0,0,0,99,4.097,4.104,4.09,4.097,4.067,4.089,0,,5.8801013,2.4,14,Waypoint,
6700,2024-11-03 23:38:21,-23.4438316823383,151.917282795741,2.7,,,6.1801013,0,0.1,1.19242,1.24459,12,4,24.544,6.1801013,2.7,0.5,1.19242,0,-0.1,-2.5,82, -2.8, -0.3,0,0,1024,1024,1024,1024,0,0,0,0,0,0,0,99,4.097,4.104,4.09,4.097,4.067,4.089,0,,6.1801013,2.7,14,Waypoint,
6800,2024-11-03 23:38:21,-23.4438318066498,151.91728249537,3,,,6.4801013,0,0.14,1.22296,1.27821,12,4,24.544,6.4801013,3,0.5,1.22296,-0.1,-0.1,-2.7,81.9, -2.7, 0.5,0,0,1024,1024,1024,1024,0,0,0,0,0,0,0,99,4.097,4.104,4.09,4.097,4.067,4.089,0,,6.4801013,3,14,Waypoint,
6900,2024-11-03 23:38:22,-23.4438319359193,151.917282296078,3.3,,,6.7801013,0,0.14,1.24336,1.30311,12,4,24.544,6.7801013,3.3,0.5,1.24336,-0.1,-0.1,-2.9,81.8, -2.5, 1,0,0,1024,1024,1024,1024,0,0,0,0,0,0,0,99,4.097,4.104,4.09,4.097,4.067,4.089,0,,6.7801013,3.3,14,Waypoint,
7000,2024-11-03 23:38:22,-23.4438320877758,151.917282120534,3.6,,,7.0801013,0,0.14,1.26156,1.32773,13,4,24.544,7.0801013,3.6,0.5,1.26156,-0.1,-0.1,-3,81.8, -2.8, 1.2,0,0,1024,1024,1024,1024,0,0,0,0,0,0,0,99,4.097,4.104,4.09,4.097,4.067,4.089,0,,7.0801013,3.6,14,Waypoint,
7100,2024-11-03 23:38:22,-23.4438322343785,151.917282049201,3.9,,,7.3801013,0,0.14,1.26932,1.34558,13,4,24.544,7.3801013,3.9,0.5,1.26932,-0.1,-0.1,-3.1,81.8, -3.4, 1.2,0,0,1024,1024,1024,1024,0,0,0,0,0,0,0,99,4.097,4.104,4.09,4.097,4.067,4.089,0,,7.3801013,3.9,14,Waypoint,
7200,2024-11-03 23:38:22,-23.4438324320101,151.917282038048,4.2,,,7.6801013,0,0.14,1.27144,1.36759,13,4,24.388,7.6801013,4.2,0.5,1.27144,-0.1,-0.1,-3.2,81.8, -4.2, 0.7,0,0,1024,1024,1024,1024,0,0,0,0,0,0,0,99,4.05,4.061,4.072,4.071,4.059,4.075,0,,7.6801013,4.2,14,Waypoint,
7300,2024-11-03 23:38:22,-23.4438326501304,151.917282088342,4.6,,,8.0801013,0,0.1,1.26785,1.39238,13,4,24.388,8.0801013,4.6,0.5,1.27144,-0.1,0,-3.1,81.8, -4.8, 0,0,0,1024,1024,1024,1024,0,0,0,0,0,0,0,99,4.05,4.061,4.072,4.071,4.059,4.075,0,,8.0801013,4.6,14,Waypoint,
7400,2024-11-03 23:38:22,-23.4438329264908,151.917282212969,4.9,,,8.3801013,0,0.1,1.2578,1.42564,13,4,24.388,8.3801013,4.9,0.5,1.27144,-0.1,0,-3.1,81.9, -4.7, -0.7,0,0,1024,1024,1024,1024,0,0,0,0,0,0,0,99,4.05,4.061,4.072,4.071,4.059,4.075,0,,8.3801013,4.9,14,Waypoint,
7500,2024-11-03 23:38:22,-23.4438331946776,151.917282359152,5.2,,,8.6801013,0,0.1,1.24627,1.45899,13,4,24.388,8.6801013,5.2,0.5,1.27144,-0.1,0,-3.1,81.8, -4.4, -1.3,0,0,1024,1024,1024,1024,0,0,0,0,0,0,0,99,4.05,4.061,4.072,4.071,4.059,4.075,0,,8.6801013,5.2,14,Waypoint,
7600,2024-11-03 23:38:22,-23.4438334219195,151.917282489653,5.5,,,8.9801013,0,0.1,1.23644,1.48755,13,4,24.388,8.9801013,5.5,0.5,1.27144,-0.1,0,-3,81.7, -4.1, -1.8,0,0,1024,1024,1024,1024,0,0,0,0,0,0,0,99,4.05,4.061,4.072,4.071,4.059,4.075,0,,8.9801013,5.5,14,Waypoint,
7700,2024-11-03 23:38:22,-23.4438336008918,151.9172826037,5.8,,,9.2801013,0,0,1.22798,1.51061,13,4,24.388,9.2801013,5.8,0.5,1.27144,0,0,-3,81.7, -3.9, -2.5,0,0,1024,1024,1024,1024,0,0,0,0,0,0,0,99,4.05,4.061,4.072,4.071,4.059,4.075,0,,9.2801013,5.8,14,Waypoint,
7800,2024-11-03 23:38:22,-23.4438337500511,151.917282733926,6.1,,,9.5801013,0,0,1.21768,1.53186,13,4,24.388,9.5801013,6.1,0.5,1.27144,0,0,-3,81.7, -3.8, -2.7,0,0,1024,1024,1024,1024,0,0,0,0,0,0,0,99,4.05,4.061,4.072,4.071,4.059,4.075,0,,9.5801013,6.1,14,Waypoint,
7900,2024-11-03 23:38:23,-23.44383387658,151.917282891027,6.4,,,9.8801013,0,0,1.2045,1.55319,13,4,24.388,9.8801013,6.4,0.5,1.27144,0,0,-3,81.7, -3.6, -2.5,0,0,1024,1024,1024,1024,0,0,0,0,0,0,0,99,4.05,4.061,4.072,4.071,4.059,4.075,0,,9.8801013,6.4,14,Waypoint,
8000,2024-11-03 23:38:23,-23.4438339525026,151.9172830352,6.7,,,10.1801013,0,0,1.19171,1.57015,13,4,24.388,10.1801013,6.7,0.5,1.27144,0,0,-2.9,81.8, -3.7, -2.2,0,0,1024,1024,1024,1024,0,0,0,0,0,0,0,99,4.05,4.061,4.072,4.071,4.059,4.075,0,,10.1801013,6.7,14,Waypoint,
8100,2024-11-03 23:38:23,-23.4438340074898,151.917283219279,7,,,10.4801013,0,0,1.17456,1.5899,13,4,24.388,10.4801013,7,0.5,1.27144,0,0,-3,81.8, -3.5, -1.6,0,0,1024,1024,1024,1024,0,0,0,0,0,0,0,99,4.05,4.061,4.072,4.071,4.059,4.075,0,,10.4801013,7,14,Waypoint,
8200,2024-11-03 23:38:23,-23.4438339740273,151.917283452657,7.3,,,10.7801013,0,0,1.1505,1.614,15,4,23.529,10.7801013,7.3,0.5,1.27144,0,0,-2.9,81.7, -3.4, -1.1,0,0,1024,1024,1024,1024,0,0,0,0,0,0,0,98,3.93,3.935,3.917,3.919,3.904,3.924,0,,10.7801013,7.3,14,Waypoint,
8300,2024-11-03 23:38:23,-23.4438339398316,151.917283692014,7.6,,,11.0801013,0,0,1.12582,1.63871,15,4,23.529,11.0801013,7.6,0.5,1.27144,0,0,-3,81.7, -3, -0.7,0,0,1024,1024,1024,1024,0,0,0,0,0,0,0,98,3.93,3.935,3.917,3.919,3.904,3.924,0,,11.0801013,7.6,14,Waypoint,
8400,2024-11-03 23:38:23,-23.4438338962602,151.917283936374,7.9,,,11.3801013,0,0,1.10043,1.66411,15,4,23.529,11.3801013,7.9,0.5,1.27144,0,0,-3,81.7, -2.9, -0.6,0,0,1024,1024,1024,1024,0,0,0,0,0,0,0,98,3.93,3.935,3.917,3.919,3.904,3.924,0,,11.3801013,7.9,14,Waypoint,
8500,2024-11-03 23:38:23,-23.4438338991702,151.917284163723,8.2,,,11.6801013,0,0,1.07783,1.68731,15,4,23.529,11.6801013,8.2,0.5,1.27144,0,0,-3,81.7, -2.6, -0.4,0,0,1024,1024,1024,1024,0,0,0,0,0,0,0,98,3.93,3.935,3.917,3.919,3.904,3.924,0,,11.6801013,8.2,14,Waypoint,
8600,2024-11-03 23:38:23,-23.4438339079854,151.917284403985,8.5,,,11.9801013,0,0,1.05412,1.71184,16,4,23.529,11.9801013,8.5,0.5,1.27144,0,0,-3,81.7, -2.4, -0.6,0,0,1024,1024,1024,1024,0,0,0,0,0,0,0,98,3.93,3.935,3.917,3.919,3.904,3.924,0,,11.9801013,8.5,14,Waypoint,
8700,2024-11-03 23:38:23,-23.4438339293082,151.917284649449,8.9,,,12.3801013,0,0.1,1.03024,1.737,16,4,23.529,12.3801013,8.9,0.5,1.27144,0,0.1,-3,81.7, -2.2, -0.8,0,0,1024,1024,1024,1024,0,0,0,0,0,0,0,98,3.93,3.935,3.917,3.919,3.904,3.924,0,,12.3801013,8.9,14,Waypoint,
8800,2024-11-03 23:38:23,-23.4438339592862,151.917284908945,9.2,,,12.6801013,0,0.1,1.00526,1.76368,16,4,23.529,12.6801013,9.2,0.5,1.27144,0,0.1,-3,81.7, -2, -0.9,0,0,1024,1024,1024,1024,0,0,0,0,0,0,0,98,3.93,3.935,3.917,3.919,3.904,3.924,0,,12.6801013,9.2,14,Waypoint,
8900,2024-11-03 23:38:24,-23.4438339979158,151.917285145228,9.5,,,12.9801013,0,0,0.982905,1.78817,16,4,23.529,12.9801013,9.5,0.5,1.27144,0,0,-3.1,81.8, -2, -1.3,0,0,1024,1024,1024,1024,0,0,0,0,0,0,0,98,3.93,3.935,3.917,3.919,3.904,3.924,0,,12.9801013,9.5,14,Waypoint,
9000,2024-11-03 23:38:24,-23.4438340232287,151.917285355752,9.8,,,13.2801013,0,0,0.962815,1.80983,16,4,23.529,13.2801013,9.8,0.5,1.27144,0,0,-3.1,81.7, -2.1, -1.5,0,0,1024,1024,1024,1024,0,0,0,0,0,0,0,98,3.93,3.935,3.917,3.919,3.904,3.924,0,,13.2801013,9.8,14,Waypoint,
9100,2024-11-03 23:38:24,-23.4438340526865,151.917285524827,10.1,,,13.5801013,0,0,0.946996,1.82739,16,4,23.529,13.5801013,10.1,0.5,1.27144,0,0,-3.1,81.7, -2.3, -1.6,0,0,1024,1024,1024,1024,0,0,0,0,0,0,0,98,3.93,3.935,3.917,3.919,3.904,3.924,0,,13.5801013,10.1,14,Waypoint,
9200,2024-11-03 23:38:24,-23.4438340525428,151.917285694886,10.4,,,13.8801013,0,0,0.930259,1.84474,16,4,23.529,13.8801013,10.4,0.5,1.27144,0,0,-3,81.7, -2.6, -2,0,0,1024,1024,1024,1024,0,0,0,0,0,0,0,98,3.93,3.935,3.917,3.919,3.904,3.924,0,,13.8801013,10.4,14,Waypoint,
9300,2024-11-03 23:38:24,-23.4438340525708,151.917285862833,10.7,,,14.1801013,0,0,0.913758,1.86187,16,4,23.529,14.1801013,10.7,0.5,1.27144,0,0,-2.8,81.7, -2.9, -2.3,0,0,1024,1024,1024,1024,0,0,0,0,0,0,0,98,3.93,3.935,3.917,3.919,3.904,3.924,0,,14.1801013,10.7,14,Waypoint,
9400,2024-11-03 23:38:24,-23.4438339898802,151.91728603138,11,,,14.4801013,0,0,0.895317,1.88043,16,4,23.529,14.4801013,11,0.5,1.27144,0,0,-2.7,81.7, -3, -2.5,0,0,1024,1024,1024,1024,0,0,0,0,0,0,0,98,3.93,3.935,3.917,3.919,3.904,3.924,0,,14.4801013,11,14,Waypoint,
9500,2024-11-03 23:38:24,-23.4438339155776,151.91728619228,11.2,,,14.6801013,0,0.1,0.877288,1.89881,16,4,23.529,14.6801013,11.2,0.5,1.27144,0,0.1,-2.5,81.7, -3.1, -2.8,0,0,1024,1024,1024,1024,0,0,0,0,0,0,0,98,3.93,3.935,3.917,3.919,3.904,3.924,0,,14.6801013,11.2,14,Waypoint,
9600,2024-11-03 23:38:24,-23.4438337773284,151.917286363179,11.5,,,14.9801013,0,0,0.856456,1.92206,16,4,23.529,14.9801013,11.5,0.5,1.27144,0,0,-2.4,81.6, -2.7, -2.7,0,0,1024,1024,1024,1024,0,0,0,0,0,0,0,98,3.93,3.935,3.917,3.919,3.904,3.924,0,,14.9801013,11.5,14,Waypoint,
9700,2024-11-03 23:38:24,-23.443833657308,151.917286503368,11.7,,,15.1801013,0,0.1,0.839282,1.94162,16,4,23.529,15.1801013,11.7,0.5,1.27144,0,0.1,-2.3,81.6, -2.6, -2.8,0,0,1024,1024,1024,1024,0,0,0,0,0,0,0,98,3.93,3.935,3.917,3.919,3.904,3.924,0,,15.1801013,11.7,14,Waypoint,
9800,2024-11-03 23:38:24,-23.4438334418718,151.917286639054,11.9,,,15.3801013,0,0.1,0.820264,1.96929,16,4,23.529,15.3801013,11.9,0.5,1.27144,0,0.1,-2.2,81.6, -2.4, -2.5,0,0,1024,1024,1024,1024,0,0,0,0,0,0,0,98,3.93,3.935,3.917,3.919,3.904,3.924,0,,15.3801013,11.9,14,Waypoint,
9900,2024-11-03 23:38:25,-23.4438332364769,151.917286745195,12.1,,,15.5801013,0,0.1,0.804925,1.99457,16,4,23.529,15.5801013,12.1,0.5,1.27144,0.1,0,-2.1,81.6, -2, -2.4,0,0,1024,1024,1024,1024,0,0,0,0,0,0,0,98,3.93,3.935,3.917,3.919,3.904,3.924,0,,15.5801013,12.1,14,Waypoint,
10000,2024-11-03 23:38:25,-23.4438329816173,151.917286858481,12.3,,,15.7801013,0,0.1,0.788459,2.02517,16,4,23.529,15.7801013,12.3,0.5,1.27144,0.1,0,-1.9,81.6, -1.9, -2.1,0,0,1024,1024,1024,1024,0,0,0,0,0,0,0,98,3.93,3.935,3.917,3.919,3.904,3.924,0,,15.7801013,12.3,14,Waypoint,
10200,2024-11-03 23:38:25,-23.4438325153877,151.917287042291,12.7,,,16.1801013,0,0.1,0.762983,2.08031,16,4,23.529,16.1801013,12.7,0.5,1.27144,0.1,0,-1.7,81.6, -1.5, -1.6,0,0,1024,1024,1024,1024,0,0,0,0,0,0,0,98,3.93,3.935,3.917,3.919,3.904,3.924,0,,16.1801013,12.7,14,Waypoint,
10300,2024-11-03 23:38:25,-23.4438322771073,151.917287094718,12.8,,,16.2801013,0,0.1,0.755419,2.10734,16,4,23.529,16.2801013,12.8,0.5,1.27144,0.1,0,-1.6,81.6, -1.5, -1.2,0,0,1024,1024,1024,1024,0,0,0,0,0,0,0,98,3.93,3.935,3.917,3.919,3.904,3.924,0,,16.2801013,12.8,14,Waypoint,
10400,2024-11-03 23:38:25,-23.4438319233423,151.917287139511,13,,,16.4801013,0,0.1,0.749227,2.14695,16,4,23.529,16.4801013,13,0.5,1.27144,0.1,0,-1.6,81.6, -1.4, -1,0,0,1024,1024,1024,1024,0,0,0,0,0,0,0,98,3.93,3.935,3.917,3.919,3.904,3.924,0,,16.4801013,13,14,Waypoint,
10500,2024-11-03 23:38:25,-23.4438316089576,151.917287127552,13.2,,,16.6801013,0,0.1,0.750728,2.18193,16,4,23.529,16.6801013,13.2,0.5,1.27144,0.1,0,-1.4,81.6, -1.3, -0.7,0,0,1024,1024,1024,1024,0,0,0,0,0,0,0,98,3.93,3.935,3.917,3.919,3.904,3.924,0,,16.6801013,13.2,14,Waypoint,
10600,2024-11-03 23:38:25,-23.4438312446498,151.917287152693,13.3,,,16.7801013,0,0.1,0.75053,2.22252,16,4,23.529,16.7801013,13.3,0.5,1.27144,0.1,0,-1.4,81.6, -1.3, -0.3,0,0,1024,1024,1024,1024,0,0,0,0,0,0,0,98,3.93,3.935,3.917,3.919,3.904,3.924,0,,16.7801013,13.3,14,Waypoint,
10700,2024-11-03 23:38:25,-23.4438309703594,151.917287153069,13.5,,,16.9801013,0,0.1,0.753707,2.25303,16,4,23.529,16.9801013,13.5,0.5,1.27144,0.1,0,-1.4,81.7, -1.2, 0,0,0,1024,1024,1024,1024,0,0,0,0,0,0,0,98,3.93,3.935,3.917,3.919,3.904,3.924,0,,16.9801013,13.5,14,Waypoint,
10800,2024-11-03 23:38:26,-23.4438307277916,151.917287177164,13.6,,,17.0801013,0,0.1,0.755137,2.28011,16,4,23.766,17.0801013,13.6,0.5,1.27144,0.1,0,-1.3,81.7, -1.3, 0.6,0,0,1024,1024,1024,1024,0,0,0,0,0,0,0,98,3.925,3.958,3.978,3.966,3.967,3.972,0,,17.0801013,13.6,14,Waypoint,
10900,2024-11-03 23:38:26,-23.4438305838912,151.917287140294,13.8,,,17.2801013,0,0,0.761575,2.29655,16,4,23.766,17.2801013,13.8,0.5,1.27144,0,0,-1.3,81.7, -1.3, 0.8,0,0,1024,1024,1024,1024,0,0,0,0,0,0,0,98,3.925,3.958,3.978,3.966,3.967,3.972,0,,17.2801013,13.8,14,Waypoint,
11000,2024-11-03 23:38:26,-23.4438304726752,151.917287134407,13.9,,,17.3801013,0,0,0.764494,2.30894,16,4,23.766,17.3801013,13.9,0.5,1.27144,0,0,-1.2,81.7, -1.6, 0.6,0,0,1024,1024,1024,1024,0,0,0,0,0,0,0,98,3.925,3.958,3.978,3.966,3.967,3.972,0,,17.3801013,13.9,14,Waypoint,
11100,2024-11-03 23:38:26,-23.4438303984706,151.917287078575,14,,,17.4801013,0,0,0.771729,2.31896,16,4,23.766,17.4801013,14,0.5,1.27144,0,0,-1.1,81.6, -1.9, 0.4,0,0,1024,1024,1024,1024,0,0,0,0,0,0,0,98,3.925,3.958,3.978,3.966,3.967,3.972,0,,17.4801013,14,14,Waypoint,
11200,2024-11-03 23:38:26,-23.4438303433412,151.917287057926,14.1,,,17.5801013,0,0,0.775068,2.32545,16,4,23.766,17.5801013,14.1,0.5,1.27144,0,0,-1.1,81.7, -2, 0,0,0,1024,1024,1024,1024,0,0,0,0,0,0,0,98,3.925,3.958,3.978,3.966,3.967,3.972,0,,17.5801013,14.1,14,Waypoint,
11300,2024-11-03 23:38:26,-23.4438303257885,151.917286974247,14.3,,,17.7801013,0,0.1,0.783825,2.3342,16,4,23.766,17.7801013,14.3,0.5,1.27144,0,-0.1,-1,81.6, -2.2, 0,0,0,1024,1024,1024,1024,0,0,0,0,0,0,0,98,3.925,3.958,3.978,3.966,3.967,3.972,0,,17.7801013,14.3,14,Waypoint,
11400,2024-11-03 23:38:26,-23.4438303448413,151.917286937074,14.4,,,17.8801013,0,0.1,0.787087,2.33855,16,4,23.766,17.8801013,14.4,0.5,1.27144,0,-0.1,-0.9,81.6, -2.4, -0.1,0,0,1024,1024,1024,1024,0,0,0,0,0,0,0,98,3.925,3.958,3.978,3.966,3.967,3.972,0,,17.8801013,14.4,14,Waypoint,
11500,2024-11-03 23:38:26,-23.4438303953553,151.917286846419,14.4,,,17.8801013,0,0.1,0.794997,2.34937,16,4,23.766,17.8801013,14.4,0.5,1.27144,0,-0.1,-0.8,83.2, -2.4, -0.4,0,0,1024,1024,1024,1024,0,0,0,0,0,0,0,98,3.925,3.958,3.978,3.966,3.967,3.972,0,,17.8801013,14.4,14,Waypoint,
11600,2024-11-03 23:38:26,-23.4438304319198,151.917286787892,14.5,,,17.9801013,0,0.1,0.800054,2.35659,16,4,23.766,17.9801013,14.5,0.5,1.27144,0,-0.1,-0.6,87.2, -1.6, -0.6,0,0,1024,1024,1024,1024,0,0,0,0,0,0,0,98,3.925,3.958,3.978,3.966,3.967,3.972,0,,17.9801013,14.5,14,Waypoint,
11700,2024-11-03 23:38:26,-23.4438304735969,151.917286657649,14.6,,,18.0801013,0,0.1,0.812229,2.37067,16,4,23.766,18.0801013,14.6,0.5,1.27144,0,-0.1,-0.4,93.2, -1.2, -1.3,0,0,1024,1024,1024,1024,0,0,0,0,0,0,0,98,3.925,3.958,3.978,3.966,3.967,3.972,0,,18.0801013,14.6,14,Waypoint,
11800,2024-11-03 23:38:27,-23.4438305582847,151.917286535259,14.6,,,18.0801013,0,0.1,0.822847,2.38631,16,4,23.766,18.0801013,14.6,0.5,1.27144,0,-0.1,-0.2,101.1, -1.1, -1.9,0,0,1024,1024,1024,1024,0,0,0,0,0,0,0,98,3.925,3.958,3.978,3.966,3.967,3.972,0,,18.0801013,14.6,14,Waypoint,
11900,2024-11-03 23:38:27,-23.4438306719076,151.917286339776,14.6,,,18.0801013,0,0.1,0.840493,2.40992,16,4,23.766,18.0801013,14.6,0.5,1.27144,0,-0.2,-0.1,110.8, -1.2, -2.5,0,0,1024,1024,1024,1024,0,0,0,0,0,0,0,98,3.925,3.958,3.978,3.966,3.967,3.972,0,,18.0801013,14.6,14,Waypoint,
12000,2024-11-03 23:38:27,-23.4438308027878,151.917286160793,14.6,,,18.0801013,0,0.1,0.856502,2.43327,16,4,23.766,18.0801013,14.6,0.5,1.27144,0,-0.1,0,120.4, -2.4, -3.3,0,0,1024,1024,1024,1024,0,0,0,0,0,0,0,98,3.925,3.958,3.978,3.966,3.967,3.972,0,,18.0801013,14.6,14,Waypoint,
12100,2024-11-03 23:38:27,-23.443830921528,151.91728595594,14.6,,,18.0801013,0,0.1,0.875618,2.45799,16,4,23.766,18.0801013,14.6,0.5,1.27144,0,-0.1,0,130.1, -3.7, -3.7,0,0,1024,1024,1024,1024,0,0,0,0,0,0,0,98,3.925,3.958,3.978,3.966,3.967,3.972,0,,18.0801013,14.6,14,Waypoint,
12200,2024-11-03 23:38:27,-23.4438310813572,151.917285831482,14.6,,,18.0801013,0,0.14,0.88641,2.47983,15,4,23.766,18.0801013,14.6,0.5,1.27144,-0.1,-0.1,0,139.6, -4.4, -3.6,0,0,1024,1024,1024,1024,0,0,0,0,0,0,0,97,3.925,3.958,3.978,3.966,3.967,3.972,0,,18.0801013,14.6,14,Waypoint,
12300,2024-11-03 23:38:27,-23.4438312727187,151.917285724474,14.7,,,18.1801013,0,0.1,0.895583,2.50375,15,4,23.766,18.1801013,14.7,0.5,1.27144,-0.1,0,0,147.5, -4.8, -2.6,0,0,1024,1024,1024,1024,0,0,0,0,0,0,0,97,3.925,3.958,3.978,3.966,3.967,3.972,0,,18.1801013,14.7,14,Waypoint,
12400,2024-11-03 23:38:27,-23.4438315035486,151.917285684374,14.7,,,18.1801013,0,0.2,0.898292,2.52975,15,4,23.766,18.1801013,14.7,0.5,1.27144,-0.2,0,0,153, -4.8, -1.2,0,0,1024,1024,1024,1024,0,0,0,0,0,0,0,97,3.925,3.958,3.978,3.966,3.967,3.972,0,,18.1801013,14.7,14,Waypoint,
12500,2024-11-03 23:38:27,-23.4438317948208,151.917285632167,14.7,,,18.1801013,0,0.2,0.902932,2.56257,15,4,23.766,18.1801013,14.7,0.5,1.27144,-0.3,0,0,156.5, -4, -0.4,0,0,1024,1024,1024,1024,0,0,0,0,0,0,0,97,3.925,3.958,3.978,3.966,3.967,3.972,0,,18.1801013,14.7,14,Waypoint,
12600,2024-11-03 23:38:27,-23.4438321118841,151.917285624931,14.7,,,18.1801013,0,0.3,0.904247,2.59784,15,4,23.766,18.1801013,14.7,0.5,1.27144,-0.3,0,0,158.4, -2.7, -0.5,0,0,1024,1024,1024,1024,0,0,0,0,0,0,0,97,3.925,3.958,3.978,3.966,3.967,3.972,0,,18.1801013,14.7,14,Waypoint,
12700,2024-11-03 23:38:27,-23.4438324935277,151.917285584437,14.7,,,18.1801013,0,0.4,0.910879,2.64048,15,4,23.766,18.1801013,14.7,0.5,1.27144,-0.4,0,0,159.1, -2.5, -0.6,0,0,1024,1024,1024,1024,0,0,0,0,0,0,0,97,3.925,3.958,3.978,3.966,3.967,3.972,0,,18.1801013,14.7,14,Waypoint,
12800,2024-11-03 23:38:27,-23.4438329126755,151.917285595709,14.7,,,18.1801013,0,0.5,0.914748,2.68711,15,4,23.766,18.1801013,14.7,0.5,1.27144,-0.5,0,0,159.3, -3, -0.9,0,0,1024,1024,1024,1024,0,0,0,0,0,0,0,97,3.925,3.958,3.978,3.966,3.967,3.972,0,,18.1801013,14.7,14,Waypoint,
12900,2024-11-03 23:38:28,-23.4438334108094,151.917285579748,14.7,,,18.1801013,0,0.6,0.925336,2.74253,15,4,23.766,18.1801013,14.7,0.6,1.27144,-0.6,0,0,159.5, -3.9, -1.8,0,0,1024,1024,1024,1024,0,0,0,0,0,0,0,97,3.925,3.958,3.978,3.966,3.967,3.972,0,,18.1801013,14.7,14,Waypoint,
13000,2024-11-03 23:38:28,-23.4438340209961,151.917285594084,14.7,,,18.1801013,0,0.6,0.939254,2.8104,16,4,23.766,18.1801013,14.7,0.6,1.27144,-0.6,0,0,159.7, -5.1, -2.6,0,0,1024,1024,1024,1024,0,0,0,0,0,0,0,97,3.925,3.958,3.978,3.966,3.967,3.972,0,,18.1801013,14.7,14,Waypoint,
13100,2024-11-03 23:38:28,-23.443834754841,151.917285586866,14.7,,,18.1801013,0,0.8,0.964436,2.89201,16,4,23.766,18.1801013,14.7,0.8,1.27144,-0.8,0,0,160, -6.4, -3.2,0,0,1024,1024,1024,1024,0,0,0,0,0,0,0,97,3.925,3.958,3.978,3.966,3.967,3.972,0,,18.1801013,14.7,14,Waypoint,
13200,2024-11-03 23:38:28,-23.4438356405537,151.917285597769,14.7,,,18.1801013,0,0.9,1.00105,2.99051,16,5,24.107,18.1801013,14.7,0.9,1.27144,-0.9,0,0,160.1, -7.6, -3.4,0,0,1024,1024,1024,1024,0,0,0,0,0,0,0,97,3.995,4.001,4.033,4.034,4.024,4.02,0,,18.1801013,14.7,14,Waypoint,
13300,2024-11-03 23:38:28,-23.443836599728,151.917285616376,14.7,,,18.1801013,0,1,1.04913,3.0972,16,5,24.107,18.1801013,14.7,1,1.27144,-1,0,0,160.2, -8.4, -3.9,0,0,1024,1024,1024,1024,0,0,0,0,0,0,0,97,3.995,4.001,4.033,4.034,4.024,4.02,0,,18.1801013,14.7,14,Waypoint,
13400,2024-11-03 23:38:28,-23.4438378061607,151.9172856783,14.8,,,18.2801013,0,1.2,1.11799,3.23151,16,5,24.107,18.2801013,14.8,1.2,1.27144,-1.2,0.1,0,160.2, -9.1, -3.9,0,0,1024,1024,1024,1024,0,0,0,0,0,0,0,97,3.995,4.001,4.033,4.034,4.024,4.02,0,,18.2801013,14.8,14,Waypoint,
13500,2024-11-03 23:38:28,-23.4438391202971,151.917285806437,14.8,,,18.2801013,0,1.32,1.20104,3.37823,16,5,24.107,18.2801013,14.8,1.32,1.27144,-1.3,0.2,0,160.3, -9.4, -4.2,0,0,1024,1024,1024,1024,0,0,0,0,0,0,0,97,3.995,4.001,4.033,4.034,4.024,4.02,0,,18.2801013,14.8,14,Waypoint,
13600,2024-11-03 23:38:28,-23.4438407235385,151.917286026267,14.8,,,18.2801013,0,1.53,1.31322,3.55793,16,5,24.107,18.2801013,14.8,1.53,1.31322,-1.5,0.3,0,160.2, -9.9, -3.9,0,0,1024,1024,1024,1024,0,0,0,0,0,0,0,97,3.995,4.001,4.033,4.034,4.024,4.02,0,,18.2801013,14.8,14,Waypoint,
13700,2024-11-03 23:38:28,-23.4438423849609,151.917286341079,14.8,,,18.2801013,0,1.63,1.43881,3.74546,16,5,24.107,18.2801013,14.8,1.63,1.43881,-1.6,0.3,0,160.2, -10.2, -4.2,0,0,1024,1024,1024,1024,0,0,0,0,0,0,0,97,3.995,4.001,4.033,4.034,4.024,4.02,0,,18.2801013,14.8,14,Waypoint,
13800,2024-11-03 23:38:28,-23.443844335012,151.917286694747,14.8,,,18.2801013,0,1.84,1.60253,3.9653,16,5,24.107,18.2801013,14.8,1.84,1.60253,-1.8,0.4,0,160.2, -10.4, -4.5,0,0,1024,1024,1024,1024,0,0,0,0,0,0,0,97,3.995,4.001,4.033,4.034,4.024,4.02,0,,18.2801013,14.8,14,Waypoint,
13900,2024-11-03 23:38:29,-23.4438463025339,151.917287104471,14.8,,,18.2801013,0,2.04,1.77772,4.18805,16,5,24.107,18.2801013,14.8,2.04,1.77772,-2,0.4,0.1,160.2, -10.5, -4.8,0,0,1024,1024,1024,1024,0,0,0,0,0,0,0,97,3.995,4.001,4.033,4.034,4.024,4.02,0,,18.2801013,14.8,14,Waypoint,
14000,2024-11-03 23:38:29,-23.4438486245599,151.917287542206,14.8,,,18.2801013,0,2.16,1.99837,4.45011,16,5,24.107,18.2801013,14.8,2.16,1.99837,-2.1,0.5,0.1,160.2, -10.6, -5,0,0,1024,1024,1024,1024,0,0,0,0,0,0,0,97,3.995,4.001,4.033,4.034,4.024,4.02,0,,18.2801013,14.8,14,Waypoint,
14100,2024-11-03 23:38:29,-23.4438509832714,151.917288075153,14.8,,,18.2801013,0,2.38,2.22903,4.71799,16,5,24.107,18.2801013,14.8,2.38,2.22903,-2.3,0.6,0.1,160.1, -10.7, -5,0,0,1024,1024,1024,1024,0,0,0,0,0,0,0,97,3.995,4.001,4.033,4.034,4.024,4.02,0,,18.2801013,14.8,14,Waypoint,
14200,2024-11-03 23:38:29,-23.443853692017,151.917288681405,14.8,,,18.2801013,0,2.57,2.50323,5.0255,16,5,24.107,18.2801013,14.8,2.57,2.50323,-2.5,0.6,0.1,160.2, -10.7, -5.3,0,0,1024,1024,1024,1024,0,0,0,0,0,0,0,97,3.995,4.001,4.033,4.034,4.024,4.02,0,,18.2801013,14.8,14,Waypoint,
14300,2024-11-03 23:38:29,-23.4438563991814,151.917289397834,14.8,,,18.2801013,0,2.69,2.7821,5.3353,16,5,24.201,18.2801013,14.8,2.69,2.7821,-2.6,0.7,0.1,160.2, -10.6, -5.7,0,0,1024,1024,1024,1024,0,0,0,0,0,0,0,97,4,4.023,4.051,4.048,4.042,4.037,0,,18.2801013,14.8,14,Waypoint,
14400,2024-11-03 23:38:29,-23.4438595078419,151.917290210137,14.8,,,18.2801013,0,2.94,3.10971,5.6908,16,5,24.201,18.2801013,14.8,2.94,3.10971,-2.8,0.9,0.1,160.1, -10.5, -5.6,0,0,1024,1024,1024,1024,0,0,0,0,0,0,0,97,4,4.023,4.051,4.048,4.042,4.037,0,,18.2801013,14.8,14,Waypoint,
14500,2024-11-03 23:38:29,-23.4438626083244,151.917291165618,14.8,,,18.2801013,0,3.16,3.44049,6.04911,16,5,24.201,18.2801013,14.8,3.16,3.44049,-3,1,0.1,160, -10.5, -5.3,0,0,1024,1024,1024,1024,0,0,0,0,0,0,0,97,4,4.023,4.051,4.048,4.042,4.037,0,,18.2801013,14.8,14,Waypoint,
14600,2024-11-03 23:38:29,-23.4438661074304,151.917292205724,14.8,,,18.2801013,0,3.35,3.82,6.45244,16,5,24.201,18.2801013,14.8,3.35,3.82,-3.2,1,0.1,160, -10.8, -5.1,0,0,1024,1024,1024,1024,0,0,0,0,0,0,0,97,4,4.023,4.051,4.048,4.042,4.037,0,,18.2801013,14.8,14,Waypoint,
14700,2024-11-03 23:38:29,-23.4438695422096,151.917293329272,14.7,,,18.1801013,0,3.57,4.19655,6.85124,16,5,24.201,18.2801013,14.8,3.57,4.19655,-3.4,1.1,0.1,160, -11, -5.2,0,0,1024,1024,1024,1024,0,0,0,0,0,0,0,97,4,4.023,4.051,4.048,4.042,4.037,0,,18.1801013,14.7,14,Waypoint,
14800,2024-11-03 23:38:29,-23.4438734470392,151.917294490146,14.7,,,18.1801013,0,3.7,4.62914,7.30134,16,5,24.201,18.2801013,14.8,3.7,4.62914,-3.5,1.2,0.1,160, -11.3, -5.2,0,0,1024,1024,1024,1024,0,0,0,0,0,0,0,97,4,4.023,4.051,4.048,4.042,4.037,0,,18.1801013,14.7,14,Waypoint,
14900,2024-11-03 23:38:30,-23.4438773025595,151.917295712862,14.7,,,18.1801013,0,3.89,5.05945,7.74788,16,5,24.201,18.2801013,14.8,3.89,5.05945,-3.7,1.2,0.1,159.9, -11.5, -5.1,0,0,1024,1024,1024,1024,0,0,0,0,0,0,0,97,4,4.023,4.051,4.048,4.042,4.037,0,,18.1801013,14.7,14,Waypoint,
15000,2024-11-03 23:38:30,-23.4438816426005,151.917297050324,14.7,,,18.1801013,0,4.11,5.54673,8.24944,16,5,24.201,18.2801013,14.8,4.11,5.54673,-3.9,1.3,0.1,159.9, -11.8, -5.3,0,0,1024,1024,1024,1024,0,0,0,0,0,0,0,97,4,4.023,4.051,4.048,4.042,4.037,0,,18.1801013,14.7,14,Waypoint,
15100,2024-11-03 23:38:30,-23.443885880372,151.917298507823,14.7,,,18.1801013,0,4.33,6.02582,8.74361,16,5,24.201,18.2801013,14.8,4.33,6.02582,-4.1,1.4,0.1,160, -11.8, -5.6,0,0,1024,1024,1024,1024,0,0,0,0,0,0,0,97,4,4.023,4.051,4.048,4.042,4.037,0,,18.1801013,14.7,14,Waypoint,
15200,2024-11-03 23:38:30,-23.4438906239381,151.917299994448,14.7,,,18.1801013,0,4.55,6.56345,9.29249,16,5,24.201,18.2801013,14.8,4.55,6.56345,-4.3,1.5,0,160, -12.1, -5.7,0,0,1024,1024,1024,1024,0,0,0,0,0,0,0,97,4,4.023,4.051,4.048,4.042,4.037,0,,18.1801013,14.7,14,Waypoint,
15300,2024-11-03 23:38:30,-23.4438952393132,151.917301526543,14.7,,,18.1801013,0,4.74,7.0891,9.82903,16,5,24.201,18.2801013,14.8,4.74,7.0891,-4.5,1.5,0,159.9, -12.1, -5.5,0,0,1024,1024,1024,1024,0,0,0,0,0,0,0,97,4,4.023,4.051,4.048,4.042,4.037,0,,18.1801013,14.7,14,Waypoint,
15400,2024-11-03 23:38:30,-23.4439005658949,151.917303163586,14.7,,,18.1801013,0,4.96,7.69606,10.4445,16,5,24.201,18.2801013,14.8,4.96,7.69606,-4.7,1.6,0,160, -12.4, -5.9,0,0,1024,1024,1024,1024,0,0,0,0,0,0,0,97,4,4.023,4.051,4.048,4.042,4.037,0,,18.1801013,14.7,14,Waypoint,
15500,2024-11-03 23:38:30,-23.4439057517334,151.917304928484,14.7,,,18.1801013,0,5.15,8.29041,11.0486,16,5,24.201,18.2801013,14.8,5.15,8.29041,-4.9,1.6,0,160, -12.5, -6,0,0,1024,1024,1024,1024,0,0,0,0,0,0,0,97,4,4.023,4.051,4.048,4.042,4.037,0,,18.1801013,14.7,14,Waypoint,
15600,2024-11-03 23:38:30,-23.4439115326119,151.917306757281,14.7,,,18.1801013,0,5.38,8.95252,11.718,16,5,24.201,18.2801013,14.8,5.38,8.95252,-5.1,1.7,0,160, -12.5, -6.3,0,0,1024,1024,1024,1024,0,0,0,0,0,0,0,97,4,4.023,4.051,4.048,4.042,4.037,0,,18.1801013,14.7,14,Waypoint,
15700,2024-11-03 23:38:30,-23.4439171044633,151.917308657224,14.7,,,18.1801013,0,5.69,9.59374,12.3673,16,5,24.201,18.2801013,14.8,5.69,9.59374,-5.4,1.8,0,160, -12.2, -6.6,0,0,1024,1024,1024,1024,0,0,0,0,0,0,0,97,4,4.023,4.051,4.048,4.042,4.037,0,,18.1801013,14.7,14,Waypoint,
15800,2024-11-03 23:38:30,-23.4439234259461,151.917310701054,14.7,,,18.1801013,0,5.91,10.3206,13.1005,15,5,24.201,18.2801013,14.8,5.91,10.3206,-5.6,1.9,0.1,160, -12.1, -7.1,0,0,1024,1024,1024,1024,0,0,0,0,0,0,0,97,4,4.023,4.051,4.048,4.042,4.037,0,,18.1801013,14.7,14,Waypoint,
15900,2024-11-03 23:38:31,-23.4439294773808,151.917312839749,14.6,,,18.0801013,0,6.14,11.0204,13.808,15,5,24.201,18.2801013,14.8,6.14,11.0204,-5.8,2,0.1,159.9, -11.8, -7,0,0,1024,1024,1024,1024,0,0,0,0,0,0,0,97,4,4.023,4.051,4.048,4.042,4.037,0,,18.0801013,14.6,14,Waypoint,
16000,2024-11-03 23:38:31,-23.4439362154065,151.91731514634,14.6,,,18.0801013,0,6.36,11.7992,14.5934,15,5,24.201,18.2801013,14.8,6.36,11.7992,-6,2.1,0.2,159.9, -11.5, -7.2,0,0,1024,1024,1024,1024,0,0,0,0,0,0,0,97,4,4.023,4.051,4.048,4.042,4.037,0,,18.0801013,14.6,14,Waypoint,
16100,2024-11-03 23:38:31,-23.4439426252487,151.91731753794,14.6,,,18.0801013,0,6.61,12.5447,15.3468,15,5,24.201,18.2801013,14.8,6.61,12.5447,-6.2,2.3,0.1,159.8, -10.9, -7,0,0,1024,1024,1024,1024,0,0,0,0,0,0,0,97,4,4.023,4.051,4.048,4.042,4.037,0,,18.0801013,14.6,14,Waypoint,
16200,2024-11-03 23:38:31,-23.4439497123282,151.917320151706,14.5,,,17.9801013,0,6.71,13.3693,16.1788,15,5,24.201,18.2801013,14.8,6.71,13.3693,-6.3,2.3,0.1,159.8, -10.9, -6.4,0,0,1024,1024,1024,1024,0,0,0,0,0,0,0,97,4,4.023,4.051,4.048,4.042,4.037,0,,17.9801013,14.5,14,Waypoint,
16300,2024-11-03 23:38:31,-23.4439564338676,151.917322759662,14.5,,,17.9801013,0,6.93,14.1549,16.9722,15,5,23.871,18.2801013,14.8,6.93,14.1549,-6.5,2.4,0.1,159.7, -10.8, -5.9,0,0,1024,1024,1024,1024,0,0,0,0,0,0,0,97,3.957,3.971,3.987,3.989,3.978,3.989,0,,17.9801013,14.5,14,Waypoint,
16400,2024-11-03 23:38:31,-23.4439637391976,151.917325546761,14.5,,,17.9801013,0,7.15,15.0086,17.833,15,5,23.871,18.2801013,14.8,7.15,15.0086,-6.7,2.5,0.1,159.7, -10.8, -5.8,0,0,1024,1024,1024,1024,0,0,0,0,0,0,0,97,3.957,3.971,3.987,3.989,3.978,3.989,0,,17.9801013,14.5,14,Waypoint,
16500,2024-11-03 23:38:31,-23.4439707303422,151.917328305163,14.4,,,17.8801013,0,7.24,15.8284,18.6598,15,5,23.871,18.2801013,14.8,7.24,15.8284,-6.8,2.5,0.1,159.7, -10.4, -5.3,0,0,1024,1024,1024,1024,0,0,0,0,0,0,0,97,3.957,3.971,3.987,3.989,3.978,3.989,0,,17.8801013,14.4,14,Waypoint,
16600,2024-11-03 23:38:31,-23.4439785153076,151.917331326072,14.4,,,17.8801013,0,7.47,16.7409,19.5787,15,5,23.871,18.2801013,14.8,7.47,16.7409,-7,2.6,0,159.7, -10.5, -5.2,0,0,1024,1024,1024,1024,0,0,0,0,0,0,0,97,3.957,3.971,3.987,3.989,3.978,3.989,0,,17.8801013,14.4,14,Waypoint,
16700,2024-11-03 23:38:31,-23.4439859569971,151.917334278135,14.4,,,17.8801013,0,7.66,17.6152,20.4594,15,5,23.871,18.2801013,14.8,7.66,17.6152,-7.2,2.6,0,159.6, -10.1, -5.3,0,0,1024,1024,1024,1024,0,0,0,0,0,0,0,97,3.957,3.971,3.987,3.989,3.978,3.989,0,,17.8801013,14.4,14,Waypoint,
16800,2024-11-03 23:38:31,-23.4439941874396,151.917337451769,14.4,,,17.8801013,0,7.78,18.5808,21.4303,15,5,23.871,18.2801013,14.8,7.78,18.5808,-7.3,2.7,0,159.6, -9.2, -5.6,0,0,1024,1024,1024,1024,0,0,0,0,0,0,0,97,3.957,3.971,3.987,3.989,3.978,3.989,0,,17.8801013,14.4,14,Waypoint,
16900,2024-11-03 23:38:32,-23.4440019613186,151.917340484327,14.3,,,17.7801013,0,7.97,19.4941,22.3485,15,5,23.871,18.2801013,14.8,7.97,19.4941,-7.5,2.7,0,159.6, -7.7, -5.8,0,0,1024,1024,1024,1024,0,0,0,0,0,0,0,97,3.957,3.971,3.987,3.989,3.978,3.989,0,,17.7801013,14.3,14,Waypoint,
17000,2024-11-03 23:38:32,-23.4440104321456,151.917343744081,14.3,,,17.7801013,0,8.1,20.4887,23.3475,15,5,23.871,18.2801013,14.8,8.1,20.4887,-7.6,2.8,0.1,159.5, -5.6, -6.3,0,0,1024,1024,1024,1024,0,0,0,0,0,0,0,97,3.957,3.971,3.987,3.989,3.978,3.989,0,,17.7801013,14.3,14,Waypoint,
17100,2024-11-03 23:38:32,-23.4440183825739,151.917346840162,14.3,,,17.7801013,0,8.19,21.4235,24.2863,15,5,23.871,18.2801013,14.8,8.19,21.4235,-7.7,2.8,0,159.3, -3.1, -6.3,0,0,1024,1024,1024,1024,0,0,0,0,0,0,0,97,3.957,3.971,3.987,3.989,3.978,3.989,0,,17.7801013,14.3,14,Waypoint,
17200,2024-11-03 23:38:32,-23.4440269233328,151.917350221653,14.2,,,17.6801013,0,8.1,22.4296,25.2968,15,5,23.803,18.2801013,14.8,8.19,22.4296,-7.6,2.8,0,159.2, -1.3, -6.3,0,0,1024,1024,1024,1024,0,0,0,0,0,0,0,97,3.945,3.96,3.983,3.976,3.969,3.97,0,,17.6801013,14.2,14,Waypoint,
17400,2024-11-03 23:38:32,-23.4440432631789,151.91735690448,14.2,,,17.6801013,0,8.13,24.3609,27.2376,15,5,23.803,18.2801013,14.8,8.19,24.3609,-7.6,2.9,0,159.1, 0.8, -6,0,0,1024,1024,1024,1024,0,0,0,0,0,0,0,97,3.945,3.96,3.983,3.976,3.969,3.97,0,,17.6801013,14.2,14,Waypoint,
17500,2024-11-03 23:38:32,-23.4440510492647,151.917360150484,14.2,,,17.6801013,0,8.13,25.2834,28.1647,15,5,23.803,18.2801013,14.8,8.19,25.2834,-7.6,2.9,0,159.2, 1.4, -5.6,0,0,1024,1024,1024,1024,0,0,0,0,0,0,0,97,3.945,3.96,3.983,3.976,3.969,3.97,0,,17.6801013,14.2,14,Waypoint,
17600,2024-11-03 23:38:32,-23.4440593279874,151.917363758651,14.2,,,17.6801013,0,8.13,26.269,29.1562,16,5,23.803,18.2801013,14.8,8.19,26.269,-7.6,2.9,-0.1,159.2, 1.7, -4.9,0,0,1024,1024,1024,1024,0,0,0,0,0,0,0,97,3.945,3.96,3.983,3.976,3.969,3.97,0,,17.6801013,14.2,14,Waypoint,
17700,2024-11-03 23:38:32,-23.4440670776872,151.917367145623,14.2,,,17.6801013,0,8.13,27.1922,30.0847,16,5,23.803,18.2801013,14.8,8.19,27.1922,-7.6,2.9,-0.2,159.2, 2.2, -4.3,0,0,1024,1024,1024,1024,0,0,0,0,0,0,0,97,3.945,3.96,3.983,3.976,3.969,3.97,0,,17.6801013,14.2,14,Waypoint,
17800,2024-11-03 23:38:32,-23.4440753641222,151.91737088755,14.2,,,17.6801013,0,8.04,28.1831,31.0822,16,5,23.803,18.2801013,14.8,8.19,28.1831,-7.5,2.9,-0.2,159.2, 2.6, -4.4,0,0,1024,1024,1024,1024,0,0,0,0,0,0,0,97,3.945,3.96,3.983,3.976,3.969,3.97,0,,17.6801013,14.2,14,Waypoint,
17900,2024-11-03 23:38:33,-23.4440830667405,151.917374281997,14.2,,,17.6801013,0,8.04,29.1022,32.0061,16,5,23.803,18.2801013,14.8,8.19,29.1022,-7.5,2.9,-0.1,159.3, 3, -4.3,0,0,1024,1024,1024,1024,0,0,0,0,0,0,0,97,3.945,3.96,3.983,3.976,3.969,3.97,0,,17.6801013,14.2,14,Waypoint,
18000,2024-11-03 23:38:33,-23.4440913129464,151.91737803667,14.2,,,17.6801013,0,8.04,30.09,32.9999,16,5,23.803,18.2801013,14.8,8.19,30.09,-7.5,2.9,-0.2,159.2, 3.5, -4.5,0,0,1024,1024,1024,1024,0,0,0,0,0,0,0,97,3.945,3.96,3.983,3.976,3.969,3.97,0,,17.6801013,14.2,14,Waypoint,
18100,2024-11-03 23:38:33,-23.4440989563935,151.917381419016,14.2,,,17.6801013,0,7.95,31.003,33.9173,16,5,23.803,18.2801013,14.8,8.19,31.003,-7.4,2.9,-0.2,159.2, 4.2, -4,0,0,1024,1024,1024,1024,0,0,0,0,0,0,0,97,3.945,3.96,3.983,3.976,3.969,3.97,0,,17.6801013,14.2,14,Waypoint,
18200,2024-11-03 23:38:33,-23.4441072957985,151.917385264863,14.2,,,17.6801013,0,7.95,32.0041,34.9243,16,5,23.803,18.2801013,14.8,8.19,32.0041,-7.4,2.9,-0.1,159.2, 5.1, -3.9,0,0,1024,1024,1024,1024,0,0,0,0,0,0,0,97,3.945,3.96,3.983,3.976,3.969,3.97,0,,17.6801013,14.2,14,Waypoint,
18300,2024-11-03 23:38:33,-23.444114955973,151.917388712629,14.2,,,17.6801013,0,7.82,32.9215,35.8459,16,5,23.723,18.2801013,14.8,8.19,32.9215,-7.3,2.8,-0.2,159.2, 5.3, -3.4,0,0,1024,1024,1024,1024,0,0,0,0,0,0,0,97,3.93,3.934,3.97,3.967,3.952,3.97,0,,17.6801013,14.2,14,Waypoint,
18400,2024-11-03 23:38:33,-23.4441232062175,151.917392585435,14.2,,,17.6801013,0,7.73,33.9145,36.8449,16,5,23.723,18.2801013,14.8,8.19,33.9145,-7.2,2.8,0,159.2, 5.8, -3,0,0,1024,1024,1024,1024,0,0,0,0,0,0,0,97,3.93,3.934,3.97,3.967,3.952,3.97,0,,17.6801013,14.2,14,Waypoint,
18500,2024-11-03 23:38:33,-23.4441306551633,151.917395995402,14.2,,,17.6801013,0,7.6,34.8088,37.7433,16,5,23.723,18.2801013,14.8,8.19,34.8088,-7.1,2.7,-0.1,159.3, 6.4, -2.2,0,0,1024,1024,1024,1024,0,0,0,0,0,0,0,97,3.93,3.934,3.97,3.967,3.952,3.97,0,,17.6801013,14.2,14,Waypoint,
18600,2024-11-03 23:38:33,-23.4441384944927,151.917399713479,14.3,,,17.7801013,0,7.5,35.7541,38.694,16,5,23.723,18.2801013,14.8,8.19,35.7541,-7,2.7,-0.2,159.3, 6.6, -1.1,0,0,1024,1024,1024,1024,0,0,0,0,0,0,0,97,3.93,3.934,3.97,3.967,3.952,3.97,0,,17.7801013,14.3,14,Waypoint,
18700,2024-11-03 23:38:33,-23.4441456102718,151.917402953563,14.3,,,17.7801013,0,7.41,36.6082,39.5516,16,5,23.723,18.2801013,14.8,8.19,36.6082,-6.9,2.7,-0.3,159.4, 6.5, -0.7,0,0,1024,1024,1024,1024,0,0,0,0,0,0,0,97,3.93,3.934,3.97,3.967,3.952,3.97,0,,17.7801013,14.3,14,Waypoint,
18800,2024-11-03 23:38:34,-23.4441534021028,151.917406642152,14.4,,,17.8801013,0,7.37,37.5481,40.4963,16,5,23.723,18.2801013,14.8,8.19,37.5481,-6.9,2.6,-0.4,159.4, 6, -0.7,0,0,1024,1024,1024,1024,0,0,0,0,0,0,0,97,3.93,3.934,3.97,3.967,3.952,3.97,0,,17.8801013,14.4,14,Waypoint,
18900,2024-11-03 23:38:34,-23.4441605719984,151.917409842457,14.4,,,17.8801013,0,7.34,38.407,41.3579,16,5,23.723,18.2801013,14.8,8.19,38.407,-6.9,2.5,-0.4,159.4, 5.7, -0.8,0,0,1024,1024,1024,1024,0,0,0,0,0,0,0,97,3.93,3.934,3.97,3.967,3.952,3.97,0,,17.8801013,14.4,14,Waypoint,
19000,2024-11-03 23:38:34,-23.4441683475449,151.917413421579,14.5,,,17.9801013,0,7.24,39.3421,42.2966,16,5,23.723,18.2801013,14.8,8.19,39.3421,-6.8,2.5,-0.3,159.3, 5.1, -1.3,0,0,1024,1024,1024,1024,0,0,0,0,0,0,0,97,3.93,3.934,3.97,3.967,3.952,3.97,0,,17.9801013,14.5,14,Waypoint,
19100,2024-11-03 23:38:34,-23.4441754190564,151.91741650319,14.5,,,17.9801013,0,7.24,40.1872,43.1435,16,5,23.723,18.2801013,14.8,8.19,40.1872,-6.8,2.5,-0.3,159.3, 4.7, -1.8,0,0,1024,1024,1024,1024,0,0,0,0,0,0,0,97,3.93,3.934,3.97,3.967,3.952,3.97,0,,17.9801013,14.5,14,Waypoint,
19200,2024-11-03 23:38:34,-23.444183100518,151.917420022989,14.6,,,18.0801013,0,7.21,41.1107,44.0701,16,5,23.828,18.2801013,14.8,8.19,41.1107,-6.8,2.4,-0.2,159.3, 4.7, -2,0,0,1024,1024,1024,1024,0,0,0,0,0,0,0,97,3.94,3.936,3.994,3.997,3.969,3.992,0,,18.0801013,14.6,14,Waypoint,
19400,2024-11-03 23:38:34,-23.4441976790261,151.917426639629,14.6,,,18.0801013,0,7.12,42.8618,45.8263,16,5,23.828,18.2801013,14.8,8.19,42.8618,-6.7,2.4,-0.3,159.3, 5.3, -1.7,0,0,1024,1024,1024,1024,0,0,0,0,0,0,0,97,3.94,3.936,3.994,3.997,3.969,3.992,0,,18.0801013,14.6,14,Waypoint,
19500,2024-11-03 23:38:34,-23.4442045886312,151.917429691481,14.6,,,18.0801013,0,7.12,43.6891,46.6554,16,5,23.828,18.2801013,14.8,8.19,43.6891,-6.7,2.4,-0.2,159.3, 6.1, -1.3,0,0,1024,1024,1024,1024,0,0,0,0,0,0,0,97,3.94,3.936,3.994,3.997,3.969,3.992,0,,18.0801013,14.6,14,Waypoint,
19600,2024-11-03 23:38:34,-23.4442120456019,151.917433095136,14.7,,,18.1801013,0,7.12,44.5857,47.5544,16,5,23.828,18.2801013,14.8,8.19,44.5857,-6.7,2.3,-0.2,159.4, 6.6, -0.6,0,0,1024,1024,1024,1024,0,0,0,0,0,0,0,97,3.94,3.936,3.994,3.997,3.969,3.992,0,,18.1801013,14.7,14,Waypoint,
19700,2024-11-03 23:38:34,-23.4442188485375,151.917435984893,14.7,,,18.1801013,0,6.99,45.3967,48.3663,16,5,23.828,18.2801013,14.8,8.19,45.3967,-6.6,2.3,-0.2,159.4, 6.9, 0,0,0,1024,1024,1024,1024,0,0,0,0,0,0,0,97,3.94,3.936,3.994,3.997,3.969,3.992,0,,18.1801013,14.7,14,Waypoint,
19800,2024-11-03 23:38:34,-23.4442261272653,151.917439159799,14.7,,,18.1801013,0,6.96,46.2671,49.2382,16,5,23.828,18.2801013,14.8,8.19,46.2671,-6.6,2.2,-0.1,159.3, 6.9, 0.4,0,0,1024,1024,1024,1024,0,0,0,0,0,0,0,97,3.94,3.936,3.994,3.997,3.969,3.992,0,,18.1801013,14.7,14,Waypoint,
19900,2024-11-03 23:38:35,-23.444232770014,151.917441847345,14.7,,,18.1801013,0,6.86,47.0547,50.0261,16,5,23.828,18.2801013,14.8,8.19,47.0547,-6.5,2.2,-0.1,159.3, 6.9, 0.3,0,0,1024,1024,1024,1024,0,0,0,0,0,0,0,97,3.94,3.936,3.994,3.997,3.969,3.992,0,,18.1801013,14.7,14,Waypoint,
20100,2024-11-03 23:38:35,-23.4442460820356,151.917447379967,14.8,,,18.2801013,0,6.64,48.6379,51.6105,16,5,23.828,18.2801013,14.8,8.19,48.6379,-6.3,2.1,-0.1,159.3, 6.2, 0.5,0,0,1024,1024,1024,1024,0,0,0,0,0,0,0,97,3.94,3.936,3.994,3.997,3.969,3.992,0,,18.2801013,14.8,14,Waypoint,
20200,2024-11-03 23:38:35,-23.4442526905219,151.917450161405,14.8,,,18.2801013,0,6.51,49.425,52.3983,16,5,23.828,18.2801013,14.8,8.19,49.425,-6.2,2,-0.1,159.4, 5.5, 0.5,0,0,1024,1024,1024,1024,0,0,0,0,0,0,0,97,3.94,3.936,3.994,3.997,3.969,3.992,0,,18.2801013,14.8,14,Waypoint,
20300,2024-11-03 23:38:35,-23.444258792523,151.917452530513,14.8,,,18.2801013,0,6.48,50.1453,53.1186,16,5,23.828,18.2801013,14.8,8.19,50.1453,-6.2,1.9,-0.1,159.4, 4.8, 0.6,0,0,1024,1024,1024,1024,0,0,0,0,0,0,0,97,3.94,3.936,3.994,3.997,3.969,3.992,0,,18.2801013,14.8,14,Waypoint,
20400,2024-11-03 23:38:35,-23.4442651571335,151.917455080467,14.8,,,18.2801013,0,6.36,50.8991,53.8727,16,5,23.828,18.2801013,14.8,8.19,50.8991,-6.1,1.8,-0.1,159.3, 4.1, 0.3,0,0,1024,1024,1024,1024,0,0,0,0,0,0,0,97,3.94,3.936,3.994,3.997,3.969,3.992,0,,18.2801013,14.8,14,Waypoint,
20500,2024-11-03 23:38:35,-23.444271097567,151.917457253938,14.8,,,18.2801013,0,6.36,51.596,54.5695,16,5,23.828,18.2801013,14.8,8.19,51.596,-6.1,1.8,-0.1,159.2, 3.1, 0.2,0,0,1024,1024,1024,1024,0,0,0,0,0,0,0,97,3.94,3.936,3.994,3.997,3.969,3.992,0,,18.2801013,14.8,14,Waypoint,
20600,2024-11-03 23:38:35,-23.444277276587,151.917459555468,14.9,,,18.3801013,0,6.24,52.3221,55.2957,16,5,23.828,18.3801013,14.9,8.19,52.3221,-6,1.7,-0.1,159.2, 2.4, -0.2,0,0,1024,1024,1024,1024,0,0,0,0,0,0,0,97,3.94,3.936,3.994,3.997,3.969,3.992,0,,18.3801013,14.9,14,Waypoint,
20700,2024-11-03 23:38:35,-23.4442830946396,151.917461536655,14.9,,,18.3801013,0,6.24,52.9997,55.9735,16,5,23.828,18.3801013,14.9,8.19,52.9997,-6,1.7,-0.1,159.2, 1.5, -0.5,0,0,1024,1024,1024,1024,0,0,0,0,0,0,0,97,3.94,3.936,3.994,3.997,3.969,3.992,0,,18.3801013,14.9,14,Waypoint,
20800,2024-11-03 23:38:35,-23.4442891326494,151.917463569293,14.9,,,18.3801013,0,6.24,53.7022,56.6763,16,5,23.828,18.3801013,14.9,8.19,53.7022,-6,1.7,-0.1,159.2, 0.6, -1.1,0,0,1024,1024,1024,1024,0,0,0,0,0,0,0,97,3.94,3.936,3.994,3.997,3.969,3.992,0,,18.3801013,14.9,14,Waypoint,
20900,2024-11-03 23:38:36,-23.4442948536207,151.91746534404,14.9,,,18.3801013,0,6.21,54.3629,57.3378,16,5,23.828,18.3801013,14.9,8.19,54.3629,-6,1.6,-0.1,159.3, 0, -1.6,0,0,1024,1024,1024,1024,0,0,0,0,0,0,0,97,3.94,3.936,3.994,3.997,3.969,3.992,0,,18.3801013,14.9,14,Waypoint,
21000,2024-11-03 23:38:36,-23.444300804398,151.917467259003,14.9,,,18.3801013,0,6.21,55.0524,58.0278,15,5,23.828,18.3801013,14.9,8.19,55.0524,-6,1.6,0,159.3, -0.3, -2.1,0,0,1024,1024,1024,1024,0,0,0,0,0,0,0,97,3.94,3.936,3.994,3.997,3.969,3.992,0,,18.3801013,14.9,14,Waypoint,
21100,2024-11-03 23:38:36,-23.4443065194287,151.91746904178,15,,,18.4801013,0,6.21,55.7127,58.6888,15,5,23.828,18.4801013,15,8.19,55.7127,-6,1.6,0,159.3, -1, -2.4,0,0,1024,1024,1024,1024,0,0,0,0,0,0,0,97,3.94,3.936,3.994,3.997,3.969,3.992,0,,18.4801013,15,14,Waypoint,
21200,2024-11-03 23:38:36,-23.4443124274235,151.917470960385,15,,,18.4801013,0,6.21,56.3978,59.3744,16,5,23.828,18.4801013,15,8.19,56.3978,-6,1.6,0,159.4, -1.6, -2.7,0,0,1024,1024,1024,1024,0,0,0,0,0,0,0,97,3.94,3.936,3.994,3.997,3.969,3.992,0,,18.4801013,15,14,Waypoint,
21300,2024-11-03 23:38:36,-23.4443180813289,151.917472706258,15,,,18.4801013,0,6.21,57.0505,60.0279,16,5,24.185,18.4801013,15,8.19,57.0505,-6,1.6,0,159.5, -2, -3,0,0,1024,1024,1024,1024,0,0,0,0,0,0,0,97,4.012,4.006,4.044,4.046,4.029,4.048,0,,18.4801013,15,14,Waypoint,
21400,2024-11-03 23:38:36,-23.444323765302,151.917474486458,15,,,18.4801013,0,6.18,57.7076,60.6855,16,5,24.185,18.4801013,15,8.19,57.7076,-6,1.5,0,159.4, -2.4, -3,0,0,1024,1024,1024,1024,0,0,0,0,0,0,0,97,4.012,4.006,4.044,4.046,4.029,4.048,0,,18.4801013,15,14,Waypoint,
21500,2024-11-03 23:38:36,-23.4443292324444,151.917476090826,15,,,18.4801013,0,6.18,58.336,61.3152,16,5,24.185,18.4801013,15,8.19,58.336,-6,1.5,0,159.5, -2.8, -2.8,0,0,1024,1024,1024,1024,0,0,0,0,0,0,0,97,4.012,4.006,4.044,4.046,4.029,4.048,0,,18.4801013,15,14,Waypoint,
21600,2024-11-03 23:38:36,-23.4443347932289,151.917477778694,15,,,18.4801013,0,6.18,58.9771,61.9571,16,5,24.185,18.4801013,15,8.19,58.9771,-6,1.5,0,159.4, -3.5, -2.9,0,0,1024,1024,1024,1024,0,0,0,0,0,0,0,97,4.012,4.006,4.044,4.046,4.029,4.048,0,,18.4801013,15,14,Waypoint,
21700,2024-11-03 23:38:36,-23.4443402953374,151.917479365227,15,,,18.4801013,0,6.28,59.6087,62.59,16,5,24.185,18.4801013,15,8.19,59.6087,-6.1,1.5,0,159.4, -4.2, -3.2,0,0,1024,1024,1024,1024,0,0,0,0,0,0,0,97,4.012,4.006,4.044,4.046,4.029,4.048,0,,18.4801013,15,14,Waypoint,
21800,2024-11-03 23:38:36,-23.4443459168303,151.9174809811,15,,,18.4801013,0,6.28,60.254,63.2365,16,5,24.185,18.4801013,15,8.19,60.254,-6.1,1.5,0.1,159.5, -4.9, -4,0,0,1024,1024,1024,1024,0,0,0,0,0,0,0,97,4.012,4.006,4.044,4.046,4.029,4.048,0,,18.4801013,15,14,Waypoint,
21900,2024-11-03 23:38:37,-23.4443514740713,151.917482489326,14.9,,,18.3801013,0,6.28,60.8889,63.8734,16,5,24.185,18.4801013,15,8.19,60.8889,-6.1,1.5,0.1,159.6, -5.5, -4.5,0,0,1024,1024,1024,1024,0,0,0,0,0,0,0,97,4.012,4.006,4.044,4.046,4.029,4.048,0,,18.3801013,14.9,14,Waypoint,
