time(millisecond),datetime(utc),latitude,longitude,height_above_takeoff(meters),height_above_ground_at_drone_location(meters),ground_elevation_at_drone_location(meters),altitude_above_seaLevel(meters),height_sonar(meters),speed(m/s),distance(meters),mileage(meters),satellites,gpslevel,voltage(v),max_altitude(meters),max_ascent(meters),max_speed(m/s),max_distance(meters), xSpeed(m/s), ySpeed(m/s), zSpeed(m/s), compass_heading(degrees), pitch(degrees), roll(degrees),isPhoto,isVideo,rc_elevator,rc_aileron,rc_throttle,rc_rudder,rc_elevator(percent),rc_aileron(percent),rc_throttle(percent),rc_rudder(percent),gimbal_heading(degrees),gimbal_pitch(degrees),gimbal_roll(degrees),battery_percent,voltageCell1,voltageCell2,voltageCell3,voltageCell4,voltageCell5,voltageCell6,current(A),battery_temperature(c),altitude(meters),ascent(meters),flycStateRaw,flycState,message
0,2024-11-04 00:15:31,-23.4437982128984,151.917285438099,0,Available with any HD 360 subscription,Available with any HD 360 subscription,3.7370832,0,0,0,0,13,4,0,3.7370832,0,0,0,0,0,0,80.7, 2.2, 0.9,0,0,1024,1024,1024,1024,0,0,0,0,0,0,0,100,4.333,4.335,4.335,4.338,4.341,4.337,0,,3.7370832,0,41,Motors_Started,
100,2024-11-04 00:15:31,-23.4437982152393,151.917285442144,0,,,3.7370832,0,0,0.000487915,0.000487915,13,4,0,3.7370832,0,0,0.000487915,0,0,0,80.8, 2.2, 0.9,0,0,1024,1024,1024,1024,0,0,0,0,0,0,0,100,4.333,4.335,4.335,4.338,4.341,4.337,0,,3.7370832,0,41,Motors_Started,
200,2024-11-04 00:15:31,-23.443798218313,151.917285443657,0,,,3.7370832,0,0,0.000827072,0.000862953,13,4,0,3.7370832,0,0,0.000827072,0,0,0,80.8, 2.2, 0.9,0,0,1024,1024,1024,1024,0,0,0,0,0,0,0,100,4.333,4.335,4.335,4.338,4.341,4.337,0,,3.7370832,0,41,Motors_Started,
300,2024-11-04 00:15:31,-23.4437982199939,151.917285444637,0,,,3.7370832,0,0,0.00103325,0.00107499,13,4,0,3.7370832,0,0,0.00103325,0,0,0,80.8, 2.2, 0.9,0,0,1024,1024,1024,1024,0,0,0,0,0,0,0,100,4.333,4.335,4.335,4.338,4.341,4.337,0,,3.7370832,0,41,Motors_Started,
400,2024-11-04 00:15:31,-23.4437982214498,151.917285442963,0,,,3.7370832,0,0,0.00107265,0.00131035,13,4,0,3.7370832,0,0,0.00107265,0,0,0,80.8, 2.2, 0.9,0,0,1024,1024,1024,1024,0,0,0,0,0,0,0,100,4.333,4.335,4.335,4.338,4.341,4.337,0,,3.7370832,0,41,Motors_Started,
500,2024-11-04 00:15:31,-23.4437982223344,151.917285441981,0,,,3.7370832,0,0,0.00112159,0.00145078,13,4,0,3.7370832,0,0,0.00112159,0,0,0,80.8, 2.2, 0.9,0,0,1024,1024,1024,1024,0,0,0,0,0,0,0,100,4.333,4.335,4.335,4.338,4.341,4.337,0,,3.7370832,0,41,Motors_Started,
700,2024-11-04 00:15:31,-23.4437982215975,151.917285438223,0,,,3.7370832,0,0,0.000967481,0.00184281,13,4,0,3.7370832,0,0,0.00112159,0,0,0,80.9, 2.2, 0.9,0,0,1024,1024,1024,1024,0,0,0,0,0,0,0,100,4.333,4.335,4.335,4.338,4.341,4.337,0,,3.7370832,0,41,Motors_Started,
800,2024-11-04 00:15:32,-23.4437982198738,151.917285435644,0,,,3.7370832,0,0,0.000815147,0.00216835,13,4,0,3.7370832,0,0,0.00112159,0,0,0,80.9, 2.2, 0.9,0,0,1024,1024,1024,1024,0,0,0,0,0,0,0,100,4.333,4.335,4.335,4.338,4.341,4.337,0,,3.7370832,0,41,Motors_Started,
1000,2024-11-04 00:15:32,-23.4437982167423,151.917285430754,0,,,3.7370832,0,0,0.000862723,0.00277678,13,4,0,3.7370832,0,0,0.00112159,0,0,0,80.9, 2.2, 0.9,0,0,1024,1024,1024,1024,0,0,0,0,0,0,0,100,4.333,4.335,4.335,4.338,4.341,4.337,0,,3.7370832,0,41,Motors_Started,
1100,2024-11-04 00:15:32,-23.4437982151896,151.917285428299,0,,,3.7370832,0,0,0.00103185,0.00308104,13,4,0,3.7370832,0,0,0.00112159,0,0,0,80.9, 2.2, 0.9,0,0,1024,1024,1024,1024,0,0,0,0,0,0,0,100,4.333,4.335,4.335,4.338,4.341,4.337,0,,3.7370832,0,41,Motors_Started,
1200,2024-11-04 00:15:32,-23.4437982133507,151.917285424877,0,,,3.7370832,0,0,0.00134991,0.0034856,13,4,0,3.7370832,0,0,0.00134991,0,0,0,80.9, 2.2, 0.9,0,0,1024,1024,1024,1024,0,0,0,0,0,0,0,100,4.333,4.335,4.335,4.338,4.341,4.337,0,,3.7370832,0,41,Motors_Started,
1300,2024-11-04 00:15:32,-23.4437982120345,151.917285422402,0,,,3.7370832,0,0,0.00160445,0.00377754,13,4,0,3.7370832,0,0,0.00160445,0,0,0,80.9, 2.2, 0.9,0,0,1024,1024,1024,1024,0,0,0,0,0,0,0,100,4.333,4.335,4.335,4.338,4.341,4.337,0,,3.7370832,0,41,Motors_Started,
1400,2024-11-04 00:15:32,-23.443798210724,151.917285420188,0,,,3.7370832,0,0,0.00184339,0.00404637,13,4,0,3.7370832,0,0,0.00184339,0,0,0,80.9, 2.2, 0.9,0,0,1024,1024,1024,1024,0,0,0,0,0,0,0,100,4.333,4.335,4.335,4.338,4.341,4.337,0,,3.7370832,0,41,Motors_Started,
1500,2024-11-04 00:15:32,-23.443798209933,151.91728541856,0,,,3.7370832,0,0,0.00202065,0.00423432,13,4,0,3.7370832,0,0,0.00202065,0,0,0,80.9, 2.2, 0.9,0,0,1024,1024,1024,1024,0,0,0,0,0,0,0,100,4.333,4.335,4.335,4.338,4.341,4.337,0,,3.7370832,0,41,Motors_Started,"Setting new Return-To-Home altitude to 40m (131 ft). Data Recorder File Index is 361. Setting new Maximum Flight Altitude to 120m (394 ft)"
1600,2024-11-04 00:15:32,-23.4437982096065,151.917285417234,0,,,3.7370832,0,0,0.00216,0.00437431,13,4,0,3.7370832,0,0,0.00216,0,0,0,80.9, 2.2, 0.9,0,0,1024,1024,1024,1024,0,0,0,0,0,0,0,100,4.333,4.335,4.335,4.338,4.341,4.337,0,,3.7370832,0,41,Motors_Started,
1700,2024-11-04 00:15:33,-23.44379820951,151.917285414923,0,,,3.7370832,0,0,0.00239444,0.00461041,13,4,26.019,3.7370832,0,0,0.00239444,0,0,0,80.9, 2.3, 0.9,0,0,1024,1024,1024,1024,0,0,0,0,0,0,0,100,4.333,4.335,4.335,4.338,4.341,4.337,0,,3.7370832,0,41,Motors_Started,
1800,2024-11-04 00:15:33,-23.443798210424,151.917285412937,0,,,3.7370832,0,0,0.00258194,0.00483709,13,4,26.019,3.7370832,0,0,0.00258194,0,0,0,80.9, 2.3, 0.9,0,0,1024,1024,1024,1024,0,0,0,0,0,0,0,100,4.333,4.335,4.335,4.338,4.341,4.337,0,,3.7370832,0,41,Motors_Started,
1900,2024-11-04 00:15:33,-23.4437982110884,151.917285410292,0,,,3.7370832,0,0,0.00284419,0.00511685,13,4,26.019,3.7370832,0,0,0.00284419,0,0,0,80.9, 2.3, 0.9,0,0,1024,1024,1024,1024,0,0,0,0,0,0,0,100,4.333,4.335,4.335,4.338,4.341,4.337,0,,3.7370832,0,41,Motors_Started,
2000,2024-11-04 00:15:33,-23.4437982128023,151.917285435754,0,,,3.7370832,0,0,0.000239473,0.00772166,13,4,26.019,3.7370832,0,0,0.00284419,0,0,0,80.9, 2.4, 0.9,0,0,1024,1024,1024,1024,0,0,0,0,0,0,0,100,4.333,4.335,4.335,4.338,4.341,4.337,0,,3.7370832,0,41,Motors_Started,
2100,2024-11-04 00:15:33,-23.4437982143489,151.917285464736,0,,,3.7370832,0,0,0.00272246,0.0106836,13,4,26.019,3.7370832,0,0,0.00284419,0,0,0,80.9, 2.4, 0.9,0,0,1024,1024,1024,1024,0,0,0,0,0,0,0,100,4.333,4.335,4.335,4.338,4.341,4.337,0,,3.7370832,0,11,AutoTakeoff,
2200,2024-11-04 00:15:33,-23.4437982166914,151.917285503666,0,,,3.7370832,0,0,0.00670281,0.014664,13,4,26.019,3.7370832,0,0,0.00670281,0,0,0,80.9, 2.4, 0.9,0,0,1024,1024,1024,1024,0,0,0,0,0,0,0,100,4.333,4.335,4.335,4.338,4.341,4.337,0,,3.7370832,0,11,AutoTakeoff,
2300,2024-11-04 00:15:33,-23.443798219691,151.917285524494,0,,,3.7370832,0,0,0.0088468,0.0168149,13,4,26.019,3.7370832,0,0,0.0088468,0,0,0,80.9, 2.4, 0.9,0,0,1024,1024,1024,1024,0,0,0,0,0,0,0,100,4.333,4.335,4.335,4.338,4.341,4.337,0,,3.7370832,0,11,AutoTakeoff,
2400,2024-11-04 00:15:33,-23.4437982229536,151.91728554572,0,,,3.7370832,0,0,0.011037,0.0190108,13,4,26.019,3.7370832,0,0,0.011037,0,0,0,81, 2.4, 0.9,0,0,1024,1024,1024,1024,0,0,0,0,0,0,0,100,4.333,4.335,4.335,4.338,4.341,4.337,0,,3.7370832,0,11,AutoTakeoff,
2500,2024-11-04 00:15:33,-23.4437982258181,151.917285561898,0,,,3.7370832,0,0,0.0127122,0.0206918,13,4,26.019,3.7370832,0,0,0.0127122,0,0,0,81.1, 2.4, 1,0,0,1024,1024,1024,1024,0,0,0,0,0,0,0,100,4.333,4.335,4.335,4.338,4.341,4.337,0,,3.7370832,0,11,AutoTakeoff,
2600,2024-11-04 00:15:33,-23.4437982268851,151.917285570915,0,,,3.7370832,0,0,0.0136396,0.0216194,13,4,26.019,3.7370832,0,0,0.0136396,0,0,0,81.2, 2.4, 1,0,0,1024,1024,1024,1024,0,0,0,0,0,0,0,100,4.333,4.335,4.335,4.338,4.341,4.337,0,,3.7370832,0,11,AutoTakeoff,
2700,2024-11-04 00:15:34,-23.4437982296783,151.917285576211,0,,,3.7370832,0,0,0.014214,0.0222426,13,4,26.019,3.7370832,0,0,0.014214,0,0,0,81.2, 2.4, 1,0,0,1024,1024,1024,1024,0,0,0,0,0,0,0,100,4.333,4.335,4.335,4.338,4.341,4.337,0,,3.7370832,0,11,AutoTakeoff,
2800,2024-11-04 00:15:34,-23.4437982004803,151.91728557248,0,,,3.7370832,0,0,0.0137797,0.0255119,13,4,26.019,3.7370832,0,0,0.014214,0,0,0,81.3, 2.4, 1,0,0,1024,1024,1024,1024,0,0,0,0,0,0,0,100,4.333,4.335,4.335,4.338,4.341,4.337,0,,3.7370832,0,11,AutoTakeoff,
2900,2024-11-04 00:15:34,-23.4437981701676,151.917285568835,0,,,3.7370832,0,0,0.0141597,0.0289033,13,4,26.019,3.7370832,0,0,0.014214,0,0,0,81.4, 2.5, 1,0,0,1024,1024,1024,1024,0,0,0,0,0,0,0,100,4.333,4.335,4.335,4.338,4.341,4.337,0,,3.7370832,0,11,AutoTakeoff,
3000,2024-11-04 00:15:34,-23.4437981358954,151.917285559191,0,,,3.7370832,0,0,0.015032,0.0328395,13,4,26.019,3.7370832,0,0,0.015032,0,0,0,81.5, 2.6, 1.1,0,0,1024,1024,1024,1024,0,0,0,0,0,0,0,100,4.333,4.335,4.335,4.338,4.341,4.337,0,,3.7370832,0,11,AutoTakeoff,
3100,2024-11-04 00:15:34,-23.4437981238803,151.917285549919,0,,,3.7370832,0,0,0.0151047,0.0344766,13,4,26.019,3.7370832,0,0,0.0151047,0,0,0,81.6, 2.9, 1.1,0,0,1024,1024,1024,1024,0,0,0,0,0,0,0,100,4.333,4.335,4.335,4.338,4.341,4.337,0,,3.7370832,0,11,AutoTakeoff,
3200,2024-11-04 00:15:34,-23.4437981179882,151.917285484827,0,,,3.7370832,0,0,0.0115813,0.04115,13,4,26.019,3.7370832,0,0,0.0151047,0,0,0,81.9, 3.4, 1.1,0,0,1024,1024,1024,1024,0,0,0,0,0,0,0,100,4.333,4.335,4.335,4.338,4.341,4.337,0,,3.7370832,0,11,AutoTakeoff,
3300,2024-11-04 00:15:34,-23.443798135577,151.917285371213,0,,,3.7370832,0,0.1,0.0109774,0.0529054,13,4,26.019,3.7370832,0,0.1,0.0151047,0,-0.1,0,82.1, 3.7, 0.6,0,0,1024,1024,1024,1024,0,0,0,0,0,0,0,100,4.333,4.335,4.335,4.338,4.341,4.337,0,,3.7370832,0,11,AutoTakeoff,
3400,2024-11-04 00:15:34,-23.4437981679993,151.917285137387,0,,,3.7370832,0,0.1,0.0310841,0.0770327,13,4,26.019,3.7370832,0,0.1,0.0310841,0,-0.1,-0.2,82.3, 4.1, 0,0,0,1024,1024,1024,1024,0,0,0,0,0,0,0,100,4.333,4.335,4.335,4.338,4.341,4.337,0,,3.7370832,0,11,AutoTakeoff,
3500,2024-11-04 00:15:34,-23.4437982233286,151.917284839539,0,,,3.7370832,0,0.2,0.0610798,0.108038,13,4,26.019,3.7370832,0,0.2,0.0610798,0,-0.2,-0.3,82.3, 4.1, -0.4,0,0,1024,1024,1024,1024,0,0,0,0,0,0,0,100,4.333,4.335,4.335,4.338,4.341,4.337,0,,3.7370832,0,11,AutoTakeoff,
3600,2024-11-04 00:15:34,-23.443798302521,151.917284387232,0.1,,,3.8370832,0,0.3,0.107678,0.155018,13,4,26.019,3.8370832,0.1,0.3,0.107678,0,-0.3,-0.4,82.3, 2.9, -1,0,0,1024,1024,1024,1024,0,0,0,0,0,0,0,100,4.333,4.335,4.335,4.338,4.341,4.337,0,,3.8370832,0.1,11,AutoTakeoff,
3700,2024-11-04 00:15:35,-23.4437983745402,151.917283899546,0.1,,,3.8370832,0,0.4,0.157999,0.205415,13,4,26.019,3.8370832,0.1,0.4,0.157999,0,-0.4,-0.5,82.3, 1.4, -1.4,0,0,1024,1024,1024,1024,0,0,0,0,0,0,0,100,4.333,4.335,4.335,4.338,4.341,4.337,0,,3.8370832,0.1,11,AutoTakeoff,
3800,2024-11-04 00:15:35,-23.4437983913482,151.917283278037,0.2,,,3.9370832,0,0.4,0.221274,0.268852,13,4,26.019,3.9370832,0.2,0.4,0.221274,0,-0.4,-0.6,82.3, 0, -1.4,0,0,1024,1024,1024,1024,0,0,0,0,0,0,0,100,4.333,4.335,4.335,4.338,4.341,4.337,0,,3.9370832,0.2,11,AutoTakeoff,
3900,2024-11-04 00:15:35,-23.4437983775239,151.91728269644,0.3,,,4.0370832,0,0.4,0.280319,0.32821,13,4,26.019,4.0370832,0.3,0.4,0.280319,0,-0.4,-0.7,82.4, -1.1, -1.2,0,0,1024,1024,1024,1024,0,0,0,0,0,0,0,100,4.333,4.335,4.335,4.338,4.341,4.337,0,,4.0370832,0.3,11,AutoTakeoff,
4000,2024-11-04 00:15:35,-23.4437982813407,151.917282047131,0.3,,,4.0370832,0,0.4,0.346051,0.395315,13,4,26.019,4.0370832,0.3,0.4,0.346051,0,-0.4,-0.7,82.5, -2.2, -0.8,0,0,1024,1024,1024,1024,0,0,0,0,0,0,0,100,4.333,4.335,4.335,4.338,4.341,4.337,0,,4.0370832,0.3,11,AutoTakeoff,
4100,2024-11-04 00:15:35,-23.443798190412,151.917281545472,0.4,,,4.1370832,0,0.4,0.397157,0.447486,13,4,26.019,4.1370832,0.4,0.4,0.397157,0,-0.4,-0.6,82.5, -2.8, -0.4,0,0,1024,1024,1024,1024,0,0,0,0,0,0,0,100,4.333,4.335,4.335,4.338,4.341,4.337,0,,4.1370832,0.4,11,AutoTakeoff,
4200,2024-11-04 00:15:35,-23.4437980017446,151.917281031925,0.5,,,4.2370832,0,0.4,0.450158,0.503926,13,4,26.019,4.2370832,0.5,0.4,0.450158,0,-0.4,-0.6,82.4, -3.1, 0,0,0,1024,1024,1024,1024,0,0,0,0,0,0,0,100,4.333,4.335,4.335,4.338,4.341,4.337,0,,4.2370832,0.5,11,AutoTakeoff,
4300,2024-11-04 00:15:35,-23.4437978387328,151.917280591842,0.5,,,4.2370832,0,0.3,0.496193,0.552348,13,4,26.019,4.2370832,0.5,0.4,0.496193,0,-0.3,-0.6,82.4, -2.8, 0.4,0,0,1024,1024,1024,1024,0,0,0,0,0,0,0,100,4.333,4.335,4.335,4.338,4.341,4.337,0,,4.2370832,0.5,11,AutoTakeoff,
4400,2024-11-04 00:15:35,-23.4437976111704,151.917280182228,0.6,,,4.3370832,0,0.3,0.540395,0.601204,13,4,26.019,4.3370832,0.6,0.4,0.540395,0,-0.3,-0.5,82.4, -2.5, 0.7,0,0,1024,1024,1024,1024,0,0,0,0,0,0,0,100,4.333,4.335,4.335,4.338,4.341,4.337,0,,4.3370832,0.6,11,AutoTakeoff,
4500,2024-11-04 00:15:35,-23.4437974469394,151.9172798253,0.6,,,4.3370832,0,0.3,0.578952,0.641943,13,4,26.019,4.3370832,0.6,0.4,0.578952,0,-0.3,-0.4,82.4, -2, 0.8,0,0,1024,1024,1024,1024,0,0,0,0,0,0,0,100,4.333,4.335,4.335,4.338,4.341,4.337,0,,4.3370832,0.6,11,AutoTakeoff,
4600,2024-11-04 00:15:35,-23.44379729219,151.91727953965,0.7,,,4.4370832,0,0.3,0.610444,0.675788,13,4,26.019,4.4370832,0.7,0.4,0.610444,0,-0.3,-0.4,82.4, -1.4, 0.9,0,0,1024,1024,1024,1024,0,0,0,0,0,0,0,100,4.333,4.335,4.335,4.338,4.341,4.337,0,,4.4370832,0.7,11,AutoTakeoff,
4700,2024-11-04 00:15:36,-23.4437972040708,151.917279292471,0.7,,,4.4370832,0,0.2,0.636972,0.702844,13,4,26.019,4.4370832,0.7,0.4,0.636972,0,-0.2,-0.4,82.4, -1.1, 0.9,0,0,1024,1024,1024,1024,0,0,0,0,0,0,0,100,4.333,4.335,4.335,4.338,4.341,4.337,0,,4.4370832,0.7,11,AutoTakeoff,
4800,2024-11-04 00:15:36,-23.4437971165403,151.917279107615,0.8,,,4.5370832,0,0.2,0.657282,0.724068,12,4,26.019,4.5370832,0.8,0.4,0.657282,0,-0.2,-0.4,82.4, -1, 0.7,0,0,1024,1024,1024,1024,0,0,0,0,0,0,0,100,4.333,4.335,4.335,4.338,4.341,4.337,0,,4.5370832,0.8,11,AutoTakeoff,
4900,2024-11-04 00:15:36,-23.4437970503819,151.917278873457,0.8,,,4.5370832,0,0.2,0.682128,0.749066,12,4,26.019,4.5370832,0.8,0.4,0.682128,0,-0.2,-0.4,82.4, -1, 0.6,0,0,1024,1024,1024,1024,0,0,0,0,0,0,0,100,4.333,4.335,4.335,4.338,4.341,4.337,0,,4.5370832,0.8,11,AutoTakeoff,
5000,2024-11-04 00:15:36,-23.4437970109227,151.917278647602,0.9,,,4.6370832,0,0.2,0.705585,0.772523,12,4,26.019,4.6370832,0.9,0.4,0.705585,0,-0.2,-0.4,82.4, -1.1, 0.3,0,0,1024,1024,1024,1024,0,0,0,0,0,0,0,100,4.333,4.335,4.335,4.338,4.341,4.337,0,,4.6370832,0.9,11,AutoTakeoff,
5100,2024-11-04 00:15:36,-23.4437969828487,151.917278381841,0.9,,,4.6370832,0,0.2,0.732803,0.799816,12,4,26.019,4.6370832,0.9,0.4,0.732803,0,-0.2,-0.4,82.4, -1.5, 0.2,0,0,1024,1024,1024,1024,0,0,0,0,0,0,0,100,4.333,4.335,4.335,4.338,4.341,4.337,0,,4.6370832,0.9,11,AutoTakeoff,
5200,2024-11-04 00:15:36,-23.4437969436391,151.917278171512,0.9,,,4.6370832,0,0.2,0.754699,0.821714,12,4,26.019,4.6370832,0.9,0.4,0.754699,0,-0.2,-0.5,82.4, -1.9, 0.1,0,0,1024,1024,1024,1024,0,0,0,0,0,0,0,100,4.333,4.335,4.335,4.338,4.341,4.337,0,,4.6370832,0.9,11,AutoTakeoff,
5300,2024-11-04 00:15:36,-23.4437969017136,151.917277976862,1,,,4.7370832,0,0.2,0.77508,0.842113,12,4,26.019,4.7370832,1,0.4,0.77508,0,-0.2,-0.4,82.3, -2.4, 0.4,0,0,1024,1024,1024,1024,0,0,0,0,0,0,0,100,4.333,4.335,4.335,4.338,4.341,4.337,0,,4.7370832,1,11,AutoTakeoff,
5400,2024-11-04 00:15:36,-23.4437968625381,151.917277819069,1,,,4.7370832,0,0.2,0.791712,0.858791,12,4,26.019,4.7370832,1,0.4,0.791712,0,-0.2,-0.4,82.3, -2.7, 0.5,0,0,1024,1024,1024,1024,0,0,0,0,0,0,0,100,4.333,4.335,4.335,4.338,4.341,4.337,0,,4.7370832,1,6,P-GPS,
5500,2024-11-04 00:15:36,-23.4437968384998,151.917277659869,1.1,,,4.8370832,0,0.1,0.808167,0.875252,12,4,26.019,4.8370832,1.1,0.4,0.808167,0,-0.1,-0.3,82.3, -2.7, 0.7,0,0,1024,1024,1024,1024,0,0,0,0,0,0,0,100,4.333,4.335,4.335,4.338,4.341,4.337,0,,4.8370832,1.1,14,Waypoint,
5700,2024-11-04 00:15:36,-23.4437968613839,151.917277319556,1.1,,,4.8370832,0,0.1,0.841829,0.910066,12,4,26.019,4.8370832,1.1,0.4,0.841829,0,-0.1,-0.2,82.2, -1.4, 0.6,0,0,1024,1024,1024,1024,0,0,0,0,0,0,0,100,4.333,4.335,4.335,4.338,4.341,4.337,0,,4.8370832,1.1,14,Waypoint,
5800,2024-11-04 00:15:37,-23.4437969064597,151.91727712627,1.2,,,4.9370832,0,0.1,0.860379,0.930414,12,4,26.019,4.9370832,1.2,0.4,0.860379,0,-0.1,-0.3,82.2, -1.2, 0.5,0,0,1024,1024,1024,1024,0,0,0,0,0,0,0,100,4.333,4.335,4.335,4.338,4.341,4.337,0,,4.9370832,1.2,14,Waypoint,
5900,2024-11-04 00:15:37,-23.4437969537008,151.917276967154,1.2,,,4.9370832,0,0.1,0.875528,0.947477,12,4,26.019,4.9370832,1.2,0.4,0.875528,0,-0.1,-0.3,82.3, -1.2, 0.4,0,0,1024,1024,1024,1024,0,0,0,0,0,0,0,100,4.333,4.335,4.335,4.338,4.341,4.337,0,,4.9370832,1.2,14,Waypoint,
6000,2024-11-04 00:15:37,-23.4437970148538,151.917276800777,1.2,,,4.9370832,0,0.1,0.891247,0.965763,12,4,26.019,4.9370832,1.2,0.4,0.891247,0,-0.1,-0.5,82.4, -1.2, 0.3,0,0,1024,1024,1024,1024,0,0,0,0,0,0,0,100,4.333,4.335,4.335,4.338,4.341,4.337,0,,4.9370832,1.2,14,Waypoint,
6100,2024-11-04 00:15:37,-23.4437970790193,151.917276651499,1.3,,,5.0370832,0,0.1,0.905287,0.982582,12,4,26.019,5.0370832,1.3,0.4,0.905287,0,-0.1,-0.6,82.4, -1.1, 0.1,0,0,1024,1024,1024,1024,0,0,0,0,0,0,0,100,4.333,4.335,4.335,4.338,4.341,4.337,0,,5.0370832,1.3,14,Waypoint,
6200,2024-11-04 00:15:37,-23.4437971388431,151.917276505784,1.4,,,5.1370832,0,0.1,0.919123,0.998869,12,4,26.019,5.1370832,1.4,0.4,0.919123,0,-0.1,-0.8,82.4, -0.9, 0,0,0,1024,1024,1024,1024,0,0,0,0,0,0,0,100,4.333,4.335,4.335,4.338,4.341,4.337,0,,5.1370832,1.4,14,Waypoint,
6300,2024-11-04 00:15:37,-23.4437971939244,151.91727637009,1.5,,,5.2370832,0,0.1,0.932087,1.01401,12,4,26.019,5.2370832,1.5,0.4,0.932087,0,-0.1,-1.1,82.4, -0.6, -0.3,0,0,1024,1024,1024,1024,0,0,0,0,0,0,0,100,4.333,4.335,4.335,4.338,4.341,4.337,0,,5.2370832,1.5,14,Waypoint,
6400,2024-11-04 00:15:37,-23.4437972794942,151.917276210648,1.7,,,5.4370832,0,0.1,0.947146,1.03285,13,4,26.019,5.4370832,1.7,0.4,0.947146,0,-0.1,-1.3,82.4, -0.4, -0.5,0,0,1024,1024,1024,1024,0,0,0,0,0,0,0,100,4.333,4.335,4.335,4.338,4.341,4.337,0,,5.4370832,1.7,14,Waypoint,
6500,2024-11-04 00:15:37,-23.4437973668326,151.91727606427,1.8,,,5.5370832,0,0.1,0.960992,1.05067,13,4,26.019,5.5370832,1.8,0.4,0.960992,0,-0.1,-1.6,82.5, -0.5, -0.3,0,0,1024,1024,1024,1024,0,0,0,0,0,0,0,100,4.333,4.335,4.335,4.338,4.341,4.337,0,,5.5370832,1.8,14,Waypoint,
6600,2024-11-04 00:15:37,-23.4437974690183,151.917275857307,2,,,5.7370832,0,0.2,0.980985,1.07465,13,4,26.019,5.7370832,2,0.4,0.980985,0,-0.2,-1.9,82.5, -0.6, 0.1,0,0,1024,1024,1024,1024,0,0,0,0,0,0,0,100,4.333,4.335,4.335,4.338,4.341,4.337,0,,5.7370832,2,14,Waypoint,
6800,2024-11-04 00:15:38,-23.443797684268,151.917275438181,2.5,,,6.2370832,0,0.22,1.02195,1.12365,14,4,26.019,6.2370832,2.5,0.4,1.02195,-0.1,-0.2,-2.3,82.3, -1.5, 0.3,0,0,1024,1024,1024,1024,0,0,0,0,0,0,0,100,4.333,4.335,4.335,4.338,4.341,4.337,0,,6.2370832,2.5,14,Waypoint,
6900,2024-11-04 00:15:38,-23.4437978227664,151.917275242314,2.8,,,6.5370832,0,0.22,1.04114,1.14888,14,4,26.019,6.5370832,2.8,0.4,1.04114,-0.1,-0.2,-2.6,82.4, -2.2, 0.1,0,0,1024,1024,1024,1024,0,0,0,0,0,0,0,100,4.333,4.335,4.335,4.338,4.341,4.337,0,,6.5370832,2.8,14,Waypoint,
7000,2024-11-04 00:15:38,-23.4437980063099,151.91727490106,3.1,,,6.8370832,0,0.14,1.0753,1.18924,14,4,26.019,6.8370832,3.1,0.4,1.0753,-0.1,-0.1,-2.8,82.5, -2.8, 0,0,0,1024,1024,1024,1024,0,0,0,0,0,0,0,100,4.333,4.335,4.335,4.338,4.341,4.337,0,,6.8370832,3.1,14,Waypoint,
7100,2024-11-04 00:15:38,-23.443798194144,151.9172745829,3.5,,,7.2370832,0,0.14,1.10752,1.22784,14,4,26.019,7.2370832,3.5,0.4,1.10752,-0.1,-0.1,-3.1,82.6, -3.2, 0,0,0,1024,1024,1024,1024,0,0,0,0,0,0,0,100,4.333,4.335,4.335,4.338,4.341,4.337,0,,7.2370832,3.5,14,Waypoint,
7200,2024-11-04 00:15:38,-23.4437984418527,151.917274274233,3.9,,,7.6370832,0,0.14,1.13929,1.26968,14,4,26.019,7.6370832,3.9,0.4,1.13929,-0.1,-0.1,-3.3,82.5, -3.6, 0,0,0,1024,1024,1024,1024,0,0,0,0,0,0,0,100,4.333,4.335,4.335,4.338,4.341,4.337,0,,7.6370832,3.9,14,Waypoint,
7300,2024-11-04 00:15:38,-23.4437986524179,151.917274126591,4.2,,,7.9370832,0,0.14,1.1551,1.29753,14,4,26.019,7.9370832,4.2,0.4,1.1551,-0.1,-0.1,-3.3,82.3, -4.2, -0.3,0,0,1024,1024,1024,1024,0,0,0,0,0,0,0,100,4.333,4.335,4.335,4.338,4.341,4.337,0,,7.9370832,4.2,14,Waypoint,
7400,2024-11-04 00:15:38,-23.4437989100467,151.917273985338,4.6,,,8.3370832,0,0.14,1.17105,1.3296,14,4,26.019,8.3370832,4.6,0.4,1.17105,-0.1,-0.1,-3.3,82.3, -4.5, -1,0,0,1024,1024,1024,1024,0,0,0,0,0,0,0,100,4.333,4.335,4.335,4.338,4.341,4.337,0,,8.3370832,4.6,14,Waypoint,
7500,2024-11-04 00:15:38,-23.4437991550436,151.917273905841,4.9,,,8.6370832,0,0.14,1.18125,1.35802,14,4,26.019,8.6370832,4.9,0.4,1.18125,-0.1,-0.1,-3.2,82.3, -4.8, -1.8,0,0,1024,1024,1024,1024,0,0,0,0,0,0,0,99,4.333,4.335,4.335,4.338,4.341,4.337,0,,8.6370832,4.9,14,Waypoint,
7600,2024-11-04 00:15:38,-23.4437993971529,151.917273902349,5.2,,,8.9370832,0,0,1.18429,1.38495,15,4,26.019,8.9370832,5.2,0.4,1.18429,0,0,-3.2,82.3, -4.8, -2.5,0,0,1024,1024,1024,1024,0,0,0,0,0,0,0,99,4.333,4.335,4.335,4.338,4.341,4.337,0,,8.9370832,5.2,14,Waypoint,
7700,2024-11-04 00:15:38,-23.4437995847725,151.917273975564,5.5,,,9.2370832,0,0,1.17939,1.40711,15,4,26.019,9.2370832,5.5,0.4,1.18429,0,0,-3,82.4, -4.6, -2.9,0,0,1024,1024,1024,1024,0,0,0,0,0,0,0,99,4.333,4.335,4.335,4.338,4.341,4.337,0,,9.2370832,5.5,14,Waypoint,
7800,2024-11-04 00:15:39,-23.443799677161,151.917274112855,5.8,,,9.5370832,0,0,1.16689,1.42448,15,4,26.019,9.5370832,5.8,0.4,1.18429,0,0,-2.9,82.3, -4.4, -3.1,0,0,1024,1024,1024,1024,0,0,0,0,0,0,0,99,4.333,4.335,4.335,4.338,4.341,4.337,0,,9.5370832,5.8,14,Waypoint,
7900,2024-11-04 00:15:39,-23.443799714496,151.917274278197,6,,,9.7370832,0,0,1.15078,1.44186,15,4,26.019,9.7370832,6,0.4,1.18429,0,0,-2.9,82.3, -4.1, -3,0,0,1024,1024,1024,1024,0,0,0,0,0,0,0,99,4.333,4.335,4.335,4.338,4.341,4.337,0,,9.7370832,6,14,Waypoint,
8000,2024-11-04 00:15:39,-23.4437996247964,151.917274525442,6.3,,,10.0370832,0,0,1.12439,1.46898,15,4,26.019,10.0370832,6.3,0.4,1.18429,0,0,-2.8,82.3, -3.7, -2.6,0,0,1024,1024,1024,1024,0,0,0,0,0,0,0,99,4.333,4.335,4.335,4.338,4.341,4.337,0,,10.0370832,6.3,14,Waypoint,
8100,2024-11-04 00:15:39,-23.443799503334,151.91727477307,6.5,,,10.2370832,0,0.1,1.09753,1.49763,15,4,26.019,10.2370832,6.5,0.4,1.18429,0.1,0,-2.8,82.3, -3, -2,0,0,1024,1024,1024,1024,0,0,0,0,0,0,0,99,4.333,4.335,4.335,4.338,4.341,4.337,0,,10.2370832,6.5,14,Waypoint,
8200,2024-11-04 00:15:39,-23.4437991850318,151.917275070545,6.8,,,10.5370832,0,0.14,1.06327,1.54426,16,4,26.019,10.5370832,6.8,0.4,1.18429,0.1,0.1,-2.7,82.1, -2.5, -1.2,0,0,1024,1024,1024,1024,0,0,0,0,0,0,0,99,4.333,4.335,4.335,4.338,4.341,4.337,0,,10.5370832,6.8,14,Waypoint,
8300,2024-11-04 00:15:39,-23.4437988747571,151.917275359719,7.1,,,10.8370832,0,0.22,1.03089,1.58966,16,4,26.019,10.8370832,7.1,0.4,1.18429,0.2,0.1,-2.8,82.1, -1.6, -0.3,0,0,1024,1024,1024,1024,0,0,0,0,0,0,0,99,4.333,4.335,4.335,4.338,4.341,4.337,0,,10.8370832,7.1,14,Waypoint,
8400,2024-11-04 00:15:39,-23.4437984548388,151.917275735822,7.4,,,11.1370832,0,0.22,0.990251,1.6501,16,4,26.019,11.1370832,7.4,0.4,1.18429,0.2,0.1,-2.8,82.1, -0.5, 0.3,0,0,1024,1024,1024,1024,0,0,0,0,0,0,0,99,4.333,4.335,4.335,4.338,4.341,4.337,0,,11.1370832,7.4,14,Waypoint,
8600,2024-11-04 00:15:40,-23.4437978632454,151.917276396002,7.9,,,11.6370832,0,0.14,0.923349,1.74425,16,4,26.019,11.6370832,7.9,0.4,1.18429,0.1,0.1,-2.8,82.2, 0.3, 0.8,0,0,1024,1024,1024,1024,0,0,0,0,0,0,0,99,4.333,4.335,4.335,4.338,4.341,4.337,0,,11.6370832,7.9,14,Waypoint,
8800,2024-11-04 00:15:40,-23.4437974499048,151.917276796831,8.5,,,12.2370832,0,0,0.885709,1.80577,16,4,26.019,12.2370832,8.5,0.4,1.18429,0,0,-2.9,82.3, -0.5, 0.6,0,0,1024,1024,1024,1024,0,0,0,0,0,0,0,99,4.333,4.335,4.335,4.338,4.341,4.337,0,,12.2370832,8.5,14,Waypoint,
8900,2024-11-04 00:15:40,-23.4437973035386,151.917276901047,8.8,,,12.5370832,0,0,0.876853,1.82522,16,4,26.019,12.5370832,8.8,0.4,1.18429,0,0,-3,82.4, -1, 0.6,0,0,1024,1024,1024,1024,0,0,0,0,0,0,0,99,4.333,4.335,4.335,4.338,4.341,4.337,0,,12.5370832,8.8,14,Waypoint,
9000,2024-11-04 00:15:40,-23.4437972070195,151.917277018693,9.1,,,12.8370832,0,0,0.866252,1.84132,16,4,26.019,12.8370832,9.1,0.4,1.18429,0,0,-3,82.4, -1.6, 0.5,0,0,1024,1024,1024,1024,0,0,0,0,0,0,0,99,4.333,4.335,4.335,4.338,4.341,4.337,0,,12.8370832,9.1,14,Waypoint,
9100,2024-11-04 00:15:40,-23.4437971805492,151.917277127593,9.4,,,13.1370832,0,0,0.855626,1.85281,16,4,26.019,13.1370832,9.4,0.4,1.18429,0,0,-3,82.4, -2, 0.3,0,0,1024,1024,1024,1024,0,0,0,0,0,0,0,99,4.333,4.335,4.335,4.338,4.341,4.337,0,,13.1370832,9.4,14,Waypoint,
9200,2024-11-04 00:15:40,-23.4437971579671,151.917277258101,9.7,,,13.4370832,0,0,0.842779,1.86636,16,4,23.98,13.4370832,9.7,0.4,1.18429,0,0,-3,82.4, -2.2, 0.2,0,0,1024,1024,1024,1024,0,0,0,0,0,0,0,99,3.995,3.998,4.018,4,3.992,3.977,0,,13.4370832,9.7,14,Waypoint,
9300,2024-11-04 00:15:40,-23.4437971381673,151.917277382371,10,,,13.7370832,0,0,0.830539,1.87923,16,4,23.98,13.7370832,10,0.4,1.18429,0,0,-3,82.4, -2.1, 0,0,0,1024,1024,1024,1024,0,0,0,0,0,0,0,99,3.995,3.998,4.018,4,3.992,3.977,0,,13.7370832,10,14,Waypoint,
9400,2024-11-04 00:15:40,-23.4437971159366,151.91727752922,10.3,,,14.0370832,0,0,0.816081,1.89442,16,4,23.98,14.0370832,10.3,0.4,1.18429,0,0,-3,82.3, -2.1, 0,0,0,1024,1024,1024,1024,0,0,0,0,0,0,0,99,3.995,3.998,4.018,4,3.992,3.977,0,,14.0370832,10.3,14,Waypoint,
9500,2024-11-04 00:15:40,-23.4437970972192,151.917277681022,10.6,,,14.3370832,0,0,0.801091,1.91004,16,4,23.98,14.3370832,10.6,0.4,1.18429,0,0,-2.9,82.2, -2.1, -0.2,0,0,1024,1024,1024,1024,0,0,0,0,0,0,0,99,3.995,3.998,4.018,4,3.992,3.977,0,,14.3370832,10.6,14,Waypoint,
9600,2024-11-04 00:15:40,-23.4437969601649,151.917277775106,10.9,,,14.6370832,0,0,0.79414,1.92806,16,4,23.98,14.6370832,10.9,0.4,1.18429,0,0,-2.8,82.2, -2.2, -0.3,0,0,1024,1024,1024,1024,0,0,0,0,0,0,0,99,3.995,3.998,4.018,4,3.992,3.977,0,,14.6370832,10.9,14,Waypoint,
9700,2024-11-04 00:15:41,-23.443796804883,151.917277850606,11.2,,,14.9370832,0,0,0.789799,1.94696,16,4,23.98,14.9370832,11.2,0.4,1.18429,0,0,-2.6,82.3, -2.2, -0.4,0,0,1024,1024,1024,1024,0,0,0,0,0,0,0,99,3.995,3.998,4.018,4,3.992,3.977,0,,14.9370832,11.2,14,Waypoint,
9900,2024-11-04 00:15:41,-23.4437964817545,151.917278057489,11.6,,,15.3370832,0,0,0.777234,1.98864,16,4,23.98,15.3370832,11.6,0.4,1.18429,0,0,-2.3,82.3, -2, 0,0,0,1024,1024,1024,1024,0,0,0,0,0,0,0,99,3.995,3.998,4.018,4,3.992,3.977,0,,15.3370832,11.6,14,Waypoint,
10100,2024-11-04 00:15:41,-23.4437962267369,151.917278376365,12,,,15.7370832,0,0.1,0.753577,2.0318,16,4,23.98,15.7370832,12,0.4,1.18429,0,0.1,-2,82.3, -1.5, 0.5,0,0,1024,1024,1024,1024,0,0,0,0,0,0,0,99,3.995,3.998,4.018,4,3.992,3.977,0,,15.7370832,12,14,Waypoint,
10200,2024-11-04 00:15:41,-23.4437961008704,151.917278532528,12.2,,,15.9370832,0,0.1,0.742666,2.053,16,4,23.98,15.9370832,12.2,0.4,1.18429,0,0.1,-1.9,82.3, -1, 0.5,0,0,1024,1024,1024,1024,0,0,0,0,0,0,0,99,3.995,3.998,4.018,4,3.992,3.977,0,,15.9370832,12.2,14,Waypoint,
10300,2024-11-04 00:15:41,-23.4437960285928,151.917278644921,12.4,,,16.1370832,0,0,0.734416,2.06701,16,4,23.98,16.1370832,12.4,0.4,1.18429,0,0,-1.8,82.3, -0.6, 0.5,0,0,1024,1024,1024,1024,0,0,0,0,0,0,0,99,3.995,3.998,4.018,4,3.992,3.977,0,,16.1370832,12.4,14,Waypoint,
10400,2024-11-04 00:15:41,-23.4437959872018,151.917278745938,12.5,,,16.2370832,0,0,0.726253,2.0783,16,4,23.98,16.2370832,12.5,0.4,1.18429,0,0,-1.7,82.3, -0.2, 0.4,0,0,1024,1024,1024,1024,0,0,0,0,0,0,0,99,3.995,3.998,4.018,4,3.992,3.977,0,,16.2370832,12.5,14,Waypoint,
10500,2024-11-04 00:15:41,-23.44379601433,151.917278836679,12.7,,,16.4370832,0,0,0.716521,2.08803,16,4,24.036,16.4370832,12.7,0.4,1.18429,0,0,-1.6,82.3, 0, 0.3,0,0,1024,1024,1024,1024,0,0,0,0,0,0,0,99,4,4.006,4.009,4.008,4.006,4.007,0,,16.4370832,12.7,14,Waypoint,
10700,2024-11-04 00:15:42,-23.4437960376428,151.917278918174,13,,,16.7370832,0,0,0.707821,2.09674,16,4,24.036,16.7370832,13,0.4,1.18429,0,0,-1.5,82.2, 0, -0.1,0,0,1024,1024,1024,1024,0,0,0,0,0,0,0,99,4,4.006,4.009,4.008,4.006,4.007,0,,16.7370832,13,14,Waypoint,
10800,2024-11-04 00:15:42,-23.443796015452,151.917278902667,13.2,,,16.9370832,0,0,0.710154,2.09967,16,4,24.036,16.9370832,13.2,0.4,1.18429,0,0,-1.5,82.2, 0, -0.2,0,0,1024,1024,1024,1024,0,0,0,0,0,0,0,99,4,4.006,4.009,4.008,4.006,4.007,0,,16.9370832,13.2,14,Waypoint,
10900,2024-11-04 00:15:42,-23.443796023486,151.917278839451,13.3,,,17.0370832,0,0,0.715909,2.10619,16,4,24.036,17.0370832,13.3,0.4,1.18429,0,0,-1.4,82.2, -0.1, -0.3,0,0,1024,1024,1024,1024,0,0,0,0,0,0,0,99,4,4.006,4.009,4.008,4.006,4.007,0,,17.0370832,13.3,14,Waypoint,
11000,2024-11-04 00:15:42,-23.4437960046441,151.917278706877,13.5,,,17.2370832,0,0,0.729346,2.11987,16,4,24.036,17.2370832,13.5,0.4,1.18429,0,0,-1.4,82.2, -0.4, -0.2,0,0,1024,1024,1024,1024,0,0,0,0,0,0,0,99,4,4.006,4.009,4.008,4.006,4.007,0,,17.2370832,13.5,14,Waypoint,
11100,2024-11-04 00:15:42,-23.4437960217973,151.917278539528,13.6,,,17.3370832,0,0,0.744819,2.13705,16,4,24.036,17.3370832,13.6,0.4,1.18429,0,0,-1.3,82.3, -0.9, -0.1,0,0,1024,1024,1024,1024,0,0,0,0,0,0,0,99,4,4.006,4.009,4.008,4.006,4.007,0,,17.3370832,13.6,14,Waypoint,
11200,2024-11-04 00:15:42,-23.4437959928085,151.917278285399,13.7,,,17.4370832,0,0.1,0.770394,2.16318,16,4,24.036,17.4370832,13.7,0.4,1.18429,0,-0.1,-1.3,82.3, -1.5, 0,0,0,1024,1024,1024,1024,0,0,0,0,0,0,0,99,4,4.006,4.009,4.008,4.006,4.007,0,,17.4370832,13.7,14,Waypoint,
11300,2024-11-04 00:15:42,-23.4437959884915,151.917278029749,13.8,,,17.5370832,0,0.1,0.795294,2.18927,16,4,24.036,17.5370832,13.8,0.4,1.18429,0,-0.1,-1.2,82.3, -2.1, 0.1,0,0,1024,1024,1024,1024,0,0,0,0,0,0,0,99,4,4.006,4.009,4.008,4.006,4.007,0,,17.5370832,13.8,14,Waypoint,
11400,2024-11-04 00:15:42,-23.4437959069187,151.917277681158,13.9,,,17.6370832,0,0.1,0.83192,2.22597,16,4,24.036,17.6370832,13.9,0.4,1.18429,0,-0.1,-1.1,82.3, -2.6, 0.2,0,0,1024,1024,1024,1024,0,0,0,0,0,0,0,99,4,4.006,4.009,4.008,4.006,4.007,0,,17.6370832,13.9,14,Waypoint,
11500,2024-11-04 00:15:42,-23.4437958501536,151.917277327473,14.1,,,17.8370832,0,0.1,0.868209,2.2626,16,4,24.036,17.8370832,14.1,0.4,1.18429,0,-0.1,-1.1,82.3, -3.2, 0.4,0,0,1024,1024,1024,1024,0,0,0,0,0,0,0,98,4,4.006,4.009,4.008,4.006,4.007,0,,17.8370832,14.1,14,Waypoint,
11600,2024-11-04 00:15:42,-23.4437957075247,151.917276925833,14.2,,,17.9370832,0,0.1,0.91207,2.30655,16,4,24.036,17.9370832,14.2,0.4,1.18429,0,-0.1,-1,82.3, -3.7, 0.6,0,0,1024,1024,1024,1024,0,0,0,0,0,0,0,98,4,4.006,4.009,4.008,4.006,4.007,0,,17.9370832,14.2,14,Waypoint,
11700,2024-11-04 00:15:43,-23.4437956392066,151.917276607942,14.3,,,18.0370832,0,0.1,0.945277,2.33986,16,4,24.036,18.0370832,14.3,0.4,1.18429,0,-0.1,-0.9,83.8, -3.5, 0.4,0,0,1024,1024,1024,1024,0,0,0,0,0,0,0,98,4,4.006,4.009,4.008,4.006,4.007,0,,18.0370832,14.3,14,Waypoint,
11800,2024-11-04 00:15:43,-23.4437955334367,151.917276320161,14.4,,,18.1370832,0,0.1,0.976824,2.37149,16,5,24.036,18.1370832,14.4,0.4,1.18429,0,-0.1,-0.7,87.7, -2.7, 0,0,0,1024,1024,1024,1024,0,0,0,0,0,0,0,98,4,4.006,4.009,4.008,4.006,4.007,0,,18.1370832,14.4,14,Waypoint,
11900,2024-11-04 00:15:43,-23.4437955102159,151.917276095162,14.4,,,18.1370832,0,0.1,0.999484,2.39459,16,5,24.036,18.1370832,14.4,0.4,1.18429,0,-0.1,-0.5,93.7, -1.9, -0.5,0,0,1024,1024,1024,1024,0,0,0,0,0,0,0,98,4,4.006,4.009,4.008,4.006,4.007,0,,18.1370832,14.4,14,Waypoint,
12000,2024-11-04 00:15:43,-23.4437954791452,151.917275900194,14.5,,,18.2370832,0,0.1,1.0195,2.41478,16,5,24.036,18.2370832,14.5,0.4,1.18429,0,-0.1,-0.3,101.7, -1.5, -0.9,0,0,1024,1024,1024,1024,0,0,0,0,0,0,0,98,4,4.006,4.009,4.008,4.006,4.007,0,,18.2370832,14.5,14,Waypoint,
12100,2024-11-04 00:15:43,-23.4437954919838,151.917275666229,14.5,,,18.2370832,0,0.1,1.04189,2.43869,16,5,24.036,18.2370832,14.5,0.4,1.18429,0,-0.1,-0.1,111.4, -1.4, -1.3,0,0,1024,1024,1024,1024,0,0,0,0,0,0,0,98,4,4.006,4.009,4.008,4.006,4.007,0,,18.2370832,14.5,14,Waypoint,
12200,2024-11-04 00:15:43,-23.4437954827481,151.917275453411,14.5,,,18.2370832,0,0.1,1.06298,2.46043,16,5,24.036,18.2370832,14.5,0.4,1.18429,0,-0.1,0,121.1, -2.4, -1.9,0,0,1024,1024,1024,1024,0,0,0,0,0,0,0,98,4,4.006,4.009,4.008,4.006,4.007,0,,18.2370832,14.5,14,Waypoint,
12300,2024-11-04 00:15:43,-23.4437955016845,151.917275216233,14.5,,,18.2370832,0,0.1,1.08561,2.48472,16,5,24.036,18.2370832,14.5,0.4,1.18429,0,-0.1,0,130.7, -3.4, -2.1,0,0,1024,1024,1024,1024,0,0,0,0,0,0,0,98,4,4.006,4.009,4.008,4.006,4.007,0,,18.2370832,14.5,14,Waypoint,
12400,2024-11-04 00:15:43,-23.4437955341768,151.917274979917,14.4,,,18.1370832,0,0.1,1.10781,2.5091,14,5,24.036,18.2370832,14.5,0.4,1.18429,0,-0.1,0,140.2, -4, -1.9,0,0,1024,1024,1024,1024,0,0,0,0,0,0,0,98,4,4.006,4.009,4.008,4.006,4.007,0,,18.1370832,14.4,14,Waypoint,
12500,2024-11-04 00:15:43,-23.4437956360637,151.917274732077,14.5,,,18.2370832,0,0.14,1.12926,2.5368,14,5,24.036,18.2370832,14.5,0.4,1.18429,-0.1,-0.1,0,149.4, -4.2, -1.6,0,0,1024,1024,1024,1024,0,0,0,0,0,0,0,97,4,4.006,4.009,4.008,4.006,4.007,0,,18.2370832,14.5,14,Waypoint,
12600,2024-11-04 00:15:43,-23.4437957653662,151.917274504258,14.5,,,18.2370832,0,0.14,1.14826,2.56414,15,5,24.036,18.2370832,14.5,0.4,1.18429,-0.1,-0.1,0,156.9, -4.3, -0.8,0,0,1024,1024,1024,1024,0,0,0,0,0,0,0,97,4,4.006,4.009,4.008,4.006,4.007,0,,18.2370832,14.5,14,Waypoint,
12700,2024-11-04 00:15:44,-23.4437959832316,151.917274273575,14.5,,,18.2370832,0,0.22,1.16575,2.59791,15,5,24.354,18.2370832,14.5,0.4,1.18429,-0.2,-0.1,0,162.1, -4.2, 0,0,0,1024,1024,1024,1024,0,0,0,0,0,0,0,97,4.052,4.059,4.073,4.064,4.052,4.054,0,,18.2370832,14.5,14,Waypoint,
12800,2024-11-04 00:15:44,-23.4437962629576,151.917273996277,14.5,,,18.2370832,0,0.32,1.18733,2.63996,16,5,24.354,18.2370832,14.5,0.4,1.18733,-0.3,-0.1,0,165.4, -3.3, 0.1,0,0,1024,1024,1024,1024,0,0,0,0,0,0,0,97,4.052,4.059,4.073,4.064,4.052,4.054,0,,18.2370832,14.5,14,Waypoint,
12900,2024-11-04 00:15:44,-23.4437966093635,151.917273712712,14.5,,,18.2370832,0,0.32,1.20951,2.68814,16,5,24.354,18.2370832,14.5,0.4,1.20951,-0.3,-0.1,0,167.2, -2.1, -0.4,0,0,1024,1024,1024,1024,0,0,0,0,0,0,0,97,4.052,4.059,4.073,4.064,4.052,4.054,0,,18.2370832,14.5,14,Waypoint,
13000,2024-11-04 00:15:44,-23.4437969875749,151.917273386538,14.5,,,18.2370832,0,0.41,1.2371,2.74177,16,5,24.354,18.2370832,14.5,0.41,1.2371,-0.4,-0.1,0,167.8, -1.8, -0.7,0,0,1024,1024,1024,1024,0,0,0,0,0,0,0,97,4.052,4.059,4.073,4.064,4.052,4.054,0,,18.2370832,14.5,14,Waypoint,
13100,2024-11-04 00:15:44,-23.4437974516448,151.917273060728,14.4,,,18.1370832,0,0.45,1.26565,2.80316,16,5,24.354,18.2370832,14.5,0.45,1.26565,-0.4,-0.2,0,168, -2.6, -1.4,0,0,1024,1024,1024,1024,0,0,0,0,0,0,0,97,4.052,4.059,4.073,4.064,4.052,4.054,0,,18.1370832,14.4,14,Waypoint,
13200,2024-11-04 00:15:44,-23.4437979680541,151.917272720147,14.4,,,18.1370832,0,0.54,1.29785,2.87028,16,5,24.354,18.2370832,14.5,0.54,1.29785,-0.5,-0.2,0,168.3, -3.7, -2.4,0,0,1024,1024,1024,1024,0,0,0,0,0,0,0,97,4.052,4.059,4.073,4.064,4.052,4.054,0,,18.1370832,14.4,14,Waypoint,
13300,2024-11-04 00:15:44,-23.4437985692158,151.91727241353,14.4,,,18.1370832,0,0.61,1.32944,2.94409,16,5,24.354,18.2370832,14.5,0.61,1.32944,-0.6,-0.1,0,168.5, -5.1, -3.1,0,0,1024,1024,1024,1024,0,0,0,0,0,0,0,97,4.052,4.059,4.073,4.064,4.052,4.054,0,,18.1370832,14.4,14,Waypoint,
13400,2024-11-04 00:15:44,-23.4437992812891,151.917272132835,14.5,,,18.2370832,0,0.71,1.36267,3.0283,16,5,24.354,18.2370832,14.5,0.71,1.36267,-0.7,-0.1,0,168.7, -6.5, -3.7,0,0,1024,1024,1024,1024,0,0,0,0,0,0,0,97,4.052,4.059,4.073,4.064,4.052,4.054,0,,18.2370832,14.5,14,Waypoint,
13500,2024-11-04 00:15:44,-23.4438001042443,151.917271924691,14.5,,,18.2370832,0,0.81,1.39467,3.12225,16,5,24.354,18.2370832,14.5,0.81,1.39467,-0.8,-0.1,0,168.9, -7.5, -4.1,0,0,1024,1024,1024,1024,0,0,0,0,0,0,0,97,4.052,4.059,4.073,4.064,4.052,4.054,0,,18.2370832,14.5,14,Waypoint,
13600,2024-11-04 00:15:44,-23.4438011421225,151.917271674765,14.5,,,18.2370832,0,1,1.44151,3.24045,16,5,24.354,18.2370832,14.5,1,1.44151,-1,0,-0.1,168.9, -8.2, -4.2,0,0,1024,1024,1024,1024,0,0,0,0,0,0,0,97,4.052,4.059,4.073,4.064,4.052,4.054,0,,18.2370832,14.5,14,Waypoint,
13700,2024-11-04 00:15:45,-23.4438021873361,151.917271502952,14.5,,,18.2370832,0,1.1,1.48886,3.358,16,5,24.354,18.2370832,14.5,1.1,1.48886,-1.1,0,-0.1,168.9, -8.9, -4.4,0,0,1024,1024,1024,1024,0,0,0,0,0,0,0,97,4.052,4.059,4.073,4.064,4.052,4.054,0,,18.2370832,14.5,14,Waypoint,
13800,2024-11-04 00:15:45,-23.4438034836034,151.917271342999,14.6,,,18.3370832,0,1.1,1.55293,3.50307,16,5,24.354,18.3370832,14.6,1.1,1.55293,-1.3,0,-0.1,168.9, -9.4, -4.6,0,0,1024,1024,1024,1024,0,0,0,0,0,0,0,97,4.052,4.059,4.073,4.064,4.052,4.054,0,,18.3370832,14.6,14,Waypoint,
13900,2024-11-04 00:15:45,-23.4438048881651,151.917271291655,14.6,,,18.3370832,0,1.4,1.62302,3.65935,16,5,24.354,18.3370832,14.6,1.4,1.62302,-1.4,0,0,169, -9.9, -4.8,0,0,1024,1024,1024,1024,0,0,0,0,0,0,0,97,4.052,4.059,4.073,4.064,4.052,4.054,0,,18.3370832,14.6,14,Waypoint,
14000,2024-11-04 00:15:45,-23.4438065425724,151.917271225926,14.6,,,18.3370832,0,1.6,1.72064,3.84346,16,5,24.354,18.3370832,14.6,1.6,1.72064,-1.6,0,0,169, -10.4, -5.1,0,0,1024,1024,1024,1024,0,0,0,0,0,0,0,97,4.052,4.059,4.073,4.064,4.052,4.054,0,,18.3370832,14.6,14,Waypoint,
14100,2024-11-04 00:15:45,-23.4438083258047,151.917271258784,14.6,,,18.3370832,0,1.6,1.83237,4.04179,16,5,24.354,18.3370832,14.6,1.6,1.83237,-1.8,0.1,0,169, -10.7, -5.3,0,0,1024,1024,1024,1024,0,0,0,0,0,0,0,97,4.052,4.059,4.073,4.064,4.052,4.054,0,,18.3370832,14.6,14,Waypoint,
14200,2024-11-04 00:15:45,-23.4438104153573,151.917271253971,14.6,,,18.3370832,0,1.9,1.98385,4.27416,16,5,24.354,18.3370832,14.6,1.9,1.98385,-1.9,0.1,0,169, -11, -5.4,0,0,1024,1024,1024,1024,0,0,0,0,0,0,0,97,4.052,4.059,4.073,4.064,4.052,4.054,0,,18.3370832,14.6,14,Waypoint,
14300,2024-11-04 00:15:45,-23.4438125732239,151.917271371385,14.6,,,18.3370832,0,2.11,2.14709,4.51443,16,5,24.354,18.3370832,14.6,2.11,2.14709,-2.1,0.2,0.1,169, -11.2, -5.4,0,0,1024,1024,1024,1024,0,0,0,0,0,0,0,97,4.052,4.059,4.073,4.064,4.052,4.054,0,,18.3370832,14.6,14,Waypoint,
14400,2024-11-04 00:15:45,-23.4438151174511,151.917271497237,14.6,,,18.3370832,0,2.11,2.35733,4.79765,16,5,24.354,18.3370832,14.6,2.11,2.35733,-2.3,0.3,0.1,168.9, -11.4, -5.4,0,0,1024,1024,1024,1024,0,0,0,0,0,0,0,97,4.052,4.059,4.073,4.064,4.052,4.054,0,,18.3370832,14.6,14,Waypoint,
14500,2024-11-04 00:15:45,-23.4438174766609,151.917271740462,14.6,,,18.3370832,0,2.52,2.55779,5.06118,16,5,24.354,18.3370832,14.6,2.52,2.55779,-2.5,0.3,0.1,168.9, -11.5, -5.2,0,0,1024,1024,1024,1024,0,0,0,0,0,0,0,97,4.052,4.059,4.073,4.064,4.052,4.054,0,,18.3370832,14.6,14,Waypoint,
14600,2024-11-04 00:15:45,-23.4438202843524,151.917271965151,14.6,,,18.3370832,0,2.52,2.81318,5.37426,16,5,24.354,18.3370832,14.6,2.52,2.81318,-2.7,0.4,0.1,168.8, -11.5, -5.3,0,0,1024,1024,1024,1024,0,0,0,0,0,0,0,97,4.052,4.059,4.073,4.064,4.052,4.054,0,,18.3370832,14.6,14,Waypoint,
14700,2024-11-04 00:15:45,-23.4438231846177,151.917272308546,14.6,,,18.3370832,0,2.93,3.08321,5.69868,16,5,24.354,18.3370832,14.6,2.93,3.08321,-2.9,0.4,0.1,168.8, -11.5, -5.2,0,0,1024,1024,1024,1024,0,0,0,0,0,0,0,97,4.052,4.059,4.073,4.064,4.052,4.054,0,,18.3370832,14.6,14,Waypoint,
14800,2024-11-04 00:15:46,-23.4438265600629,151.917272634554,14.6,,,18.3370832,0,3.14,3.41231,6.07552,16,5,24.354,18.3370832,14.6,3.14,3.41231,-3.1,0.5,0,168.8, -11.6, -5.2,0,0,1024,1024,1024,1024,0,0,0,0,0,0,0,97,4.052,4.059,4.073,4.064,4.052,4.054,0,,18.3370832,14.6,14,Waypoint,
14900,2024-11-04 00:15:46,-23.4438299573961,151.917273134914,14.6,,,18.3370832,0,3.35,3.74671,6.45676,16,5,24.354,18.3370832,14.6,3.35,3.74671,-3.3,0.6,0,168.8, -11.7, -5.2,0,0,1024,1024,1024,1024,0,0,0,0,0,0,0,97,4.052,4.059,4.073,4.064,4.052,4.054,0,,18.3370832,14.6,14,Waypoint,
15000,2024-11-04 00:15:46,-23.443833750376,151.917273591289,14.6,,,18.3370832,0,3.45,4.13269,6.88112,16,5,24.354,18.3370832,14.6,3.45,4.13269,-3.4,0.6,0,168.8, -11.9, -5.2,0,0,1024,1024,1024,1024,0,0,0,0,0,0,0,97,4.052,4.059,4.073,4.064,4.052,4.054,0,,18.3370832,14.6,14,Waypoint,
15100,2024-11-04 00:15:46,-23.4438374857594,151.917274145482,14.6,,,18.3370832,0,3.65,4.5168,7.30035,16,5,24.354,18.3370832,14.6,3.65,4.5168,-3.6,0.6,0,168.7, -12.2, -5.2,0,0,1024,1024,1024,1024,0,0,0,0,0,0,0,97,4.052,4.059,4.073,4.064,4.052,4.054,0,,18.3370832,14.6,14,Waypoint,
15200,2024-11-04 00:15:46,-23.4438416883272,151.917274606935,14.6,,,18.3370832,0,3.96,4.95942,7.77007,16,5,24.354,18.3370832,14.6,3.96,4.95942,-3.9,0.7,0.1,168.7, -12.4, -5.4,0,0,1024,1024,1024,1024,0,0,0,0,0,0,0,97,4.052,4.059,4.073,4.064,4.052,4.054,0,,18.3370832,14.6,14,Waypoint,
15300,2024-11-04 00:15:46,-23.4438460815499,151.917275233303,14.6,,,18.3370832,0,4.16,5.42415,8.26278,16,5,24.354,18.3370832,14.6,4.16,5.42415,-4.1,0.7,0,168.8, -12.5, -5.7,0,0,1024,1024,1024,1024,0,0,0,0,0,0,0,97,4.052,4.059,4.073,4.064,4.052,4.054,0,,18.3370832,14.6,14,Waypoint,
15500,2024-11-04 00:15:46,-23.4438552478625,151.917276479006,14.6,,,18.3370832,0,4.57,6.40816,9.29002,16,5,24.354,18.3370832,14.6,4.57,6.40816,-4.5,0.8,0,168.7, -12.6, -6,0,0,1024,1024,1024,1024,0,0,0,0,0,0,0,97,4.052,4.059,4.073,4.064,4.052,4.054,0,,18.3370832,14.6,14,Waypoint,
15600,2024-11-04 00:15:46,-23.4438604678267,151.917277165908,14.6,,,18.3370832,0,4.79,6.97438,9.87473,16,5,24.354,18.3370832,14.6,4.79,6.97438,-4.7,0.9,0,168.7, -12.6, -6.1,0,0,1024,1024,1024,1024,0,0,0,0,0,0,0,97,4.052,4.059,4.073,4.064,4.052,4.054,0,,18.3370832,14.6,14,Waypoint,
15700,2024-11-04 00:15:47,-23.4438655800531,151.917278003126,14.6,,,18.3370832,0,5,7.52994,10.4496,16,5,24.354,18.3370832,14.6,5,7.52994,-4.9,1,0.1,168.7, -12.6, -6.5,0,0,1024,1024,1024,1024,0,0,0,0,0,0,0,97,4.052,4.059,4.073,4.064,4.052,4.054,0,,18.3370832,14.6,14,Waypoint,
15900,2024-11-04 00:15:47,-23.4438768409778,151.917279993173,14.6,,,18.3370832,0,5.51,8.76155,11.7183,16,5,24.354,18.3370832,14.6,5.51,8.76155,-5.4,1.1,0.1,168.7, -12.7, -6.4,0,0,1024,1024,1024,1024,0,0,0,0,0,0,0,97,4.052,4.059,4.073,4.064,4.052,4.054,0,,18.3370832,14.6,14,Waypoint,
16100,2024-11-04 00:15:47,-23.4438890214002,151.917282361975,14.5,,,18.2370832,0,5.92,10.1033,13.0942,16,5,24.354,18.3370832,14.6,5.92,10.1033,-5.8,1.2,0.1,168.5, -12.4, -6,0,0,1024,1024,1024,1024,0,0,0,0,0,0,0,97,4.052,4.059,4.073,4.064,4.052,4.054,0,,18.2370832,14.5,14,Waypoint,
16200,2024-11-04 00:15:47,-23.4438956916827,151.917283611454,14.5,,,18.2370832,0,6.12,10.8418,13.8468,16,5,24.354,18.3370832,14.6,6.12,10.8418,-6,1.2,0.1,168.5, -12, -5.8,0,0,1024,1024,1024,1024,0,0,0,0,0,0,0,97,4.052,4.059,4.073,4.064,4.052,4.054,0,,18.2370832,14.5,14,Waypoint,
16300,2024-11-04 00:15:47,-23.4439021535504,151.917284929311,14.5,,,18.2370832,0,6.33,11.559,14.5779,16,5,24.354,18.3370832,14.6,6.33,11.559,-6.2,1.3,0.1,168.5, -11.8, -5.8,0,0,1024,1024,1024,1024,0,0,0,0,0,0,0,97,4.052,4.059,4.073,4.064,4.052,4.054,0,,18.2370832,14.5,14,Waypoint,
16400,2024-11-04 00:15:47,-23.443909264138,151.917286244339,14.5,,,18.2370832,0,6.53,12.3498,15.38,16,5,24.354,18.3370832,14.6,6.53,12.3498,-6.4,1.3,0.1,168.5, -11.7, -5.6,0,0,1024,1024,1024,1024,0,0,0,0,0,0,0,97,4.052,4.059,4.073,4.064,4.052,4.054,0,,18.2370832,14.5,14,Waypoint,
16500,2024-11-04 00:15:47,-23.4439161233917,151.917287610266,14.5,,,18.2370832,0,6.73,13.1142,16.1554,16,5,24.354,18.3370832,14.6,6.73,13.1142,-6.6,1.3,0.1,168.5, -11.5, -5.7,0,0,1024,1024,1024,1024,0,0,0,0,0,0,0,97,4.052,4.059,4.073,4.064,4.052,4.054,0,,18.2370832,14.5,14,Waypoint,
16600,2024-11-04 00:15:47,-23.443923825085,151.917289037087,14.5,,,18.2370832,0,6.92,13.9737,17.0241,16,5,24.354,18.3370832,14.6,6.92,13.9737,-6.8,1.3,0,168.5, -11.1, -5.8,0,0,1024,1024,1024,1024,0,0,0,0,0,0,0,97,4.052,4.059,4.073,4.064,4.052,4.054,0,,18.2370832,14.5,14,Waypoint,
16700,2024-11-04 00:15:48,-23.4439311867201,151.917290531883,14.4,,,18.1370832,0,7.14,14.7966,17.8569,16,5,24.354,18.3370832,14.6,7.14,14.7966,-7,1.4,0,168.5, -10.9, -5.9,0,0,1024,1024,1024,1024,0,0,0,0,0,0,0,97,4.052,4.059,4.073,4.064,4.052,4.054,0,,18.1370832,14.4,14,Waypoint,
16800,2024-11-04 00:15:48,-23.4439397559442,151.91729222465,14.4,,,18.1370832,0,7.33,15.7557,18.8253,16,5,24.047,18.3370832,14.6,7.33,15.7557,-7.2,1.4,0.1,168.4, -10.9, -6.4,0,0,1024,1024,1024,1024,0,0,0,0,0,0,0,97,3.999,4.005,4.011,4.012,4.011,4.009,0,,18.1370832,14.4,14,Waypoint,
16900,2024-11-04 00:15:48,-23.4439471208362,151.917293805606,14.4,,,18.1370832,0,7.55,16.5815,19.6601,16,5,24.047,18.3370832,14.6,7.55,16.5815,-7.4,1.5,0.1,168.4, -10.9, -6.4,0,0,1024,1024,1024,1024,0,0,0,0,0,0,0,97,3.999,4.005,4.011,4.012,4.011,4.009,0,,18.1370832,14.4,14,Waypoint,
17000,2024-11-04 00:15:48,-23.4439555175755,151.917295592234,14.4,,,18.1370832,0,7.77,17.5239,20.6115,16,5,24.047,18.3370832,14.6,7.77,17.5239,-7.6,1.6,0,168.4, -10.5, -6.2,0,0,1024,1024,1024,1024,0,0,0,0,0,0,0,97,3.999,4.005,4.011,4.012,4.011,4.009,0,,18.1370832,14.4,14,Waypoint,
17100,2024-11-04 00:15:48,-23.4439639339082,151.917297500964,14.4,,,18.1370832,0,7.98,18.4702,21.5675,16,5,24.047,18.3370832,14.6,7.98,18.4702,-7.8,1.7,0,168.3, -9, -5.8,0,0,1024,1024,1024,1024,0,0,0,0,0,0,0,97,3.999,4.005,4.011,4.012,4.011,4.009,0,,18.1370832,14.4,14,Waypoint,
17200,2024-11-04 00:15:48,-23.4439722277558,151.917299319191,14.3,,,18.0370832,0,8.08,19.4033,22.5083,16,5,24.047,18.3370832,14.6,8.08,19.4033,-7.9,1.7,0.1,168.2, -6.9, -5.6,0,0,1024,1024,1024,1024,0,0,0,0,0,0,0,97,3.999,4.005,4.011,4.012,4.011,4.009,0,,18.0370832,14.3,14,Waypoint,
17400,2024-11-04 00:15:48,-23.4439895187045,151.917303182151,14.3,,,18.0370832,0,8.28,21.3513,24.4711,16,5,24.047,18.3370832,14.6,8.28,21.3513,-8.1,1.7,0.1,168, -2.7, -5.1,0,0,1024,1024,1024,1024,0,0,0,0,0,0,0,97,3.999,4.005,4.011,4.012,4.011,4.009,0,,18.0370832,14.3,14,Waypoint,
17500,2024-11-04 00:15:48,-23.4439980120691,151.917305133615,14.3,,,18.0370832,0,8.3,22.3096,25.4364,16,5,24.047,18.3370832,14.6,8.3,22.3096,-8.1,1.8,0.1,168, -0.8, -4.9,0,0,1024,1024,1024,1024,0,0,0,0,0,0,0,97,3.999,4.005,4.011,4.012,4.011,4.009,0,,18.0370832,14.3,14,Waypoint,
17700,2024-11-04 00:15:49,-23.4440152228201,151.917309034122,14.2,,,17.9370832,0,8.3,24.2526,27.3913,16,5,24.047,18.3370832,14.6,8.3,24.2526,-8.1,1.8,0,167.9, 1.7, -4.5,0,0,1024,1024,1024,1024,0,0,0,0,0,0,0,97,3.999,4.005,4.011,4.012,4.011,4.009,0,,17.9370832,14.2,14,Waypoint,
17800,2024-11-04 00:15:49,-23.4440240061129,151.917311066549,14.2,,,17.9370832,0,8.3,25.2454,28.3898,15,5,24.047,18.3370832,14.6,8.3,25.2454,-8.1,1.8,0,167.9, 2.9, -4.3,0,0,1024,1024,1024,1024,0,0,0,0,0,0,0,97,3.999,4.005,4.011,4.012,4.011,4.009,0,,17.9370832,14.2,14,Waypoint,
17900,2024-11-04 00:15:49,-23.4440322683687,151.917313053138,14.2,,,17.9370832,0,8.28,26.1804,29.3307,15,5,24.047,18.3370832,14.6,8.3,26.1804,-8.1,1.7,0,167.9, 4, -4.1,0,0,1024,1024,1024,1024,0,0,0,0,0,0,0,97,3.999,4.005,4.011,4.012,4.011,4.009,0,,17.9370832,14.2,14,Waypoint,
18000,2024-11-04 00:15:49,-23.4440409650153,151.917315155666,14.2,,,17.9370832,0,8.18,27.1652,30.3213,16,5,24.047,18.3370832,14.6,8.3,27.1652,-8,1.7,0,167.9, 4.7, -4.1,0,0,1024,1024,1024,1024,0,0,0,0,0,0,0,97,3.999,4.005,4.011,4.012,4.011,4.009,0,,17.9370832,14.2,14,Waypoint,
18100,2024-11-04 00:15:49,-23.4440490610135,151.9173171277,14.1,,,17.8370832,0,8.08,28.0826,31.2438,16,5,24.047,18.3370832,14.6,8.3,28.0826,-7.9,1.7,0,167.9, 5.1, -3.8,0,0,1024,1024,1024,1024,0,0,0,0,0,0,0,97,3.999,4.005,4.011,4.012,4.011,4.009,0,,17.8370832,14.1,14,Waypoint,
18200,2024-11-04 00:15:49,-23.4440577080772,151.917319204692,14.1,,,17.8370832,0,7.98,29.0624,32.2285,16,5,24.047,18.3370832,14.6,8.3,29.0624,-7.8,1.7,0,167.9, 5.2, -3.6,0,0,1024,1024,1024,1024,0,0,0,0,0,0,0,97,3.999,4.005,4.011,4.012,4.011,4.009,0,,17.8370832,14.1,14,Waypoint,
18300,2024-11-04 00:15:49,-23.4440661996961,151.917321200315,14.2,,,17.9370832,0,7.98,30.0243,33.1945,16,5,24.047,18.3370832,14.6,8.3,30.0243,-7.8,1.7,-0.1,167.9, 5.2, -3.6,0,0,1024,1024,1024,1024,0,0,0,0,0,0,0,97,3.999,4.005,4.011,4.012,4.011,4.009,0,,17.9370832,14.2,14,Waypoint,
18400,2024-11-04 00:15:49,-23.444074424146,151.917323182794,14.3,,,18.0370832,0,7.86,30.9568,34.1312,16,5,24.047,18.3370832,14.6,8.3,30.9568,-7.7,1.6,-0.2,167.9, 5.3, -3.5,0,0,1024,1024,1024,1024,0,0,0,0,0,0,0,97,3.999,4.005,4.011,4.012,4.011,4.009,0,,18.0370832,14.3,14,Waypoint,
18600,2024-11-04 00:15:49,-23.444090812155,151.917327362063,14.3,,,18.0370832,0,7.77,32.8188,36.0029,16,5,24.047,18.3370832,14.6,8.3,32.8188,-7.6,1.6,-0.2,167.9, 5, -4,0,0,1024,1024,1024,1024,0,0,0,0,0,0,0,97,3.999,4.005,4.011,4.012,4.011,4.009,0,,18.0370832,14.3,14,Waypoint,
18700,2024-11-04 00:15:50,-23.4440985996869,151.91732940165,14.3,,,18.0370832,0,7.77,33.7046,36.8936,16,5,24.047,18.3370832,14.6,8.3,33.7046,-7.6,1.6,-0.2,167.9, 4.8, -3.9,0,0,1024,1024,1024,1024,0,0,0,0,0,0,0,97,3.999,4.005,4.011,4.012,4.011,4.009,0,,18.0370832,14.3,14,Waypoint,
18800,2024-11-04 00:15:50,-23.4441069289565,151.917331810071,14.3,,,18.0370832,0,7.67,34.6556,37.8519,16,5,23.958,18.3370832,14.6,8.3,34.6556,-7.5,1.6,-0.1,167.9, 5.1, -3.5,0,0,1024,1024,1024,1024,0,0,0,0,0,0,0,97,3.984,3.992,3.992,4.001,3.99,3.999,0,,18.0370832,14.3,14,Waypoint,
18900,2024-11-04 00:15:50,-23.4441146155508,151.917333970139,14.3,,,18.0370832,0,7.57,35.5326,38.7346,16,5,23.958,18.3370832,14.6,8.3,35.5326,-7.4,1.6,-0.2,167.9, 5.8, -2.9,0,0,1024,1024,1024,1024,0,0,0,0,0,0,0,97,3.984,3.992,3.992,4.001,3.99,3.999,0,,18.0370832,14.3,14,Waypoint,
19000,2024-11-04 00:15:50,-23.4441228872126,151.917336439111,14.4,,,18.1370832,0,7.57,36.4788,39.6884,16,5,23.958,18.3370832,14.6,8.3,36.4788,-7.4,1.6,-0.1,167.9, 6, -2.4,0,0,1024,1024,1024,1024,0,0,0,0,0,0,0,97,3.984,3.992,3.992,4.001,3.99,3.999,0,,18.1370832,14.4,14,Waypoint,
19100,2024-11-04 00:15:50,-23.4441304981951,151.917338563606,14.4,,,18.1370832,0,7.57,37.3476,40.5621,16,5,23.958,18.3370832,14.6,8.3,37.3476,-7.4,1.6,-0.1,168, 6.2, -2.1,0,0,1024,1024,1024,1024,0,0,0,0,0,0,0,97,3.984,3.992,3.992,4.001,3.99,3.999,0,,18.1370832,14.4,14,Waypoint,
19200,2024-11-04 00:15:50,-23.4441386834841,151.91734101782,14.4,,,18.1370832,0,7.47,38.2847,41.5061,16,5,23.958,18.3370832,14.6,8.3,38.2847,-7.3,1.6,-0.1,168, 6.5, -1.8,0,0,1024,1024,1024,1024,0,0,0,0,0,0,0,97,3.984,3.992,3.992,4.001,3.99,3.999,0,,18.1370832,14.4,14,Waypoint,
19300,2024-11-04 00:15:50,-23.4441465373002,151.917343224208,14.4,,,18.1370832,0,7.45,39.1819,42.4081,16,5,23.958,18.3370832,14.6,8.3,39.1819,-7.3,1.5,-0.1,168, 6.8, -1.5,0,0,1024,1024,1024,1024,0,0,0,0,0,0,0,97,3.984,3.992,3.992,4.001,3.99,3.999,0,,18.1370832,14.4,14,Waypoint,
19400,2024-11-04 00:15:50,-23.4441542275683,151.917345544283,14.4,,,18.1370832,0,7.35,40.0631,43.2954,15,5,23.958,18.3370832,14.6,8.3,40.0631,-7.2,1.5,-0.1,168, 6.9, -1.1,0,0,1024,1024,1024,1024,0,0,0,0,0,0,0,97,3.984,3.992,3.992,4.001,3.99,3.999,0,,18.1370832,14.4,14,Waypoint,
19500,2024-11-04 00:15:50,-23.4441619602021,151.917347692254,14.4,,,18.1370832,0,7.26,40.9465,44.1828,15,5,23.958,18.3370832,14.6,8.3,40.9465,-7.1,1.5,-0.1,168.1, 6.8, -0.9,0,0,1024,1024,1024,1024,0,0,0,0,0,0,0,97,3.984,3.992,3.992,4.001,3.99,3.999,0,,18.1370832,14.4,14,Waypoint,
19600,2024-11-04 00:15:50,-23.4441694921073,151.917349954445,14.4,,,18.1370832,0,7.24,41.8099,45.0516,16,5,23.958,18.3370832,14.6,8.3,41.8099,-7.1,1.4,-0.1,168.1, 6.8, -0.8,0,0,1024,1024,1024,1024,0,0,0,0,0,0,0,97,3.984,3.992,3.992,4.001,3.99,3.999,0,,18.1370832,14.4,14,Waypoint,
19700,2024-11-04 00:15:51,-23.4441766688293,151.917351909043,14.4,,,18.1370832,0,7.12,42.6295,45.8743,16,5,23.958,18.3370832,14.6,8.3,42.6295,-7,1.3,0,168.1, 6.8, -0.7,0,0,1024,1024,1024,1024,0,0,0,0,0,0,0,97,3.984,3.992,3.992,4.001,3.99,3.999,0,,18.1370832,14.4,14,Waypoint,
19800,2024-11-04 00:15:51,-23.4441842873157,151.917354144705,14.4,,,18.1370832,0,7.02,43.5023,46.7517,16,5,23.958,18.3370832,14.6,8.3,43.5023,-6.9,1.3,0,168.1, 7, -0.6,0,0,1024,1024,1024,1024,0,0,0,0,0,0,0,97,3.984,3.992,3.992,4.001,3.99,3.999,0,,18.1370832,14.4,14,Waypoint,
19900,2024-11-04 00:15:51,-23.4441912356126,151.917355976987,14.5,,,18.2370832,0,6.92,44.2951,47.5466,16,5,23.958,18.3370832,14.6,8.3,44.2951,-6.8,1.3,0,168.1, 6.8, -0.3,0,0,1024,1024,1024,1024,0,0,0,0,0,0,0,97,3.984,3.992,3.992,4.001,3.99,3.999,0,,18.2370832,14.5,14,Waypoint,
20000,2024-11-04 00:15:51,-23.4441986412809,151.91735811321,14.5,,,18.2370832,0,6.81,45.1432,48.3985,16,5,23.958,18.3370832,14.6,8.3,45.1432,-6.7,1.2,-0.1,168, 6.2, -0.3,0,0,1024,1024,1024,1024,0,0,0,0,0,0,0,97,3.984,3.992,3.992,4.001,3.99,3.999,0,,18.2370832,14.5,14,Waypoint,
20100,2024-11-04 00:15:51,-23.4442054439038,151.917359870449,14.5,,,18.2370832,0,6.81,45.9189,49.176,16,5,23.958,18.3370832,14.6,8.3,45.9189,-6.7,1.2,-0.1,168, 5.7, 0,0,0,1024,1024,1024,1024,0,0,0,0,0,0,0,97,3.984,3.992,3.992,4.001,3.99,3.999,0,,18.2370832,14.5,14,Waypoint,
20200,2024-11-04 00:15:51,-23.4442126804483,151.917361960268,14.5,,,18.2370832,0,6.71,46.7479,50.0085,16,5,23.958,18.3370832,14.6,8.3,46.7479,-6.6,1.2,-0.1,168.1, 5.3, 0,0,0,1024,1024,1024,1024,0,0,0,0,0,0,0,97,3.984,3.992,3.992,4.001,3.99,3.999,0,,18.2370832,14.5,14,Waypoint,
20300,2024-11-04 00:15:51,-23.4442193440412,151.917363685538,14.5,,,18.2370832,0,6.71,47.5079,50.7702,16,5,23.958,18.3370832,14.6,8.3,47.5079,-6.6,1.2,-0.1,168.1, 4.7, 0.2,0,0,1024,1024,1024,1024,0,0,0,0,0,0,0,97,3.984,3.992,3.992,4.001,3.99,3.999,0,,18.2370832,14.5,14,Waypoint,
20400,2024-11-04 00:15:51,-23.4442267254261,151.917365722898,14.5,,,18.2370832,0,6.71,48.3521,51.6169,16,5,23.958,18.3370832,14.6,8.3,48.3521,-6.6,1.2,-0.1,168.1, 4.2, 0.2,0,0,1024,1024,1024,1024,0,0,0,0,0,0,0,97,3.984,3.992,3.992,4.001,3.99,3.999,0,,18.2370832,14.5,14,Waypoint,
20500,2024-11-04 00:15:51,-23.4442329031173,151.917367215871,14.6,,,18.3370832,0,6.59,49.055,52.3206,16,5,23.958,18.3370832,14.6,8.3,49.055,-6.5,1.1,-0.1,168, 4.2, 0.3,0,0,1024,1024,1024,1024,0,0,0,0,0,0,0,97,3.984,3.992,3.992,4.001,3.99,3.999,0,,18.3370832,14.6,14,Waypoint,
20600,2024-11-04 00:15:51,-23.4442400544616,151.917369076386,14.6,,,18.3370832,0,6.59,49.871,53.1382,16,5,23.958,18.3370832,14.6,8.3,49.871,-6.5,1.1,-0.1,168.1, 3.8, 0.5,0,0,1024,1024,1024,1024,0,0,0,0,0,0,0,97,3.984,3.992,3.992,4.001,3.99,3.999,0,,18.3370832,14.6,14,Waypoint,
20700,2024-11-04 00:15:51,-23.4442460865309,151.917370419212,14.6,,,18.3370832,0,6.48,50.5553,53.8229,16,5,23.958,18.3370832,14.6,8.3,50.5553,-6.4,1,-0.1,168.1, 3.5, 0.4,0,0,1024,1024,1024,1024,0,0,0,0,0,0,0,97,3.984,3.992,3.992,4.001,3.99,3.999,0,,18.3370832,14.6,14,Waypoint,
20800,2024-11-04 00:15:52,-23.4442527225053,151.917372040361,14.6,,,18.3370832,0,6.48,51.3107,54.5791,16,5,24.152,18.3370832,14.6,8.3,51.3107,-6.4,1,-0.1,168, 2.7, 0.3,0,0,1024,1024,1024,1024,0,0,0,0,0,0,0,97,4.017,4.028,4.028,4.026,4.027,4.026,0,,18.3370832,14.6,14,Waypoint,
20900,2024-11-04 00:15:52,-23.4442589180442,151.917373341718,14.6,,,18.3370832,0,6.36,52.0123,55.2808,16,5,24.152,18.3370832,14.6,8.3,52.0123,-6.3,0.9,-0.1,168, 2.2, 0.1,0,0,1024,1024,1024,1024,0,0,0,0,0,0,0,97,4.017,4.028,4.028,4.026,4.027,4.026,0,,18.3370832,14.6,14,Waypoint,
21000,2024-11-04 00:15:52,-23.4442653401063,151.917374819139,14.7,,,18.4370832,0,6.36,52.7417,56.0107,16,5,24.152,18.4370832,14.7,8.3,52.7417,-6.3,0.9,-0.1,168.1, 1.6, -0.2,0,0,1024,1024,1024,1024,0,0,0,0,0,0,0,97,4.017,4.028,4.028,4.026,4.027,4.026,0,,18.4370832,14.7,14,Waypoint,
21100,2024-11-04 00:15:52,-23.44427136389,151.91737599944,14.7,,,18.4370832,0,6.35,53.4224,56.6913,16,5,24.152,18.4370832,14.7,8.3,53.4224,-6.3,0.8,0,168.1, 1.2, -0.4,0,0,1024,1024,1024,1024,0,0,0,0,0,0,0,97,4.017,4.028,4.028,4.026,4.027,4.026,0,,18.4370832,14.7,14,Waypoint,
21200,2024-11-04 00:15:52,-23.4442776359267,151.917377318324,14.7,,,18.4370832,0,6.35,54.1326,57.4017,15,5,24.152,18.4370832,14.7,8.3,54.1326,-6.3,0.8,0,168, 0.5, -0.4,0,0,1024,1024,1024,1024,0,0,0,0,0,0,0,97,4.017,4.028,4.028,4.026,4.027,4.026,0,,18.4370832,14.7,14,Waypoint,
21300,2024-11-04 00:15:52,-23.4442836304245,151.917378379166,14.7,,,18.4370832,0,6.25,54.8079,58.077,15,5,24.152,18.4370832,14.7,8.3,54.8079,-6.2,0.8,0,168, 0.1, -0.7,0,0,1024,1024,1024,1024,0,0,0,0,0,0,0,97,4.017,4.028,4.028,4.026,4.027,4.026,0,,18.4370832,14.7,14,Waypoint,
21400,2024-11-04 00:15:52,-23.4442898393036,151.917379595035,14.7,,,18.4370832,0,6.24,55.5094,58.7785,16,5,24.152,18.4370832,14.7,8.3,55.5094,-6.2,0.7,0,168, -0.4, -0.8,0,0,1024,1024,1024,1024,0,0,0,0,0,0,0,97,4.017,4.028,4.028,4.026,4.027,4.026,0,,18.4370832,14.7,14,Waypoint,
21500,2024-11-04 00:15:52,-23.4442960569894,151.91738065738,14.7,,,18.4370832,0,6.24,56.2092,59.4784,16,5,24.152,18.4370832,14.7,8.3,56.2092,-6.2,0.7,0,168, -0.7, -1.1,0,0,1024,1024,1024,1024,0,0,0,0,0,0,0,97,4.017,4.028,4.028,4.026,4.027,4.026,0,,18.4370832,14.7,14,Waypoint,
21600,2024-11-04 00:15:52,-23.4443021846809,151.917381835281,14.7,,,18.4370832,0,6.24,56.9011,60.1704,16,5,24.152,18.4370832,14.7,8.3,56.9011,-6.2,0.7,0,168, -1.3, -1.5,0,0,1024,1024,1024,1024,0,0,0,0,0,0,0,97,4.017,4.028,4.028,4.026,4.027,4.026,0,,18.4370832,14.7,14,Waypoint,
21700,2024-11-04 00:15:53,-23.4443080950728,151.917382859968,14.7,,,18.4370832,0,6.34,57.5666,60.8359,16,5,24.152,18.4370832,14.7,8.3,57.5666,-6.3,0.7,0,168, -1.8, -1.4,0,0,1024,1024,1024,1024,0,0,0,0,0,0,0,97,4.017,4.028,4.028,4.026,4.027,4.026,0,,18.4370832,14.7,14,Waypoint,
21800,2024-11-04 00:15:53,-23.4443138529381,151.917383923695,14.7,,,18.4370832,0,6.34,58.216,61.4854,16,5,24.248,18.4370832,14.7,8.3,58.216,-6.3,0.7,0,168, -2, -1.1,0,0,1024,1024,1024,1024,0,0,0,0,0,0,0,97,4.04,4.045,4.047,4.048,4.016,4.052,0,,18.4370832,14.7,14,Waypoint,
21900,2024-11-04 00:15:53,-23.4443197047581,151.91738484926,14.7,,,18.4370832,0,6.34,58.8733,62.1429,16,5,24.248,18.4370832,14.7,8.3,58.8733,-6.3,0.7,0,168, -2.3, -0.9,0,0,1024,1024,1024,1024,0,0,0,0,0,0,0,97,4.04,4.045,4.047,4.048,4.016,4.052,0,,18.4370832,14.7,14,Waypoint,
22000,2024-11-04 00:15:53,-23.4443257496464,151.917385860696,14.7,,,18.4370832,0,6.34,59.5533,62.823,16,5,24.248,18.4370832,14.7,8.3,59.5533,-6.3,0.7,0,168, -2.7, -0.8,0,0,1024,1024,1024,1024,0,0,0,0,0,0,0,97,4.04,4.045,4.047,4.048,4.016,4.052,0,,18.4370832,14.7,14,Waypoint,
22100,2024-11-04 00:15:53,-23.4443316450827,151.917386729179,14.7,,,18.4370832,0,6.34,60.2144,63.4846,16,5,24.248,18.4370832,14.7,8.3,60.2144,-6.3,0.7,0,168, -3.1, -0.9,0,0,1024,1024,1024,1024,0,0,0,0,0,0,0,97,4.04,4.045,4.047,4.048,4.016,4.052,0,,18.4370832,14.7,14,Waypoint,
22200,2024-11-04 00:15:53,-23.4443376156619,151.917387566241,14.7,,,18.4370832,0,6.34,60.8831,64.154,16,5,24.248,18.4370832,14.7,8.3,60.8831,-6.3,0.7,0,168, -3.7, -1.3,0,0,1024,1024,1024,1024,0,0,0,0,0,0,0,97,4.04,4.045,4.047,4.048,4.016,4.052,0,,18.4370832,14.7,14,Waypoint,
22400,2024-11-04 00:15:53,-23.4443492570302,151.917388871986,14.7,,,18.4370832,0,6.33,62.1815,65.4555,16,5,24.248,18.4370832,14.7,8.3,62.1815,-6.3,0.6,0,168.1, -4.9, -2.2,0,0,1024,1024,1024,1024,0,0,0,0,0,0,0,97,4.04,4.045,4.047,4.048,4.016,4.052,0,,18.4370832,14.7,14,Waypoint,
22500,2024-11-04 00:15:53,-23.4443550284442,151.917389450903,14.7,,,18.4370832,0,6.33,62.824,66.1,16,5,24.248,18.4370832,14.7,8.3,62.824,-6.3,0.6,0,168, -5.4, -2.6,0,0,1024,1024,1024,1024,0,0,0,0,0,0,0,97,4.04,4.045,4.047,4.048,4.016,4.052,0,,18.4370832,14.7,14,Waypoint,
22600,2024-11-04 00:15:53,-23.4443610972511,151.91739002883,14.7,,,18.4370832,0,6.43,63.4992,66.7775,16,5,24.248,18.4370832,14.7,8.3,63.4992,-6.4,0.6,0,168.1, -6.1, -3,0,0,1024,1024,1024,1024,0,0,0,0,0,0,0,97,4.04,4.045,4.047,4.048,4.016,4.052,0,,18.4370832,14.7,14,Waypoint,
22700,2024-11-04 00:15:54,-23.4443666022777,151.91739059601,14.7,,,18.4370832,0,6.43,64.1124,67.3924,16,5,24.248,18.4370832,14.7,8.3,64.1124,-6.4,0.6,0,168.1, -6.5, -3,0,0,1024,1024,1024,1024,0,0,0,0,0,0,0,97,4.04,4.045,4.047,4.048,4.016,4.052,0,,18.4370832,14.7,14,Waypoint,
22800,2024-11-04 00:15:54,-23.444372381404,151.917391123952,14.7,,,18.4370832,0,6.43,64.7551,68.0373,16,5,24.289,18.4370832,14.7,8.3,64.7551,-6.4,0.6,0,168.1, -7, -3.4,0,0,1024,1024,1024,1024,0,0,0,0,0,0,0,97,4.039,4.042,4.056,4.046,4.057,4.049,0,,18.4370832,14.7,14,Waypoint,
23000,2024-11-04 00:15:54,-23.444384088848,151.917392201808,14.7,,,18.4370832,0,6.64,66.0573,69.3439,16,5,24.289,18.4370832,14.7,8.3,66.0573,-6.6,0.7,0,168.1, -7.6, -3.8,0,0,1024,1024,1024,1024,0,0,0,0,0,0,0,97,4.039,4.042,4.056,4.046,4.057,4.049,0,,18.4370832,14.7,14,Waypoint,
