time(millisecond),datetime(utc),latitude,longitude,height_above_takeoff(meters),height_above_ground_at_drone_location(meters),ground_elevation_at_drone_location(meters),altitude_above_seaLevel(meters),height_sonar(meters),speed(m/s),distance(meters),mileage(meters),satellites,gpslevel,voltage(v),max_altitude(meters),max_ascent(meters),max_speed(m/s),max_distance(meters), xSpeed(m/s), ySpeed(m/s), zSpeed(m/s), compass_heading(degrees), pitch(degrees), roll(degrees),isPhoto,isVideo,rc_elevator,rc_aileron,rc_throttle,rc_rudder,rc_elevator(percent),rc_aileron(percent),rc_throttle(percent),rc_rudder(percent),gimbal_heading(degrees),gimbal_pitch(degrees),gimbal_roll(degrees),battery_percent,voltageCell1,voltageCell2,voltageCell3,voltageCell4,voltageCell5,voltageCell6,current(A),battery_temperature(c),altitude(meters),ascent(meters),flycStateRaw,flycState,message
0,2024-11-04 06:13:37,-23.4439225714741,151.917303276232,0,Available with any HD 360 subscription,Available with any HD 360 subscription,2.6853211,0,0,0,0,16,5,0,2.6853211,0,0,0,0,0,0,80.8, -1.5, 1.3,0,0,1024,1024,1024,1024,0,0,0,0,0,0,0,100,4.328,4.33,4.329,4.333,4.336,4.331,0,,2.6853211,0,41,Motors_Started,
100,2024-11-04 06:13:37,-23.4439225692301,151.917303276965,0,,,2.6853211,0,0,0.000260504,0.000260504,16,5,0,2.6853211,0,0,0.000260504,0,0,0,81, -1.5, 1.3,0,0,1024,1024,1024,1024,0,0,0,0,0,0,0,100,4.328,4.33,4.329,4.333,4.336,4.331,0,,2.6853211,0,41,Motors_Started,
200,2024-11-04 06:13:37,-23.4439225753416,151.917303255902,0,,,2.6853211,0,0,0.00211836,0.00251442,16,5,0,2.6853211,0,0,0.00211836,0,0,0,81.1, -1.5, 1.3,0,0,1024,1024,1024,1024,0,0,0,0,0,0,0,100,4.328,4.33,4.329,4.333,4.336,4.331,0,,2.6853211,0,41,Motors_Started,
300,2024-11-04 06:13:37,-23.443922576177,151.917303230842,0,,,2.6853211,0,0,0.00466043,0.00507286,16,5,0,2.6853211,0,0,0.00466043,0,0,0,81.3, -1.6, 1.3,0,0,1024,1024,1024,1024,0,0,0,0,0,0,0,100,4.328,4.33,4.329,4.333,4.336,4.331,0,,2.6853211,0,41,Motors_Started,
400,2024-11-04 06:13:37,-23.4439225545961,151.917303202821,0,,,2.6853211,0,0,0.00772147,0.00880554,16,5,0,2.6853211,0,0,0.00772147,0,0,0,81.3, -1.6, 1.3,0,0,1024,1024,1024,1024,0,0,0,0,0,0,0,100,4.328,4.33,4.329,4.333,4.336,4.331,0,,2.6853211,0,41,Motors_Started,
500,2024-11-04 06:13:37,-23.4439225254192,151.917303187124,0,,,2.6853211,0,0,0.0104347,0.0124239,16,5,0,2.6853211,0,0,0.0104347,0,0,0,81.5, -1.5, 1.3,0,0,1024,1024,1024,1024,0,0,0,0,0,0,0,100,4.328,4.33,4.329,4.333,4.336,4.331,0,,2.6853211,0,41,Motors_Started,
600,2024-11-04 06:13:37,-23.4439225227893,151.917303174683,0,,,2.6853211,0,0,0.0116899,0.0137264,16,5,0,2.6853211,0,0,0.0116899,0,0,0,81.5, -1.5, 1.3,0,0,1024,1024,1024,1024,0,0,0,0,0,0,0,100,4.328,4.33,4.329,4.333,4.336,4.331,0,,2.6853211,0,41,Motors_Started,
700,2024-11-04 06:13:38,-23.4439225338546,151.917303169521,0,,,2.6853211,0,0,0.0116634,0.0150649,16,5,0,2.6853211,0,0,0.0116899,0,0,0,81.6, -1.6, 1.3,0,0,1024,1024,1024,1024,0,0,0,0,0,0,0,100,4.328,4.33,4.329,4.333,4.336,4.331,0,,2.6853211,0,41,Motors_Started,
800,2024-11-04 06:13:38,-23.4439225276974,151.917303169198,0,,,2.6853211,0,0,0.0119562,0.0157504,16,5,0,2.6853211,0,0,0.0119562,0,0,0,81.7, -1.6, 1.3,0,0,1024,1024,1024,1024,0,0,0,0,0,0,0,100,4.328,4.33,4.329,4.333,4.336,4.331,0,,2.6853211,0,41,Motors_Started,
900,2024-11-04 06:13:38,-23.4439225067784,151.917303167209,0,,,2.6853211,0,0,0.0132472,0.0180855,16,5,0,2.6853211,0,0,0.0132472,0,0,0,81.7, -1.5, 1.3,0,0,1024,1024,1024,1024,0,0,0,0,0,0,0,100,4.328,4.33,4.329,4.333,4.336,4.331,0,,2.6853211,0,41,Motors_Started,
1000,2024-11-04 06:13:38,-23.4439224866948,151.917303142633,0,,,2.6853211,0,0,0.0165734,0.0214433,16,5,0,2.6853211,0,0,0.0165734,0,0,0,81.8, -1.5, 1.3,0,0,1024,1024,1024,1024,0,0,0,0,0,0,0,100,4.328,4.33,4.329,4.333,4.336,4.331,0,,2.6853211,0,41,Motors_Started,
1100,2024-11-04 06:13:38,-23.4439224736803,151.917303115417,0,,,2.6853211,0,0,0.0196843,0.0245746,16,5,0,2.6853211,0,0,0.0196843,0,0,0,81.8, -1.5, 1.3,0,0,1024,1024,1024,1024,0,0,0,0,0,0,0,100,4.328,4.33,4.329,4.333,4.336,4.331,0,,2.6853211,0,41,Motors_Started,
1200,2024-11-04 06:13:38,-23.4439224656333,151.917303087961,0,,,2.6853211,0,0,0.0225279,0.0275154,16,5,0,2.6853211,0,0,0.0225279,0,0,0,81.9, -1.5, 1.3,0,0,1024,1024,1024,1024,0,0,0,0,0,0,0,100,4.328,4.33,4.329,4.333,4.336,4.331,0,,2.6853211,0,41,Motors_Started,
1300,2024-11-04 06:13:38,-23.4439224582019,151.917303073004,0,,,2.6853211,0,0,0.024261,0.0292508,16,5,25.987,2.6853211,0,0,0.024261,0,0,0,81.9, -1.5, 1.3,0,0,1024,1024,1024,1024,0,0,0,0,0,0,0,100,4.328,4.33,4.329,4.333,4.336,4.331,0,,2.6853211,0,41,Motors_Started,
1400,2024-11-04 06:13:38,-23.4439224576808,151.917303062926,0,,,2.6853211,0,0,0.0251744,0.0302806,16,5,25.987,2.6853211,0,0,0.0251744,0,0,0,81.9, -1.5, 1.3,0,0,1024,1024,1024,1024,0,0,0,0,0,0,0,100,4.328,4.33,4.329,4.333,4.336,4.331,0,,2.6853211,0,41,Motors_Started,
1500,2024-11-04 06:13:38,-23.4439224542009,151.917303057311,0,,,2.6853211,0,0,0.0258643,0.0309719,16,5,25.987,2.6853211,0,0,0.0258643,0,0,0,81.9, -1.5, 1.3,0,0,1024,1024,1024,1024,0,0,0,0,0,0,0,100,4.328,4.33,4.329,4.333,4.336,4.331,0,,2.6853211,0,41,Motors_Started,
1600,2024-11-04 06:13:39,-23.4439224577786,151.917303059283,0,,,2.6853211,0,0,0.0254911,0.0314178,16,5,25.987,2.6853211,0,0,0.0258643,0,0,0,81.9, -1.5, 1.3,0,0,1024,1024,1024,1024,0,0,0,0,0,0,0,100,4.328,4.33,4.329,4.333,4.336,4.331,0,,2.6853211,0,41,Motors_Started,
1700,2024-11-04 06:13:39,-23.4439224572428,151.917303060042,0,,,2.6853211,0,0,0.0254536,0.0315155,16,5,25.987,2.6853211,0,0,0.0258643,0,0,0,81.9, -1.5, 1.3,0,0,1024,1024,1024,1024,0,0,0,0,0,0,0,100,4.328,4.33,4.329,4.333,4.336,4.331,0,,2.6853211,0,41,Motors_Started,
1800,2024-11-04 06:13:39,-23.4439224639194,151.917303039013,0,,,2.6853211,0,0,0.0269967,0.0337859,16,5,25.987,2.6853211,0,0,0.0269967,0,0,0,82, -1.5, 1.3,0,0,1024,1024,1024,1024,0,0,0,0,0,0,0,100,4.328,4.33,4.329,4.333,4.336,4.331,0,,2.6853211,0,41,Motors_Started,
1900,2024-11-04 06:13:39,-23.4439224655959,151.917303012079,0,,,2.6853211,0,0,0.0294102,0.0365401,16,5,25.987,2.6853211,0,0,0.0294102,0,0,0,82, -1.4, 1.3,0,0,1024,1024,1024,1024,0,0,0,0,0,0,0,100,4.328,4.33,4.329,4.333,4.336,4.331,0,,2.6853211,0,41,Motors_Started,
2000,2024-11-04 06:13:39,-23.443922473191,151.917302984127,0,,,2.6853211,0,0,0.0317433,0.0395143,16,5,25.987,2.6853211,0,0,0.0317433,0,0,0,82, -1.4, 1.3,0,0,1024,1024,1024,1024,0,0,0,0,0,0,0,100,4.328,4.33,4.329,4.333,4.336,4.331,0,,2.6853211,0,11,AutoTakeoff,
2100,2024-11-04 06:13:39,-23.4439224764934,151.917302968769,0,,,2.6853211,0,0,0.0330998,0.0411238,16,5,25.987,2.6853211,0,0,0.0330998,0,0,0,82.1, -1.4, 1.3,0,0,1024,1024,1024,1024,0,0,0,0,0,0,0,100,4.328,4.33,4.329,4.333,4.336,4.331,0,,2.6853211,0,11,AutoTakeoff,
2200,2024-11-04 06:13:39,-23.443922484187,151.917302958008,0,,,2.6853211,0,0,0.0338872,0.0425157,16,5,25.987,2.6853211,0,0,0.0338872,0,0,0,82.1, -1.3, 1.3,0,0,1024,1024,1024,1024,0,0,0,0,0,0,0,100,4.328,4.33,4.329,4.333,4.336,4.331,0,,2.6853211,0,11,AutoTakeoff,
2300,2024-11-04 06:13:39,-23.4439224881555,151.917302949885,0,,,2.6853211,0,0,0.0345611,0.0434546,16,5,25.981,2.6853211,0,0,0.0345611,0,0,0,82.1, -1.2, 1.3,0,0,1024,1024,1024,1024,0,0,0,0,0,0,0,100,4.328,4.329,4.328,4.332,4.334,4.33,0,,2.6853211,0,11,AutoTakeoff,
2400,2024-11-04 06:13:39,-23.4439224684856,151.917302910585,0,,,2.6853211,0,0,0.0390239,0.048022,16,5,25.981,2.6853211,0,0,0.0390239,0,0,0,82.3, -0.8, 1.3,0,0,1024,1024,1024,1024,0,0,0,0,0,0,0,100,4.328,4.329,4.328,4.332,4.334,4.33,0,,2.6853211,0,11,AutoTakeoff,
2500,2024-11-04 06:13:39,-23.4439224451565,151.917302835676,0,,,2.6853211,0,0,0.0470921,0.0560931,16,5,25.981,2.6853211,0,0,0.0470921,0,0,0,82.4, -0.2, 1.3,0,0,1024,1024,1024,1024,0,0,0,0,0,0,0,100,4.328,4.329,4.328,4.332,4.334,4.33,0,,2.6853211,0,11,AutoTakeoff,
2600,2024-11-04 06:13:40,-23.443922412761,151.917302729221,0,,,2.6853211,0,0,0.0585338,0.0675362,16,5,25.981,2.6853211,0,0,0.0585338,0,0,0,82.4, 0.4, 1.3,0,0,1024,1024,1024,1024,0,0,0,0,0,0,0,100,4.328,4.329,4.328,4.332,4.334,4.33,0,,2.6853211,0,11,AutoTakeoff,
2700,2024-11-04 06:13:40,-23.4439223863452,151.917302649974,0,,,2.6853211,0,0,0.0671295,0.0761386,16,5,25.981,2.6853211,0,0,0.0671295,0,0,0,82.5, 0.7, 1.3,0,0,1024,1024,1024,1024,0,0,0,0,0,0,0,100,4.328,4.329,4.328,4.332,4.334,4.33,0,,2.6853211,0,11,AutoTakeoff,
2800,2024-11-04 06:13:40,-23.4439223600092,151.917302572981,0,,,2.6853211,0,0,0.0755053,0.084522,16,5,25.981,2.6853211,0,0,0.0755053,0,0,0,82.7, 1, 1.3,0,0,1024,1024,1024,1024,0,0,0,0,0,0,0,100,4.328,4.329,4.328,4.332,4.334,4.33,0,,2.6853211,0,11,AutoTakeoff,
2900,2024-11-04 06:13:40,-23.4439223502149,151.917302502183,0,,,2.6853211,0,0,0.0827175,0.0918269,16,5,25.981,2.6853211,0,0,0.0827175,0,0,0.1,82.8, 1.5, 1.2,0,0,1024,1024,1024,1024,0,0,0,0,0,0,0,100,4.328,4.329,4.328,4.332,4.334,4.33,0,,2.6853211,0,11,AutoTakeoff,
3000,2024-11-04 06:13:40,-23.4439223611394,151.917302416969,0,,,2.6853211,0,0,0.090734,0.100605,16,5,25.981,2.6853211,0,0,0.090734,0,0,0.2,83, 2.5, 1,0,0,1024,1024,1024,1024,0,0,0,0,0,0,0,100,4.328,4.329,4.328,4.332,4.334,4.33,0,,2.6853211,0,11,AutoTakeoff,
3100,2024-11-04 06:13:40,-23.4439223994395,151.917302283313,0,,,2.6853211,0,0.1,0.103094,0.114891,16,5,25.981,2.6853211,0,0.1,0.103094,0,-0.1,0.2,83.3, 3.9, 0.7,0,0,1024,1024,1024,1024,0,0,0,0,0,0,0,100,4.328,4.329,4.328,4.332,4.334,4.33,0,,2.6853211,0,11,AutoTakeoff,
3200,2024-11-04 06:13:40,-23.4439224439213,151.917302035487,-0.1,,,2.5853211,0,0.2,0.127381,0.140656,16,5,25.981,2.6853211,0,0.2,0.127381,0,-0.2,0.1,83.5, 6.1, 0.5,0,0,1024,1024,1024,1024,0,0,0,0,0,0,0,100,4.328,4.329,4.328,4.332,4.334,4.33,0,,2.5853211,-0.1,11,AutoTakeoff,
3300,2024-11-04 06:13:40,-23.4439224997908,151.91730165632,-0.1,,,2.5853211,0,0.4,0.165465,0.179836,16,5,25.981,2.6853211,0,0.4,0.165465,0,-0.4,0,83.7, 8.6, 0.2,0,0,1024,1024,1024,1024,0,0,0,0,0,0,0,100,4.328,4.329,4.328,4.332,4.334,4.33,0,,2.5853211,-0.1,11,AutoTakeoff,
3400,2024-11-04 06:13:40,-23.4439225831777,151.917301030759,-0.1,,,2.5853211,0,0.51,0.2291,0.24433,16,5,25.966,2.6853211,0,0.51,0.2291,-0.1,-0.5,-0.1,83.6, 8.6, -0.1,0,0,1024,1024,1024,1024,0,0,0,0,0,0,0,100,4.325,4.326,4.326,4.33,4.332,4.327,0,,2.5853211,-0.1,11,AutoTakeoff,
3500,2024-11-04 06:13:40,-23.4439226874836,151.917300259138,0,,,2.6853211,0,0.71,0.308092,0.323905,16,5,25.966,2.6853211,0,0.71,0.308092,-0.1,-0.7,-0.3,83.6, 7.2, -0.5,0,0,1024,1024,1024,1024,0,0,0,0,0,0,0,100,4.325,4.326,4.326,4.33,4.332,4.327,0,,2.6853211,0,11,AutoTakeoff,
3600,2024-11-04 06:13:41,-23.4439227866571,151.917299173437,0,,,2.6853211,0,0.91,0.419275,0.435223,16,5,25.966,2.6853211,0,0.91,0.419275,-0.1,-0.9,-0.3,83.5, 5.4, -0.6,0,0,1024,1024,1024,1024,0,0,0,0,0,0,0,100,4.325,4.326,4.326,4.33,4.332,4.327,0,,2.6853211,0,11,AutoTakeoff,
3700,2024-11-04 06:13:41,-23.4439228926171,151.917298019391,0,,,2.6853211,0,1,0.537522,0.553554,16,5,25.966,2.6853211,0,1,0.537522,-0.1,-1,-0.2,83.5, 2.6, -0.5,0,0,1024,1024,1024,1024,0,0,0,0,0,0,0,100,4.325,4.326,4.326,4.33,4.332,4.327,0,,2.6853211,0,11,AutoTakeoff,
3800,2024-11-04 06:13:41,-23.4439229056935,151.917296615343,0,,,2.6853211,0,1.1,0.6806,0.69681,16,5,25.966,2.6853211,0,1.1,0.6806,-0.1,-1.1,-0.2,83.5, -0.6, -0.4,0,0,1024,1024,1024,1024,0,0,0,0,0,0,0,100,4.325,4.326,4.326,4.33,4.332,4.327,0,,2.6853211,0,11,AutoTakeoff,
3900,2024-11-04 06:13:41,-23.4439229246335,151.917295257564,0.1,,,2.7853211,0,1.1,0.819055,0.835355,16,5,25.966,2.7853211,0.1,1.1,0.819055,-0.1,-1.1,-0.3,83.5, -3.7, -0.3,0,0,1024,1024,1024,1024,0,0,0,0,0,0,0,99,4.325,4.326,4.326,4.33,4.332,4.327,0,,2.7853211,0.1,11,AutoTakeoff,"Setting new Return-To-Home altitude to 40m (131 ft). Data Recorder File Index is 367. Setting new Maximum Flight Altitude to 120m (394 ft)"
4000,2024-11-04 06:13:41,-23.4439228138044,151.917293791601,0.1,,,2.7853211,0,1,0.968054,0.985428,16,5,25.966,2.7853211,0.1,1.1,0.968054,-0.1,-1,-0.3,83.5, -6.3, -0.4,0,0,1024,1024,1024,1024,0,0,0,0,0,0,0,99,4.325,4.326,4.326,4.33,4.332,4.327,0,,2.7853211,0.1,11,AutoTakeoff,
4100,2024-11-04 06:13:41,-23.4439227737447,151.917292524387,0.1,,,2.7853211,0,0.9,1.0972,1.11479,16,5,25.966,2.7853211,0.1,1.1,1.0972,0,-0.9,-0.4,83.6, -7.6, -0.3,0,0,1024,1024,1024,1024,0,0,0,0,0,0,0,99,4.325,4.326,4.326,4.33,4.332,4.327,0,,2.7853211,0.1,11,AutoTakeoff,
4200,2024-11-04 06:13:41,-23.4439226423366,151.917291366827,0.2,,,2.8853211,0,0.8,1.21509,1.2338,16,5,25.966,2.8853211,0.2,1.1,1.21509,0,-0.8,-0.4,83.6, -7.6, 0.1,0,0,1024,1024,1024,1024,0,0,0,0,0,0,0,99,4.325,4.326,4.326,4.33,4.332,4.327,0,,2.8853211,0.2,11,AutoTakeoff,
4300,2024-11-04 06:13:41,-23.4439225651679,151.917290391383,0.2,,,2.8853211,0,0.7,1.31459,1.33369,16,5,25.966,2.8853211,0.2,1.1,1.31459,0,-0.7,-0.4,83.6, -7.1, 0.2,0,0,1024,1024,1024,1024,0,0,0,0,0,0,0,99,4.325,4.326,4.326,4.33,4.332,4.327,0,,2.8853211,0.2,11,AutoTakeoff,
4400,2024-11-04 06:13:41,-23.4439224142991,151.91728960555,0.3,,,2.9853211,0,0.7,1.39487,1.4156,16,5,24.536,2.9853211,0.3,1.1,1.39487,0,-0.7,-0.4,83.6, -6.4, 0.5,0,0,1024,1024,1024,1024,0,0,0,0,0,0,0,99,4.088,4.1,4.094,4.097,4.093,4.064,0,,2.9853211,0.3,11,AutoTakeoff,
4500,2024-11-04 06:13:41,-23.443922353427,151.917288939372,0.3,,,2.9853211,0,0.6,1.46293,1.4839,16,5,24.536,2.9853211,0.3,1.1,1.46293,0,-0.6,-0.5,83.7, -5.6, 0,0,0,1024,1024,1024,1024,0,0,0,0,0,0,0,99,4.088,4.1,4.094,4.097,4.093,4.064,0,,2.9853211,0.3,11,AutoTakeoff,
4600,2024-11-04 06:13:42,-23.4439222079728,151.917288530884,0.4,,,3.0853211,0,0.5,1.50495,1.52861,16,5,24.536,3.0853211,0.4,1.1,1.50495,0,-0.5,-0.6,83.7, -4.6, -0.1,0,0,1024,1024,1024,1024,0,0,0,0,0,0,0,99,4.088,4.1,4.094,4.097,4.093,4.064,0,,3.0853211,0.4,11,AutoTakeoff,
4700,2024-11-04 06:13:42,-23.4439221366893,151.917288117986,0.5,,,3.1853211,0,0.4,1.54729,1.57147,16,5,24.536,3.1853211,0.5,1.1,1.54729,0,-0.4,-0.7,83.7, -3.6, -0.2,0,0,1024,1024,1024,1024,0,0,0,0,0,0,0,99,4.088,4.1,4.094,4.097,4.093,4.064,0,,3.1853211,0.5,11,AutoTakeoff,
4800,2024-11-04 06:13:42,-23.443922021551,151.917287823176,0.6,,,3.2853211,0,0.4,1.5778,1.60416,16,5,24.536,3.2853211,0.6,1.1,1.5778,0,-0.4,-0.7,83.7, -3.3, -0.3,0,0,1024,1024,1024,1024,0,0,0,0,0,0,0,99,4.088,4.1,4.094,4.097,4.093,4.064,0,,3.2853211,0.6,11,AutoTakeoff,
4900,2024-11-04 06:13:42,-23.4439219701084,151.917287422814,0.7,,,3.3853211,0,0.4,1.61884,1.64541,16,5,24.536,3.3853211,0.7,1.1,1.61884,0,-0.4,-0.6,83.7, -3.1, -0.3,0,0,1024,1024,1024,1024,0,0,0,0,0,0,0,99,4.088,4.1,4.094,4.097,4.093,4.064,0,,3.3853211,0.7,11,AutoTakeoff,
5000,2024-11-04 06:13:42,-23.4439218869861,151.91728705102,0.7,,,3.3853211,0,0.4,1.65714,1.68445,16,5,24.536,3.3853211,0.7,1.1,1.65714,0,-0.4,-0.6,83.7, -3.2, -0.1,0,0,1024,1024,1024,1024,0,0,0,0,0,0,0,99,4.088,4.1,4.094,4.097,4.093,4.064,0,,3.3853211,0.7,11,AutoTakeoff,
5100,2024-11-04 06:13:42,-23.4439218449487,151.917286604033,0.8,,,3.4853211,0,0.4,1.70292,1.73029,16,5,24.536,3.4853211,0.8,1.1,1.70292,0,-0.4,-0.6,83.6, -3.7, 0,0,0,1024,1024,1024,1024,0,0,0,0,0,0,0,99,4.088,4.1,4.094,4.097,4.093,4.064,0,,3.4853211,0.8,11,AutoTakeoff,
5200,2024-11-04 06:13:42,-23.4439218028982,151.917286135486,0.9,,,3.5853211,0,0.4,1.75089,1.77833,16,5,24.536,3.5853211,0.9,1.1,1.75089,0,-0.4,-0.6,83.6, -4.2, 0,0,0,1024,1024,1024,1024,0,0,0,0,0,0,0,99,4.088,4.1,4.094,4.097,4.093,4.064,0,,3.5853211,0.9,11,AutoTakeoff,
5300,2024-11-04 06:13:42,-23.4439217923629,151.917285641275,0.9,,,3.5853211,0,0.4,1.80131,1.82876,16,5,24.536,3.5853211,0.9,1.1,1.80131,0,-0.4,-0.6,83.6, -4.6, 0.1,0,0,1024,1024,1024,1024,0,0,0,0,0,0,0,99,4.088,4.1,4.094,4.097,4.093,4.064,0,,3.5853211,0.9,11,AutoTakeoff,
5400,2024-11-04 06:13:42,-23.4439217704791,151.917285074308,1,,,3.6853211,0,0.4,1.85921,1.88666,16,5,23.842,3.6853211,1,1.1,1.85921,0,-0.4,-0.6,83.5, -4.7, 0.1,0,0,1024,1024,1024,1024,0,0,0,0,0,0,0,99,3.975,3.973,3.976,3.967,3.979,3.972,0,,3.6853211,1,11,AutoTakeoff,
5500,2024-11-04 06:13:42,-23.443921764173,151.917284538654,1.1,,,3.7853211,0,0.4,1.91383,1.94131,16,5,23.842,3.7853211,1.1,1.1,1.91383,0,-0.4,-0.6,83.6, -4.7, 0,0,0,1024,1024,1024,1024,0,0,0,0,0,0,0,99,3.975,3.973,3.976,3.967,3.979,3.972,0,,3.7853211,1.1,14,Waypoint,
5600,2024-11-04 06:13:43,-23.4439217768268,151.917283953345,1.2,,,3.8853211,0,0.4,1.97342,2.00105,16,5,23.842,3.8853211,1.2,1.1,1.97342,0,-0.4,-0.4,83.5, -4.5, 0.1,0,0,1024,1024,1024,1024,0,0,0,0,0,0,0,99,3.975,3.973,3.976,3.967,3.979,3.972,0,,3.8853211,1.2,14,Waypoint,
5700,2024-11-04 06:13:43,-23.4439218065174,151.917283456884,1.2,,,3.8853211,0,0.4,2.02388,2.05181,16,5,23.842,3.8853211,1.2,1.1,2.02388,0,-0.4,-0.3,83.5, -4.4, 0,0,0,1024,1024,1024,1024,0,0,0,0,0,0,0,99,3.975,3.973,3.976,3.967,3.979,3.972,0,,3.8853211,1.2,14,Waypoint,
5800,2024-11-04 06:13:43,-23.4439218683722,151.917282935874,1.2,,,3.8853211,0,0.4,2.07672,2.10541,16,5,23.842,3.8853211,1.2,1.1,2.07672,0,-0.4,-0.3,83.6, -4.5, -0.1,0,0,1024,1024,1024,1024,0,0,0,0,0,0,0,99,3.975,3.973,3.976,3.967,3.979,3.972,0,,3.8853211,1.2,14,Waypoint,
5900,2024-11-04 06:13:43,-23.4439219230488,151.917282490178,1.3,,,3.9853211,0,0.3,2.12194,2.15128,16,5,23.842,3.9853211,1.3,1.1,2.12194,0,-0.3,-0.3,83.6, -4.3, -0.3,0,0,1024,1024,1024,1024,0,0,0,0,0,0,0,99,3.975,3.973,3.976,3.967,3.979,3.972,0,,3.9853211,1.3,14,Waypoint,
6000,2024-11-04 06:13:43,-23.4439220225915,151.917282033138,1.3,,,3.9853211,0,0.3,2.16821,2.19921,16,5,23.842,3.9853211,1.3,1.1,2.16821,0,-0.3,-0.3,83.6, -3.9, -0.4,0,0,1024,1024,1024,1024,0,0,0,0,0,0,0,99,3.975,3.973,3.976,3.967,3.979,3.972,0,,3.9853211,1.3,14,Waypoint,
6100,2024-11-04 06:13:43,-23.4439220973078,151.917281653543,1.4,,,4.0853211,0,0.3,2.20671,2.23882,16,5,23.842,4.0853211,1.4,1.1,2.20671,0,-0.3,-0.5,83.7, -3.9, -0.7,0,0,1024,1024,1024,1024,0,0,0,0,0,0,0,99,3.975,3.973,3.976,3.967,3.979,3.972,0,,4.0853211,1.4,14,Waypoint,
6200,2024-11-04 06:13:43,-23.4439221906063,151.917281276038,1.4,,,4.0853211,0,0.3,2.24499,2.27871,16,5,23.842,4.0853211,1.4,1.1,2.24499,0,-0.3,-0.7,83.7, -3.8, -0.7,0,0,1024,1024,1024,1024,0,0,0,0,0,0,0,99,3.975,3.973,3.976,3.967,3.979,3.972,0,,4.0853211,1.4,14,Waypoint,
6300,2024-11-04 06:13:43,-23.4439222551008,151.917280945514,1.5,,,4.1853211,0,0.3,2.27859,2.31318,16,5,23.842,4.1853211,1.5,1.1,2.27859,0,-0.3,-0.8,83.7, -3.8, -0.7,0,0,1024,1024,1024,1024,0,0,0,0,0,0,0,99,3.975,3.973,3.976,3.967,3.979,3.972,0,,4.1853211,1.5,14,Waypoint,
6400,2024-11-04 06:13:43,-23.4439223263118,151.917280635804,1.6,,,4.2853211,0,0.2,2.31007,2.34576,16,5,23.835,4.2853211,1.6,1.1,2.31007,0,-0.2,-1.1,83.7, -3.7, -0.6,0,0,1024,1024,1024,1024,0,0,0,0,0,0,0,99,3.975,3.963,3.977,3.978,3.975,3.967,0,,4.2853211,1.6,14,Waypoint,
6500,2024-11-04 06:13:43,-23.4439223658211,151.917280344146,1.8,,,4.4853211,0,0.2,2.33978,2.37584,16,5,23.835,4.4853211,1.8,1.1,2.33978,0,-0.2,-1.3,83.7, -3.7, -0.5,0,0,1024,1024,1024,1024,0,0,0,0,0,0,0,99,3.975,3.963,3.977,3.978,3.975,3.967,0,,4.4853211,1.8,14,Waypoint,
6600,2024-11-04 06:13:44,-23.4439224505303,151.917280082216,1.9,,,4.5853211,0,0.2,2.36643,2.40418,16,5,23.835,4.5853211,1.9,1.1,2.36643,0,-0.2,-1.6,83.7, -3.9, -0.2,0,0,1024,1024,1024,1024,0,0,0,0,0,0,0,99,3.975,3.963,3.977,3.978,3.975,3.967,0,,4.5853211,1.9,14,Waypoint,
6700,2024-11-04 06:13:44,-23.4439225275346,151.917279848464,2.1,,,4.7853211,0,0.2,2.39025,2.42952,16,5,23.835,4.7853211,2.1,1.1,2.39025,0,-0.2,-1.8,83.7, -4.2, -0.2,0,0,1024,1024,1024,1024,0,0,0,0,0,0,0,99,3.975,3.963,3.977,3.978,3.975,3.967,0,,4.7853211,2.1,14,Waypoint,
6800,2024-11-04 06:13:44,-23.443922614903,151.917279680293,2.3,,,4.9853211,0,0.14,2.4074,2.44923,16,5,23.835,4.9853211,2.3,1.1,2.4074,-0.1,-0.1,-2,83.8, -4.4, -0.2,0,0,1024,1024,1024,1024,0,0,0,0,0,0,0,99,3.975,3.963,3.977,3.978,3.975,3.967,0,,4.9853211,2.3,14,Waypoint,
6900,2024-11-04 06:13:44,-23.4439226780419,151.917279547582,2.6,,,5.2853211,0,0.14,2.42097,2.46449,16,5,23.835,5.2853211,2.6,1.1,2.42097,-0.1,-0.1,-2.3,83.8, -4.7, -0.3,0,0,1024,1024,1024,1024,0,0,0,0,0,0,0,98,3.975,3.963,3.977,3.978,3.975,3.967,0,,5.2853211,2.6,14,Waypoint,
7000,2024-11-04 06:13:44,-23.4439227154424,151.917279438758,2.8,,,5.4853211,0,0.1,2.4321,2.47634,16,5,23.835,5.4853211,2.8,1.1,2.4321,-0.1,0,-2.5,83.8, -4.8, -0.2,0,0,1024,1024,1024,1024,0,0,0,0,0,0,0,98,3.975,3.963,3.977,3.978,3.975,3.967,0,,5.4853211,2.8,14,Waypoint,
7100,2024-11-04 06:13:44,-23.4439227350826,151.917279359479,3.1,,,5.7853211,0,0.1,2.4402,2.48472,16,5,23.835,5.7853211,3.1,1.1,2.4402,-0.1,0,-2.7,83.9, -5, -0.2,0,0,1024,1024,1024,1024,0,0,0,0,0,0,0,98,3.975,3.963,3.977,3.978,3.975,3.967,0,,5.7853211,3.1,14,Waypoint,
7200,2024-11-04 06:13:44,-23.4439227782637,151.917279350453,3.4,,,6.0853211,0,0.1,2.44116,2.48961,16,5,23.835,6.0853211,3.4,1.1,2.44116,-0.1,0,-2.9,83.8, -5.3, -0.4,0,0,1024,1024,1024,1024,0,0,0,0,0,0,0,98,3.975,3.963,3.977,3.978,3.975,3.967,0,,6.0853211,3.4,14,Waypoint,
7300,2024-11-04 06:13:44,-23.4439228283583,151.917279413607,3.7,,,6.3853211,0,0.1,2.43478,2.49813,16,5,23.835,6.3853211,3.7,1.1,2.44116,-0.1,0,-3,83.8, -5.9, -0.6,0,0,1024,1024,1024,1024,0,0,0,0,0,0,0,98,3.975,3.963,3.977,3.978,3.975,3.967,0,,6.3853211,3.7,14,Waypoint,
7400,2024-11-04 06:13:44,-23.4439228736274,151.91727964147,4.1,,,6.7853211,0,0,2.41159,2.52191,16,5,23.375,6.7853211,4.1,1.1,2.44116,0,0,-3.1,83.8, -6.4, -0.8,0,0,1024,1024,1024,1024,0,0,0,0,0,0,0,98,3.907,3.895,3.918,3.891,3.884,3.88,0,,6.7853211,4.1,14,Waypoint,
7500,2024-11-04 06:13:45,-23.4439228906006,151.917279933062,4.4,,,7.0853211,0,0.1,2.38188,2.55172,16,5,23.375,7.0853211,4.4,1.1,2.44116,0,0.1,-3.1,83.7, -6.8, -0.7,0,0,1024,1024,1024,1024,0,0,0,0,0,0,0,98,3.907,3.895,3.918,3.891,3.884,3.88,0,,7.0853211,4.4,14,Waypoint,
7600,2024-11-04 06:13:45,-23.4439229460463,151.917280415089,4.7,,,7.3853211,0,0.2,2.3328,2.60129,16,5,23.375,7.3853211,4.7,1.1,2.44116,0,0.2,-3.1,83.7, -6.8, -0.6,0,0,1024,1024,1024,1024,0,0,0,0,0,0,0,98,3.907,3.895,3.918,3.891,3.884,3.88,0,,7.3853211,4.7,14,Waypoint,
7700,2024-11-04 06:13:45,-23.4439229936551,151.917280900178,5,,,7.6853211,0,0.3,2.28342,2.65106,16,5,23.375,7.6853211,5,1.1,2.44116,0,0.3,-3.1,83.8, -6.3, -1.1,0,0,1024,1024,1024,1024,0,0,0,0,0,0,0,98,3.907,3.895,3.918,3.891,3.884,3.88,0,,7.6853211,5,14,Waypoint,
7800,2024-11-04 06:13:45,-23.4439230904124,151.917281509533,5.3,,,7.9853211,0,0.3,2.22152,2.71416,16,5,23.375,7.9853211,5.3,1.1,2.44116,0,0.3,-3.1,83.7, -5.3, -1.6,0,0,1024,1024,1024,1024,0,0,0,0,0,0,0,98,3.907,3.895,3.918,3.891,3.884,3.88,0,,7.9853211,5.3,14,Waypoint,
7900,2024-11-04 06:13:45,-23.4439231477491,151.917282072703,5.6,,,8.2853211,0,0.4,2.16426,2.77197,16,5,23.375,8.2853211,5.6,1.1,2.44116,0,0.4,-3.1,83.6, -3.8, -1.7,0,0,1024,1024,1024,1024,0,0,0,0,0,0,0,98,3.907,3.895,3.918,3.891,3.884,3.88,0,,8.2853211,5.6,14,Waypoint,
8000,2024-11-04 06:13:45,-23.443923228022,151.917282778465,6,,,8.6853211,0,0.4,2.09258,2.84452,16,5,23.375,8.6853211,6,1.1,2.44116,0,0.4,-3.1,83.5, -2.2, -1.6,0,0,1024,1024,1024,1024,0,0,0,0,0,0,0,98,3.907,3.895,3.918,3.891,3.884,3.88,0,,8.6853211,6,14,Waypoint,
8100,2024-11-04 06:13:45,-23.4439232625796,151.917283421644,6.2,,,8.8853211,0,0.4,2.02714,2.91026,16,5,23.375,8.8853211,6.2,1.1,2.44116,0,0.4,-3,83.5, -0.8, -1.6,0,0,1024,1024,1024,1024,0,0,0,0,0,0,0,98,3.907,3.895,3.918,3.891,3.884,3.88,0,,8.8853211,6.2,14,Waypoint,
8200,2024-11-04 06:13:45,-23.443923298661,151.917284069672,6.5,,,9.1853211,0,0.3,1.96124,2.9765,16,5,23.375,9.1853211,6.5,1.1,2.44116,0,0.3,-3,83.6, -0.4, -1.4,0,0,1024,1024,1024,1024,0,0,0,0,0,0,0,98,3.907,3.895,3.918,3.891,3.884,3.88,0,,9.1853211,6.5,14,Waypoint,
8300,2024-11-04 06:13:45,-23.4439233065443,151.917284601483,6.8,,,9.4853211,0,0.3,1.90706,3.03076,16,5,23.375,9.4853211,6.8,1.1,2.44116,0,0.3,-3,83.7, -0.2, -1.1,0,0,1024,1024,1024,1024,0,0,0,0,0,0,0,98,3.907,3.895,3.918,3.891,3.884,3.88,0,,9.4853211,6.8,14,Waypoint,
8400,2024-11-04 06:13:46,-23.4439233152451,151.917285086257,7.1,,,9.7853211,0,0.3,1.85769,3.08023,15,5,23.375,9.7853211,7.1,1.1,2.44116,0,0.3,-3.1,83.9, -0.3, -1.1,0,0,1024,1024,1024,1024,0,0,0,0,0,0,0,98,3.907,3.895,3.918,3.891,3.884,3.88,0,,9.7853211,7.1,14,Waypoint,
8600,2024-11-04 06:13:46,-23.4439233355253,151.917285791232,7.8,,,10.4853211,0,0.2,1.78595,3.15219,15,5,23.375,10.4853211,7.8,1.1,2.44116,0,0.2,-3.1,83.8, -0.8, -0.8,0,0,1024,1024,1024,1024,0,0,0,0,0,0,0,98,3.907,3.895,3.918,3.891,3.884,3.88,0,,10.4853211,7.8,14,Waypoint,
8700,2024-11-04 06:13:46,-23.4439233523126,151.917286064882,8.1,,,10.7853211,0,0.2,1.75815,3.18017,15,5,23.375,10.7853211,8.1,1.1,2.44116,0,0.2,-3.1,83.7, -1.1, -1.1,0,0,1024,1024,1024,1024,0,0,0,0,0,0,0,98,3.907,3.895,3.918,3.891,3.884,3.88,0,,10.7853211,8.1,14,Waypoint,
8800,2024-11-04 06:13:46,-23.443923343221,151.917286327381,8.4,,,11.0853211,0,0.2,1.73135,3.20697,15,5,23.375,11.0853211,8.4,1.1,2.44116,0,0.2,-3.1,83.7, -1.2, -1.4,0,0,1024,1024,1024,1024,0,0,0,0,0,0,0,98,3.907,3.895,3.918,3.891,3.884,3.88,0,,11.0853211,8.4,14,Waypoint,
8900,2024-11-04 06:13:46,-23.4439233307581,151.917286600313,8.7,,,11.3853211,0,0.2,1.70347,3.23485,15,5,23.375,11.3853211,8.7,1.1,2.44116,0,0.2,-3.1,83.7, -1.4, -1.5,0,0,1024,1024,1024,1024,0,0,0,0,0,0,0,98,3.907,3.895,3.918,3.891,3.884,3.88,0,,11.3853211,8.7,14,Waypoint,
9000,2024-11-04 06:13:46,-23.4439232449944,151.917286874615,9,,,11.6853211,0,0.2,1.67507,3.26442,15,5,23.375,11.6853211,9,1.1,2.44116,0,0.2,-3.1,83.6, -1.4, -1.6,0,0,1024,1024,1024,1024,0,0,0,0,0,0,0,98,3.907,3.895,3.918,3.891,3.884,3.88,0,,11.6853211,9,14,Waypoint,
9100,2024-11-04 06:13:46,-23.4439231641744,151.917287134763,9.3,,,11.9853211,0,0.1,1.64817,3.29244,15,5,23.375,11.9853211,9.3,1.1,2.44116,0,0.1,-3.1,83.6, -1.4, -1.8,0,0,1024,1024,1024,1024,0,0,0,0,0,0,0,98,3.907,3.895,3.918,3.891,3.884,3.88,0,,11.9853211,9.3,14,Waypoint,
9200,2024-11-04 06:13:46,-23.4439230200298,151.917287439071,9.6,,,12.2853211,0,0.2,1.61657,3.32738,15,5,23.375,12.2853211,9.6,1.1,2.44116,0,0.2,-3.1,83.6, -1.3, -2,0,0,1024,1024,1024,1024,0,0,0,0,0,0,0,98,3.907,3.895,3.918,3.891,3.884,3.88,0,,12.2853211,9.6,14,Waypoint,
9300,2024-11-04 06:13:46,-23.4439229006636,151.917287729814,9.9,,,12.5853211,0,0.2,1.58656,3.35988,15,5,23.375,12.5853211,9.9,1.1,2.44116,0,0.2,-3.1,83.6, -1, -1.7,0,0,1024,1024,1024,1024,0,0,0,0,0,0,0,98,3.907,3.895,3.918,3.891,3.884,3.88,0,,12.5853211,9.9,14,Waypoint,
9400,2024-11-04 06:13:46,-23.4439226838448,151.917288076583,10.3,,,12.9853211,0,0.1,1.55081,3.4027,15,5,22.785,12.9853211,10.3,1.1,2.44116,0,0.1,-3,83.6, -0.6, -1.1,0,0,1024,1024,1024,1024,0,0,0,0,0,0,0,98,3.783,3.784,3.798,3.804,3.813,3.803,0,,12.9853211,10.3,14,Waypoint,
9500,2024-11-04 06:13:47,-23.4439224910672,151.917288354616,10.6,,,13.2853211,0,0.1,1.52242,3.43825,15,5,22.785,13.2853211,10.6,1.1,2.44116,0,0.1,-3,83.5, -0.4, -0.5,0,0,1024,1024,1024,1024,0,0,0,0,0,0,0,98,3.783,3.784,3.798,3.804,3.813,3.803,0,,13.2853211,10.6,14,Waypoint,
9600,2024-11-04 06:13:47,-23.4439222405262,151.917288630145,10.9,,,13.5853211,0,0.1,1.49474,3.47783,15,5,22.785,13.5853211,10.9,1.1,2.44116,0,0.1,-2.9,83.4, -0.3, -0.2,0,0,1024,1024,1024,1024,0,0,0,0,0,0,0,98,3.783,3.784,3.798,3.804,3.813,3.803,0,,13.5853211,10.9,14,Waypoint,
9700,2024-11-04 06:13:47,-23.4439220647422,151.917288823598,11.1,,,13.7853211,0,0.1,1.47562,3.50561,15,5,22.785,13.7853211,11.1,1.1,2.44116,0,0.1,-2.7,83.3, -0.1, -0.1,0,0,1024,1024,1024,1024,0,0,0,0,0,0,0,98,3.783,3.784,3.798,3.804,3.813,3.803,0,,13.7853211,11.1,14,Waypoint,
9800,2024-11-04 06:13:47,-23.4439218448273,151.917288919451,11.4,,,14.0853211,0,0.1,1.46699,3.53195,15,5,22.785,14.0853211,11.4,1.1,2.44116,0,0.1,-2.6,83.3, 0, -0.6,0,0,1024,1024,1024,1024,0,0,0,0,0,0,0,98,3.783,3.784,3.798,3.804,3.813,3.803,0,,14.0853211,11.4,14,Waypoint,
9900,2024-11-04 06:13:47,-23.4439216814195,151.917288945205,11.7,,,14.3853211,0,0,1.46548,3.55031,15,5,22.785,14.3853211,11.7,1.1,2.44116,0,0,-2.4,83.4, 0.1, -0.9,0,0,1024,1024,1024,1024,0,0,0,0,0,0,0,98,3.783,3.784,3.798,3.804,3.813,3.803,0,,14.3853211,11.7,14,Waypoint,
10000,2024-11-04 06:13:47,-23.4439214913817,151.917288992377,11.9,,,14.5853211,0,0,1.46227,3.57199,15,5,22.785,14.5853211,11.9,1.1,2.44116,0,0,-2.2,83.3, 0.4, -0.7,0,0,1024,1024,1024,1024,0,0,0,0,0,0,0,98,3.783,3.784,3.798,3.804,3.813,3.803,0,,14.5853211,11.9,14,Waypoint,
10100,2024-11-04 06:13:47,-23.4439213657587,151.91728904989,12.1,,,14.7853211,0,0,1.45764,3.58714,15,5,22.785,14.7853211,12.1,1.1,2.44116,0,0,-2,83.4, 0.7, -0.8,0,0,1024,1024,1024,1024,0,0,0,0,0,0,0,98,3.783,3.784,3.798,3.804,3.813,3.803,0,,14.7853211,12.1,14,Waypoint,
10200,2024-11-04 06:13:47,-23.4439212247924,151.917289090666,12.3,,,14.9853211,0,0,1.45502,3.60336,15,5,22.785,14.9853211,12.3,1.1,2.44116,0,0,-1.9,83.5, 0.8, -0.6,0,0,1024,1024,1024,1024,0,0,0,0,0,0,0,98,3.783,3.784,3.798,3.804,3.813,3.803,0,,14.9853211,12.3,14,Waypoint,
10300,2024-11-04 06:13:47,-23.4439211374875,151.917289045725,12.5,,,15.1853211,0,0.1,1.46061,3.61409,15,5,22.785,15.1853211,12.5,1.1,2.44116,0,-0.1,-1.9,83.6, 0.8, -0.5,0,0,1024,1024,1024,1024,0,0,0,0,0,0,0,98,3.783,3.784,3.798,3.804,3.813,3.803,0,,15.1853211,12.5,14,Waypoint,
10500,2024-11-04 06:13:47,-23.4439208883803,151.917288924011,12.8,,,15.4853211,0,0.1,1.47621,3.64445,15,5,23.028,15.4853211,12.8,1.1,2.44116,0,-0.1,-1.6,83.5, 0.4, -0.1,0,0,1024,1024,1024,1024,0,0,0,0,0,0,0,98,3.832,3.83,3.839,3.839,3.845,3.843,0,,15.4853211,12.8,14,Waypoint,
10600,2024-11-04 06:13:48,-23.4439207548104,151.917288825706,13,,,15.6853211,0,0.1,1.48811,3.66237,15,5,23.028,15.6853211,13,1.1,2.44116,0,-0.1,-1.6,83.5, 0.2, 0,0,0,1024,1024,1024,1024,0,0,0,0,0,0,0,98,3.832,3.83,3.839,3.839,3.845,3.843,0,,15.6853211,13,14,Waypoint,
10700,2024-11-04 06:13:48,-23.4439206844942,151.917288656238,13.2,,,15.8853211,0,0.1,1.50631,3.68135,15,5,23.028,15.8853211,13.2,1.1,2.44116,0,-0.1,-1.5,83.5, 0.2, 0,0,0,1024,1024,1024,1024,0,0,0,0,0,0,0,98,3.832,3.83,3.839,3.839,3.845,3.843,0,,15.8853211,13.2,14,Waypoint,
10800,2024-11-04 06:13:48,-23.4439205601943,151.917288563996,13.3,,,15.9853211,0,0.2,1.5176,3.69807,15,5,23.028,15.9853211,13.3,1.1,2.44116,0,-0.2,-1.4,83.5, 0, 0,0,0,1024,1024,1024,1024,0,0,0,0,0,0,0,98,3.832,3.83,3.839,3.839,3.845,3.843,0,,15.9853211,13.3,14,Waypoint,
10900,2024-11-04 06:13:48,-23.4439204936715,151.917288422145,13.4,,,16.0853211,0,0.1,1.53302,3.71433,15,5,23.028,16.0853211,13.4,1.1,2.44116,0,-0.1,-1.4,83.6, -0.2, 0.1,0,0,1024,1024,1024,1024,0,0,0,0,0,0,0,98,3.832,3.83,3.839,3.839,3.845,3.843,0,,16.0853211,13.4,14,Waypoint,
11000,2024-11-04 06:13:48,-23.4439203474829,151.917288336454,13.6,,,16.2853211,0,0.1,1.54418,3.73279,15,5,23.028,16.2853211,13.6,1.1,2.44116,0,-0.1,-1.4,83.6, -0.3, 0.1,0,0,1024,1024,1024,1024,0,0,0,0,0,0,0,98,3.832,3.83,3.839,3.839,3.845,3.843,0,,16.2853211,13.6,14,Waypoint,
11100,2024-11-04 06:13:48,-23.4439202721991,151.917288149503,13.7,,,16.3853211,0,0.2,1.56436,3.75362,15,5,23.028,16.3853211,13.7,1.1,2.44116,0,-0.2,-1.3,83.6, -0.6, 0.1,0,0,1024,1024,1024,1024,0,0,0,0,0,0,0,98,3.832,3.83,3.839,3.839,3.845,3.843,0,,16.3853211,13.7,14,Waypoint,
11200,2024-11-04 06:13:48,-23.4439201357851,151.917287960028,13.8,,,16.4853211,0,0.2,1.58595,3.77819,15,5,23.028,16.4853211,13.8,1.1,2.44116,0,-0.2,-1.2,83.6, -0.9, 0,0,0,1024,1024,1024,1024,0,0,0,0,0,0,0,98,3.832,3.83,3.839,3.839,3.845,3.843,0,,16.4853211,13.8,14,Waypoint,
11300,2024-11-04 06:13:48,-23.4439200897621,151.917287706526,14,,,16.6853211,0,0.2,1.61231,3.80455,15,5,23.028,16.6853211,14,1.1,2.44116,0,-0.2,-1.2,83.6, -0.9, 0,0,0,1024,1024,1024,1024,0,0,0,0,0,0,0,98,3.832,3.83,3.839,3.839,3.845,3.843,0,,16.6853211,14,14,Waypoint,
11400,2024-11-04 06:13:48,-23.4439199808615,151.917287493013,14.1,,,16.7853211,0,0.2,1.63587,3.82948,15,5,23.028,16.7853211,14.1,1.1,2.44116,0,-0.2,-1.1,83.6, -0.7, 0,0,0,1024,1024,1024,1024,0,0,0,0,0,0,0,98,3.832,3.83,3.839,3.839,3.845,3.843,0,,16.7853211,14.1,14,Waypoint,
11500,2024-11-04 06:13:48,-23.4439199320049,151.917287236928,14.2,,,16.8853211,0,0.2,1.66254,3.85616,15,5,23.088,16.8853211,14.2,1.1,2.44116,0,-0.2,-1.1,83.6, -1, 0,0,0,1024,1024,1024,1024,0,0,0,0,0,0,0,98,3.846,3.848,3.843,3.856,3.845,3.85,0,,16.8853211,14.2,14,Waypoint,
11600,2024-11-04 06:13:49,-23.4439198146519,151.91728701855,14.3,,,16.9853211,0,0.2,1.6868,3.88199,15,5,23.088,16.9853211,14.3,1.1,2.44116,0,-0.2,-0.9,83.6, -1.6, 0.3,0,0,1024,1024,1024,1024,0,0,0,0,0,0,0,98,3.846,3.848,3.843,3.856,3.845,3.85,0,,16.9853211,14.3,14,Waypoint,
11700,2024-11-04 06:13:49,-23.4439197744489,151.917286765544,14.4,,,17.0853211,0,0.2,1.713,3.90818,15,5,23.088,17.0853211,14.4,1.1,2.44116,0,-0.2,-0.8,84.7, -2.2, 0.2,0,0,1024,1024,1024,1024,0,0,0,0,0,0,0,98,3.846,3.848,3.843,3.856,3.845,3.85,0,,17.0853211,14.4,14,Waypoint,
11800,2024-11-04 06:13:49,-23.4439196784985,151.917286537133,14.5,,,17.1853211,0,0.2,1.73786,3.93381,15,5,23.088,17.1853211,14.5,1.1,2.44116,0,-0.2,-0.6,88.8, -2.8, -0.3,0,0,1024,1024,1024,1024,0,0,0,0,0,0,0,98,3.846,3.848,3.843,3.856,3.845,3.85,0,,17.1853211,14.5,14,Waypoint,
11900,2024-11-04 06:13:49,-23.4439196663821,151.917286274854,14.5,,,17.1853211,0,0.2,1.76441,3.96061,15,5,23.088,17.1853211,14.5,1.1,2.44116,0,-0.2,-0.4,95.5, -3, -1.2,0,0,1024,1024,1024,1024,0,0,0,0,0,0,0,98,3.846,3.848,3.843,3.856,3.845,3.85,0,,17.1853211,14.5,14,Waypoint,
12000,2024-11-04 06:13:49,-23.4439196582464,151.917286110642,14.5,,,17.1853211,0,0.2,1.78105,3.97739,15,5,23.088,17.1853211,14.5,1.1,2.44116,0,-0.2,-0.1,104.4, -3.3, -2.4,0,0,1024,1024,1024,1024,0,0,0,0,0,0,0,98,3.846,3.848,3.843,3.856,3.845,3.85,0,,17.1853211,14.5,14,Waypoint,
12100,2024-11-04 06:13:49,-23.4439196946527,151.917285951006,14.5,,,17.1853211,0,0.1,1.79634,3.99417,15,5,23.088,17.1853211,14.5,1.1,2.44116,0,-0.1,0,114, -3.7, -3.6,0,0,1024,1024,1024,1024,0,0,0,0,0,0,0,98,3.846,3.848,3.843,3.856,3.845,3.85,0,,17.1853211,14.5,14,Waypoint,
12200,2024-11-04 06:13:49,-23.4439197083772,151.917285753141,14.5,,,17.1853211,0,0.1,1.81594,4.01441,15,5,23.088,17.1853211,14.5,1.1,2.44116,0,-0.1,0,123.7, -4.2, -4,0,0,1024,1024,1024,1024,0,0,0,0,0,0,0,98,3.846,3.848,3.843,3.856,3.845,3.85,0,,17.1853211,14.5,14,Waypoint,
12300,2024-11-04 06:13:49,-23.4439197437421,151.917285557292,14.5,,,17.1853211,0,0,1.83494,4.03478,15,5,23.088,17.1853211,14.5,1.1,2.44116,0,0,0,133.1, -4.4, -3.7,0,0,1024,1024,1024,1024,0,0,0,0,0,0,0,98,3.846,3.848,3.843,3.856,3.845,3.85,0,,17.1853211,14.5,14,Waypoint,
12400,2024-11-04 06:13:49,-23.4439197585146,151.917285384802,14.5,,,17.1853211,0,0,1.852,4.05245,16,5,23.088,17.1853211,14.5,1.1,2.44116,0,0,0,142.5, -4.3, -2.8,0,0,1024,1024,1024,1024,0,0,0,0,0,0,0,98,3.846,3.848,3.843,3.856,3.845,3.85,0,,17.1853211,14.5,14,Waypoint,
12500,2024-11-04 06:13:49,-23.4439198223528,151.917285296843,14.5,,,17.1853211,0,0,1.85967,4.0639,16,5,23.088,17.1853211,14.5,1.1,2.44116,0,0,0,151.4, -4.1, -1.7,0,0,1024,1024,1024,1024,0,0,0,0,0,0,0,98,3.846,3.848,3.843,3.856,3.845,3.85,0,,17.1853211,14.5,14,Waypoint,
12600,2024-11-04 06:13:49,-23.4439198831101,151.917285274148,14.5,,,17.1853211,0,0.1,1.86085,4.07104,16,5,23.088,17.1853211,14.5,1.1,2.44116,-0.1,0,0,158.3, -4.1, -0.6,0,0,1024,1024,1024,1024,0,0,0,0,0,0,0,98,3.846,3.848,3.843,3.856,3.845,3.85,0,,17.1853211,14.5,14,Waypoint,
12700,2024-11-04 06:13:50,-23.4439200440101,151.917285293002,14.5,,,17.1853211,0,0.2,1.85616,4.08903,16,5,23.088,17.1853211,14.5,1.1,2.44116,-0.2,0,0,163, -3.9, 0.2,0,0,1024,1024,1024,1024,0,0,0,0,0,0,0,98,3.846,3.848,3.843,3.856,3.845,3.85,0,,17.1853211,14.5,14,Waypoint,
12800,2024-11-04 06:13:50,-23.4439202164884,151.917285341913,14.5,,,17.1853211,0,0.3,1.84841,4.10885,16,5,23.088,17.1853211,14.5,1.1,2.44116,-0.3,0,0,165.9, -3, 0.4,0,0,1024,1024,1024,1024,0,0,0,0,0,0,0,98,3.846,3.848,3.843,3.856,3.845,3.85,0,,17.1853211,14.5,14,Waypoint,
12900,2024-11-04 06:13:50,-23.4439204963927,151.917285365149,14.5,,,17.1853211,0,0.3,1.84191,4.14007,16,5,23.383,17.1853211,14.5,1.1,2.44116,-0.3,0,0,167.3, -1.8, 0.2,0,0,1024,1024,1024,1024,0,0,0,0,0,0,0,97,3.9,3.891,3.896,3.897,3.897,3.902,0,,17.1853211,14.5,14,Waypoint,
13200,2024-11-04 06:13:50,-23.4439216613457,151.91728555994,14.4,,,17.0853211,0,0.3,1.81035,4.27114,16,5,23.383,17.1853211,14.5,1.1,2.44116,-0.5,0,0,168.1, -3.9, -1.9,0,0,1024,1024,1024,1024,0,0,0,0,0,0,0,97,3.9,3.891,3.896,3.897,3.897,3.902,0,,17.0853211,14.4,14,Waypoint,
13300,2024-11-04 06:13:50,-23.4439222492368,151.917285589906,14.5,,,17.1853211,0,0.7,1.80482,4.33658,16,5,23.383,17.1853211,14.5,1.1,2.44116,-0.7,0,0,168.3, -5.3, -2.1,0,0,1024,1024,1024,1024,0,0,0,0,0,0,0,97,3.9,3.891,3.896,3.897,3.897,3.902,0,,17.1853211,14.5,14,Waypoint,
13400,2024-11-04 06:13:50,-23.4439229790211,151.917285676664,14.5,,,17.1853211,0,0.8,1.79619,4.41822,16,5,23.383,17.1853211,14.5,1.1,2.44116,-0.8,0,-0.1,168.5, -6.9, -2.1,0,0,1024,1024,1024,1024,0,0,0,0,0,0,0,97,3.9,3.891,3.896,3.897,3.897,3.902,0,,17.1853211,14.5,14,Waypoint,
13500,2024-11-04 06:13:50,-23.4439238438816,151.917285750208,14.5,,,17.1853211,0,0.9,1.7937,4.51469,16,5,23.383,17.1853211,14.5,1.1,2.44116,-0.9,0,0,168.5, -8.1, -2,0,0,1024,1024,1024,1024,0,0,0,0,0,0,0,97,3.9,3.891,3.896,3.897,3.897,3.902,0,,17.1853211,14.5,14,Waypoint,
13600,2024-11-04 06:13:50,-23.4439249121176,151.917285847611,14.5,,,17.1853211,0,1.1,1.79712,4.6339,16,5,23.383,17.1853211,14.5,1.1,2.44116,-1.1,0,0,168.5, -8.5, -1.5,0,0,1024,1024,1024,1024,0,0,0,0,0,0,0,97,3.9,3.891,3.896,3.897,3.897,3.902,0,,17.1853211,14.5,14,Waypoint,
13700,2024-11-04 06:13:51,-23.4439260982482,151.917285927442,14.5,,,17.1853211,0,1.2,1.81296,4.76606,16,5,23.383,17.1853211,14.5,1.2,2.44116,-1.2,0,0,168.5, -8.9, -1.1,0,0,1024,1024,1024,1024,0,0,0,0,0,0,0,97,3.9,3.891,3.896,3.897,3.897,3.902,0,,17.1853211,14.5,14,Waypoint,
13800,2024-11-04 06:13:51,-23.4439275079105,151.917285992569,14.5,,,17.1853211,0,1.4,1.84686,4.92296,16,5,23.383,17.1853211,14.5,1.4,2.44116,-1.4,0,0,168.5, -9.7, -1.2,0,0,1024,1024,1024,1024,0,0,0,0,0,0,0,97,3.9,3.891,3.896,3.897,3.897,3.902,0,,17.1853211,14.5,14,Waypoint,
13900,2024-11-04 06:13:51,-23.4439290238968,151.91728605166,14.5,,,17.1853211,0,1.6,1.8982,5.09166,16,5,23.383,17.1853211,14.5,1.6,2.44116,-1.6,0,0,168.5, -10.5, -1.7,0,0,1024,1024,1024,1024,0,0,0,0,0,0,0,97,3.9,3.891,3.896,3.897,3.897,3.902,0,,17.1853211,14.5,14,Waypoint,
14000,2024-11-04 06:13:51,-23.443930852181,151.917286142267,14.5,,,17.1853211,0,1.7,1.97582,5.29518,16,5,23.383,17.1853211,14.5,1.7,2.44116,-1.7,0.1,0,168.5, -10.8, -2.7,0,0,1024,1024,1024,1024,0,0,0,0,0,0,0,97,3.9,3.891,3.896,3.897,3.897,3.902,0,,17.1853211,14.5,14,Waypoint,
14100,2024-11-04 06:13:51,-23.4439327730581,151.91728627652,14.5,,,17.1853211,0,1.9,2.07249,5.50923,16,5,23.383,17.1853211,14.5,1.9,2.44116,-1.9,0.1,0,168.5, -10.8, -3.4,0,0,1024,1024,1024,1024,0,0,0,0,0,0,0,97,3.9,3.891,3.896,3.897,3.897,3.902,0,,17.1853211,14.5,14,Waypoint,
14200,2024-11-04 06:13:51,-23.4439349999292,151.917286509033,14.5,,,17.1853211,0,2.11,2.19925,5.75801,16,5,23.383,17.1853211,14.5,2.11,2.44116,-2.1,0.2,0,168.5, -10.7, -3.7,0,0,1024,1024,1024,1024,0,0,0,0,0,0,0,97,3.9,3.891,3.896,3.897,3.897,3.902,0,,17.1853211,14.5,14,Waypoint,
14300,2024-11-04 06:13:51,-23.4439372884048,151.917286800091,14.5,,,17.1853211,0,2.31,2.34611,6.01423,16,5,23.383,17.1853211,14.5,2.31,2.44116,-2.3,0.2,0,168.6, -10.6, -3.3,0,0,1024,1024,1024,1024,0,0,0,0,0,0,0,97,3.9,3.891,3.896,3.897,3.897,3.902,0,,17.1853211,14.5,14,Waypoint,
14400,2024-11-04 06:13:51,-23.4439399772467,151.91728715622,14.6,,,17.2853211,0,2.52,2.53999,6.31544,16,5,23.383,17.2853211,14.6,2.52,2.53999,-2.5,0.3,0,168.5, -10.5, -2.7,0,0,1024,1024,1024,1024,0,0,0,0,0,0,0,97,3.9,3.891,3.896,3.897,3.897,3.902,0,,17.2853211,14.6,14,Waypoint,
14500,2024-11-04 06:13:51,-23.4439427020952,151.917287526476,14.6,,,17.2853211,0,2.72,2.75565,6.62081,16,5,23.383,17.2853211,14.6,2.72,2.75565,-2.7,0.3,0,168.4, -10, -2.5,0,0,1024,1024,1024,1024,0,0,0,0,0,0,0,97,3.9,3.891,3.896,3.897,3.897,3.902,0,,17.2853211,14.6,14,Waypoint,
14600,2024-11-04 06:13:52,-23.4439457991539,151.917287895317,14.6,,,17.2853211,0,2.92,3.02238,6.96727,16,5,23.383,17.2853211,14.6,2.92,3.02238,-2.9,0.3,0,168.2, -9.6, -2.6,0,0,1024,1024,1024,1024,0,0,0,0,0,0,0,97,3.9,3.891,3.896,3.897,3.897,3.902,0,,17.2853211,14.6,14,Waypoint,
14700,2024-11-04 06:13:52,-23.443948889071,151.917288277315,14.6,,,17.2853211,0,3.03,3.3026,7.31309,16,5,23.383,17.2853211,14.6,3.03,3.3026,-3,0.4,0,168.2, -9.2, -3,0,0,1024,1024,1024,1024,0,0,0,0,0,0,0,97,3.9,3.891,3.896,3.897,3.897,3.902,0,,17.2853211,14.6,14,Waypoint,
14800,2024-11-04 06:13:52,-23.4439523491839,151.917288688944,14.6,,,17.2853211,0,3.22,3.63053,7.70016,16,5,23.383,17.2853211,14.6,3.22,3.63053,-3.2,0.4,0,168.2, -9.3, -3.9,0,0,1024,1024,1024,1024,0,0,0,0,0,0,0,97,3.9,3.891,3.896,3.897,3.897,3.902,0,,17.2853211,14.6,14,Waypoint,
14900,2024-11-04 06:13:52,-23.4439557655454,151.917289167063,14.6,,,17.2853211,0,3.44,3.96213,8.0832,16,5,23.383,17.2853211,14.6,3.44,3.96213,-3.4,0.5,0,168.2, -9.5, -4.5,0,0,1024,1024,1024,1024,0,0,0,0,0,0,0,97,3.9,3.891,3.896,3.897,3.897,3.902,0,,17.2853211,14.6,14,Waypoint,
15100,2024-11-04 06:13:52,-23.443963335991,151.917290187565,14.6,,,17.2853211,0,3.75,4.72586,8.93149,16,5,23.395,17.2853211,14.6,3.75,4.72586,-3.7,0.6,0,168.2, -9.8, -4.8,0,0,1024,1024,1024,1024,0,0,0,0,0,0,0,97,3.894,3.887,3.899,3.906,3.912,3.897,0,,17.2853211,14.6,14,Waypoint,
15200,2024-11-04 06:13:52,-23.4439675356927,151.917290774413,14.6,,,17.2853211,0,3.96,5.16041,9.40235,16,5,23.395,17.2853211,14.6,3.96,5.16041,-3.9,0.7,0,168.1, -10.2, -4.7,0,0,1024,1024,1024,1024,0,0,0,0,0,0,0,97,3.894,3.887,3.899,3.906,3.912,3.897,0,,17.2853211,14.6,14,Waypoint,
15300,2024-11-04 06:13:52,-23.4439716711881,151.917291457368,14.6,,,17.2853211,0,4.16,5.59175,9.86749,16,5,23.395,17.2853211,14.6,4.16,5.59175,-4.1,0.7,0.1,168.1, -10.7, -4.4,0,0,1024,1024,1024,1024,0,0,0,0,0,0,0,97,3.894,3.887,3.899,3.906,3.912,3.897,0,,17.2853211,14.6,14,Waypoint,
15400,2024-11-04 06:13:52,-23.4439763510007,151.917292178665,14.6,,,17.2853211,0,4.26,6.08684,10.3931,16,5,23.395,17.2853211,14.6,4.26,6.08684,-4.2,0.7,0.1,168.2, -11.4, -4.4,0,0,1024,1024,1024,1024,0,0,0,0,0,0,0,97,3.894,3.887,3.899,3.906,3.912,3.897,0,,17.2853211,14.6,14,Waypoint,
15500,2024-11-04 06:13:52,-23.443980944724,151.91729298712,14.6,,,17.2853211,0,4.57,6.57579,10.9106,16,5,23.395,17.2853211,14.6,4.57,6.57579,-4.5,0.8,0.1,168.1, -12, -4.1,0,0,1024,1024,1024,1024,0,0,0,0,0,0,0,97,3.894,3.887,3.899,3.906,3.912,3.897,0,,17.2853211,14.6,14,Waypoint,
15600,2024-11-04 06:13:53,-23.4439860219258,151.917293839213,14.5,,,17.1853211,0,4.79,7.12146,11.4818,16,5,23.395,17.2853211,14.6,4.79,7.12146,-4.7,0.9,0,168.1, -12.3, -3.7,0,0,1024,1024,1024,1024,0,0,0,0,0,0,0,97,3.894,3.887,3.899,3.906,3.912,3.897,0,,17.1853211,14.5,14,Waypoint,
15700,2024-11-04 06:13:53,-23.4439909882631,151.917294746084,14.5,,,17.1853211,0,4.98,7.65798,12.0418,16,5,23.395,17.2853211,14.6,4.98,7.65798,-4.9,0.9,0,168.1, -12.8, -3.7,0,0,1024,1024,1024,1024,0,0,0,0,0,0,0,97,3.894,3.887,3.899,3.906,3.912,3.897,0,,17.1853211,14.5,14,Waypoint,
15800,2024-11-04 06:13:53,-23.4439966104334,151.917295713763,14.5,,,17.1853211,0,5.28,8.26966,12.6748,16,5,23.395,17.2853211,14.6,5.28,8.26966,-5.2,0.9,0.1,168.1, -13.3, -3.6,0,0,1024,1024,1024,1024,0,0,0,0,0,0,0,97,3.894,3.887,3.899,3.906,3.912,3.897,0,,17.1853211,14.5,14,Waypoint,
15900,2024-11-04 06:13:53,-23.4440021421209,151.917296764111,14.5,,,17.1853211,0,5.49,8.87365,13.2992,16,5,23.395,17.2853211,14.6,5.49,8.87365,-5.4,1,0.1,168.1, -13.1, -3.7,0,0,1024,1024,1024,1024,0,0,0,0,0,0,0,97,3.894,3.887,3.899,3.906,3.912,3.897,0,,17.1853211,14.5,14,Waypoint,
16000,2024-11-04 06:13:53,-23.4440083783579,151.91729787909,14.5,,,17.1853211,0,5.81,9.55812,14.002,16,5,23.395,17.2853211,14.6,5.81,9.55812,-5.7,1.1,0.1,168, -12.6, -3.8,0,0,1024,1024,1024,1024,0,0,0,0,0,0,0,97,3.894,3.887,3.899,3.906,3.912,3.897,0,,17.1853211,14.5,14,Waypoint,
16100,2024-11-04 06:13:53,-23.444014447497,151.917299059697,14.4,,,17.0853211,0,6,10.2262,14.6876,16,5,23.395,17.2853211,14.6,6,10.2262,-5.9,1.1,0.1,168.1, -11.9, -3.8,0,0,1024,1024,1024,1024,0,0,0,0,0,0,0,97,3.894,3.887,3.899,3.906,3.912,3.897,0,,17.0853211,14.4,14,Waypoint,
16200,2024-11-04 06:13:53,-23.444021312828,151.917300281906,14.4,,,17.0853211,0,6.32,10.9849,15.4611,16,5,23.395,17.2853211,14.6,6.32,10.9849,-6.2,1.2,0,168.1, -11.5, -3.9,0,0,1024,1024,1024,1024,0,0,0,0,0,0,0,97,3.894,3.887,3.899,3.906,3.912,3.897,0,,17.0853211,14.4,14,Waypoint,
16300,2024-11-04 06:13:53,-23.4440279686955,151.917301558326,14.4,,,17.0853211,0,6.51,11.7221,16.2127,16,5,23.395,17.2853211,14.6,6.51,11.7221,-6.4,1.2,0.1,168.2, -11.3, -3.6,0,0,1024,1024,1024,1024,0,0,0,0,0,0,0,97,3.894,3.887,3.899,3.906,3.912,3.897,0,,17.0853211,14.4,14,Waypoint,
16400,2024-11-04 06:13:53,-23.4440355622276,151.917302896909,14.4,,,17.0853211,0,6.82,12.5653,17.0681,16,5,23.395,17.2853211,14.6,6.82,12.5653,-6.7,1.3,0,168.1, -11, -3.1,0,0,1024,1024,1024,1024,0,0,0,0,0,0,0,97,3.894,3.887,3.899,3.906,3.912,3.897,0,,17.0853211,14.4,14,Waypoint,
16500,2024-11-04 06:13:53,-23.4440428165938,151.917304257084,14.4,,,17.0853211,0,7.02,13.3724,17.8867,16,5,23.395,17.2853211,14.6,7.02,13.3724,-6.9,1.3,0.1,168.1, -9.9, -2.9,0,0,1024,1024,1024,1024,0,0,0,0,0,0,0,97,3.894,3.887,3.899,3.906,3.912,3.897,0,,17.0853211,14.4,14,Waypoint,
16600,2024-11-04 06:13:54,-23.4440509298015,151.917305562119,14.4,,,17.0853211,0,7.22,14.2761,18.7987,16,5,23.395,17.2853211,14.6,7.22,14.2761,-7.1,1.3,0,168, -8.9, -3,0,0,1024,1024,1024,1024,0,0,0,0,0,0,0,97,3.894,3.887,3.899,3.906,3.912,3.897,0,,17.0853211,14.4,14,Waypoint,
16700,2024-11-04 06:13:54,-23.4440586218153,151.917306836514,14.3,,,16.9853211,0,7.41,15.134,19.6639,16,5,23.395,17.2853211,14.6,7.41,15.134,-7.3,1.3,0,167.9, -7.7, -3.4,0,0,1024,1024,1024,1024,0,0,0,0,0,0,0,97,3.894,3.887,3.899,3.906,3.912,3.897,0,,16.9853211,14.3,14,Waypoint,
16800,2024-11-04 06:13:54,-23.4440670661963,151.917308077907,14.3,,,16.9853211,0,7.61,16.0762,20.6115,16,5,23.395,17.2853211,14.6,7.61,16.0762,-7.5,1.3,0.1,167.8, -6.7, -4.2,0,0,1024,1024,1024,1024,0,0,0,0,0,0,0,97,3.894,3.887,3.899,3.906,3.912,3.897,0,,16.9853211,14.3,14,Waypoint,
16900,2024-11-04 06:13:54,-23.4440750135111,151.917309402071,14.3,,,16.9853211,0,7.71,16.964,21.5055,16,5,23.208,17.2853211,14.6,7.71,16.964,-7.6,1.3,0.1,167.9, -6.1, -5.4,0,0,1024,1024,1024,1024,0,0,0,0,0,0,0,97,3.86,3.858,3.862,3.875,3.878,3.875,0,,16.9853211,14.3,14,Waypoint,
17000,2024-11-04 06:13:54,-23.4440836366432,151.917310780434,14.2,,,16.8853211,0,7.83,17.9278,22.4747,16,5,23.208,17.2853211,14.6,7.83,17.9278,-7.7,1.4,0.1,167.9, -6, -6.5,0,0,1024,1024,1024,1024,0,0,0,0,0,0,0,97,3.86,3.858,3.862,3.875,3.878,3.875,0,,16.8853211,14.2,14,Waypoint,
17100,2024-11-04 06:13:54,-23.4440917602338,151.917312243926,14.2,,,16.8853211,0,7.92,18.8371,23.3904,16,5,23.208,17.2853211,14.6,7.92,18.8371,-7.8,1.4,0.2,168, -5.3, -6.9,0,0,1024,1024,1024,1024,0,0,0,0,0,0,0,97,3.86,3.858,3.862,3.875,3.878,3.875,0,,16.8853211,14.2,14,Waypoint,
17200,2024-11-04 06:13:54,-23.4441003691007,151.917313768326,14.1,,,16.7853211,0,8.04,19.8011,24.3603,16,5,23.208,17.2853211,14.6,8.04,19.8011,-7.9,1.5,0.2,167.9, -3.5, -6.1,0,0,1024,1024,1024,1024,0,0,0,0,0,0,0,97,3.86,3.858,3.862,3.875,3.878,3.875,0,,16.7853211,14.1,14,Waypoint,
17300,2024-11-04 06:13:54,-23.4441085039992,151.917315334374,14.1,,,16.7853211,0,8.14,20.7134,25.279,16,5,23.208,17.2853211,14.6,8.14,20.7134,-8,1.5,0.1,167.8, -1.5, -5.5,0,0,1024,1024,1024,1024,0,0,0,0,0,0,0,97,3.86,3.858,3.862,3.875,3.878,3.875,0,,16.7853211,14.1,14,Waypoint,
17400,2024-11-04 06:13:54,-23.4441172931674,151.917316994314,14.1,,,16.7853211,0,8.14,21.6994,26.2709,16,5,23.208,17.2853211,14.6,8.14,21.6994,-8,1.5,0,167.6, 0, -4.3,0,0,1024,1024,1024,1024,0,0,0,0,0,0,0,97,3.86,3.858,3.862,3.875,3.878,3.875,0,,16.7853211,14.1,14,Waypoint,
17500,2024-11-04 06:13:54,-23.4441255783908,151.917318634799,14,,,16.6853211,0,8.14,22.6299,27.2074,16,5,23.208,17.2853211,14.6,8.14,22.6299,-8,1.5,0,167.5, 1.6, -3.9,0,0,1024,1024,1024,1024,0,0,0,0,0,0,0,97,3.86,3.858,3.862,3.875,3.878,3.875,0,,16.6853211,14,14,Waypoint,
17600,2024-11-04 06:13:55,-23.4441344671807,151.91732032189,14,,,16.6853211,0,8.14,23.6282,28.2107,16,5,23.208,17.2853211,14.6,8.14,23.6282,-8,1.5,0,167.5, 2.8, -3.9,0,0,1024,1024,1024,1024,0,0,0,0,0,0,0,97,3.86,3.858,3.862,3.875,3.878,3.875,0,,16.6853211,14,14,Waypoint,
17700,2024-11-04 06:13:55,-23.4441427495641,151.917321918235,14,,,16.6853211,0,8.14,24.5589,29.1461,16,5,23.208,17.2853211,14.6,8.14,24.5589,-8,1.5,0,167.5, 3.7, -4.2,0,0,1024,1024,1024,1024,0,0,0,0,0,0,0,97,3.86,3.858,3.862,3.875,3.878,3.875,0,,16.6853211,14,14,Waypoint,
17800,2024-11-04 06:13:55,-23.4441515944381,151.917323591375,14,,,16.6853211,0,8.12,25.5529,30.1444,16,5,23.208,17.2853211,14.6,8.14,25.5529,-8,1.4,0,167.4, 4.4, -4.6,0,0,1024,1024,1024,1024,0,0,0,0,0,0,0,97,3.86,3.858,3.862,3.875,3.878,3.875,0,,16.6853211,14,14,Waypoint,
17900,2024-11-04 06:13:55,-23.4441597884036,151.917325177684,14,,,16.6853211,0,8.02,26.4744,31.0699,16,5,23.208,17.2853211,14.6,8.14,26.4744,-7.9,1.4,0,167.4, 4.8, -5,0,0,1024,1024,1024,1024,0,0,0,0,0,0,0,97,3.86,3.858,3.862,3.875,3.878,3.875,0,,16.6853211,14,14,Waypoint,
18000,2024-11-04 06:13:55,-23.4441684864571,151.917326840216,14,,,16.6853211,0,8.02,27.4527,32.0519,16,5,23.208,17.2853211,14.6,8.14,27.4527,-7.9,1.4,-0.1,167.4, 4.9, -5.6,0,0,1024,1024,1024,1024,0,0,0,0,0,0,0,97,3.86,3.858,3.862,3.875,3.878,3.875,0,,16.6853211,14,14,Waypoint,
18100,2024-11-04 06:13:55,-23.4441765330809,151.917328387949,14,,,16.6853211,0,7.92,28.3581,32.9606,16,5,23.208,17.2853211,14.6,8.14,28.3581,-7.8,1.4,-0.1,167.3, 5, -6,0,0,1024,1024,1024,1024,0,0,0,0,0,0,0,97,3.86,3.858,3.862,3.875,3.878,3.875,0,,16.6853211,14,14,Waypoint,
18300,2024-11-04 06:13:55,-23.4441931251014,151.917331774636,14,,,16.6853211,0,7.92,30.2274,34.8378,16,5,23.208,17.2853211,14.6,8.14,30.2274,-7.8,1.4,-0.2,167.3, 5.2, -6.2,0,0,1024,1024,1024,1024,0,0,0,0,0,0,0,97,3.86,3.858,3.862,3.875,3.878,3.875,0,,16.6853211,14,14,Waypoint,
18400,2024-11-04 06:13:55,-23.4442017069231,151.917333737533,14.1,,,16.7853211,0,7.83,31.1968,35.8129,16,5,23.208,17.2853211,14.6,8.14,31.1968,-7.7,1.4,-0.2,167.3, 5, -6.4,0,0,1024,1024,1024,1024,0,0,0,0,0,0,0,97,3.86,3.858,3.862,3.875,3.878,3.875,0,,16.7853211,14.1,14,Waypoint,
18500,2024-11-04 06:13:55,-23.4442096181906,151.917335548448,14.1,,,16.7853211,0,7.84,32.0907,36.7119,16,5,23.208,17.2853211,14.6,8.14,32.0907,-7.7,1.5,-0.2,167.3, 5, -6.2,0,0,1024,1024,1024,1024,0,0,0,0,0,0,0,97,3.86,3.858,3.862,3.875,3.878,3.875,0,,16.7853211,14.1,14,Waypoint,
18600,2024-11-04 06:13:56,-23.4442182184333,151.917337651336,14.1,,,16.7853211,0,7.84,33.0643,37.692,16,5,22.912,17.2853211,14.6,8.14,33.0643,-7.7,1.5,-0.1,167.4, 5, -5.8,0,0,1024,1024,1024,1024,0,0,0,0,0,0,0,97,3.818,3.81,3.818,3.82,3.823,3.823,0,,16.7853211,14.1,14,Waypoint,
18700,2024-11-04 06:13:56,-23.4442261278248,151.917339515916,14.1,,,16.7853211,0,7.84,33.9592,38.592,16,5,22.912,17.2853211,14.6,8.14,33.9592,-7.7,1.5,-0.3,167.4, 5.7, -5.4,0,0,1024,1024,1024,1024,0,0,0,0,0,0,0,97,3.818,3.81,3.818,3.82,3.823,3.823,0,,16.7853211,14.1,14,Waypoint,
18800,2024-11-04 06:13:56,-23.4442347914596,151.917341762885,14.1,,,16.7853211,0,7.84,34.9421,39.5823,16,5,22.912,17.2853211,14.6,8.14,34.9421,-7.7,1.5,-0.3,167.4, 6.5, -5,0,0,1024,1024,1024,1024,0,0,0,0,0,0,0,97,3.818,3.81,3.818,3.82,3.823,3.823,0,,16.7853211,14.1,14,Waypoint,
18900,2024-11-04 06:13:56,-23.4442427067135,151.917343775375,14.2,,,16.8853211,0,7.75,35.84,40.4862,16,5,22.912,17.2853211,14.6,8.14,35.84,-7.6,1.5,-0.2,167.4, 7.6, -4.7,0,0,1024,1024,1024,1024,0,0,0,0,0,0,0,97,3.818,3.81,3.818,3.82,3.823,3.823,0,,16.8853211,14.2,14,Waypoint,
19100,2024-11-04 06:13:56,-23.4442587783875,151.917348007316,14.2,,,16.8853211,0,7.67,37.6658,42.3248,16,5,22.912,17.2853211,14.6,8.14,37.6658,-7.5,1.6,-0.2,167.4, 9, -4.1,0,0,1024,1024,1024,1024,0,0,0,0,0,0,0,97,3.818,3.81,3.818,3.82,3.823,3.823,0,,16.8853211,14.2,14,Waypoint,
19200,2024-11-04 06:13:56,-23.4442671612264,151.917350334614,14.3,,,16.9853211,0,7.57,38.6201,43.2868,16,5,22.912,17.2853211,14.6,8.14,38.6201,-7.4,1.6,-0.2,167.4, 9.2, -3.7,0,0,1024,1024,1024,1024,0,0,0,0,0,0,0,97,3.818,3.81,3.818,3.82,3.823,3.823,0,,16.9853211,14.3,14,Waypoint,
19300,2024-11-04 06:13:56,-23.4442747825267,151.917352346722,14.3,,,16.9853211,0,7.47,39.4867,44.1589,16,5,22.912,17.2853211,14.6,8.14,39.4867,-7.3,1.6,-0.2,167.5, 9.5, -3.2,0,0,1024,1024,1024,1024,0,0,0,0,0,0,0,97,3.818,3.81,3.818,3.82,3.823,3.823,0,,16.9853211,14.3,14,Waypoint,
19400,2024-11-04 06:13:56,-23.4442828048411,151.917354610877,14.3,,,16.9853211,0,7.45,40.4011,45.0804,16,5,22.912,17.2853211,14.6,8.14,40.4011,-7.3,1.5,-0.2,167.5, 9.7, -2.7,0,0,1024,1024,1024,1024,0,0,0,0,0,0,0,97,3.818,3.81,3.818,3.82,3.823,3.823,0,,16.9853211,14.3,14,Waypoint,
19500,2024-11-04 06:13:56,-23.4442900608749,151.917356536269,14.3,,,16.9853211,0,7.35,41.2267,45.9109,16,5,22.912,17.2853211,14.6,8.14,41.2267,-7.2,1.5,-0.2,167.6, 9.7, -2.3,0,0,1024,1024,1024,1024,0,0,0,0,0,0,0,97,3.818,3.81,3.818,3.82,3.823,3.823,0,,16.9853211,14.3,14,Waypoint,
19600,2024-11-04 06:13:57,-23.4442979394954,151.917358691236,14.4,,,17.0853211,0,7.24,42.1244,46.8142,16,5,22.985,17.2853211,14.6,8.14,42.1244,-7.1,1.4,-0.2,167.5, 9.2, -2.4,0,0,1024,1024,1024,1024,0,0,0,0,0,0,0,97,3.831,3.827,3.823,3.826,3.84,3.838,0,,17.0853211,14.4,14,Waypoint,
19700,2024-11-04 06:13:57,-23.4443051274211,151.917360518058,14.4,,,17.0853211,0,7.14,42.9415,47.635,16,5,22.985,17.2853211,14.6,8.14,42.9415,-7,1.4,-0.2,167.6, 8.8, -2.4,0,0,1024,1024,1024,1024,0,0,0,0,0,0,0,97,3.831,3.827,3.823,3.826,3.84,3.838,0,,17.0853211,14.4,14,Waypoint,
19800,2024-11-04 06:13:57,-23.4443127529944,151.917362635791,14.4,,,17.0853211,0,7.04,43.8112,48.5101,16,5,22.985,17.2853211,14.6,8.14,43.8112,-6.9,1.4,-0.2,167.6, 8.3, -2.2,0,0,1024,1024,1024,1024,0,0,0,0,0,0,0,97,3.831,3.827,3.823,3.826,3.84,3.838,0,,17.0853211,14.4,14,Waypoint,
19900,2024-11-04 06:13:57,-23.4443196732561,151.917364468048,14.4,,,17.0853211,0,6.94,44.5993,49.3021,16,5,22.985,17.2853211,14.6,8.14,44.5993,-6.8,1.4,-0.1,167.6, 8.1, -2.1,0,0,1024,1024,1024,1024,0,0,0,0,0,0,0,97,3.831,3.827,3.823,3.826,3.84,3.838,0,,17.0853211,14.4,14,Waypoint,
20000,2024-11-04 06:13:57,-23.4443269098267,151.917366612249,14.5,,,17.1853211,0,6.94,45.4268,50.136,16,5,22.985,17.2853211,14.6,8.14,45.4268,-6.7,1.4,-0.1,167.7, 7.6, -1.8,0,0,1024,1024,1024,1024,0,0,0,0,0,0,0,97,3.831,3.827,3.823,3.826,3.84,3.838,0,,17.1853211,14.5,14,Waypoint,
20100,2024-11-04 06:13:57,-23.4443335191207,151.917368419583,14.5,,,17.1853211,0,6.73,46.1807,50.8938,16,5,22.985,17.2853211,14.6,8.14,46.1807,-6.6,1.3,-0.2,167.7, 6.9, -1.5,0,0,1024,1024,1024,1024,0,0,0,0,0,0,0,97,3.831,3.827,3.823,3.826,3.84,3.838,0,,17.1853211,14.5,14,Waypoint,
20200,2024-11-04 06:13:57,-23.4443402932654,151.917370404634,14.5,,,17.1853211,0,6.73,46.9554,51.6739,16,5,22.985,17.2853211,14.6,8.14,46.9554,-6.6,1.3,-0.1,167.7, 6.1, -1.6,0,0,1024,1024,1024,1024,0,0,0,0,0,0,0,97,3.831,3.827,3.823,3.826,3.84,3.838,0,,17.1853211,14.5,14,Waypoint,
20300,2024-11-04 06:13:57,-23.4443465985484,151.917372064192,14.6,,,17.2853211,0,6.73,47.6738,52.3952,16,5,22.985,17.2853211,14.6,8.14,47.6738,-6.5,1.2,-0.2,167.7, 5.3, -1.5,0,0,1024,1024,1024,1024,0,0,0,0,0,0,0,97,3.831,3.827,3.823,3.826,3.84,3.838,0,,17.2853211,14.6,14,Waypoint,
20400,2024-11-04 06:13:57,-23.4443532386917,151.917374017392,14.6,,,17.2853211,0,6.51,48.4336,53.16,16,5,22.985,17.2853211,14.6,8.14,48.4336,-6.4,1.2,-0.1,167.8, 4.8, -1.3,0,0,1024,1024,1024,1024,0,0,0,0,0,0,0,97,3.831,3.827,3.823,3.826,3.84,3.838,0,,17.2853211,14.6,14,Waypoint,
20500,2024-11-04 06:13:58,-23.4443594959812,151.917375711239,14.6,,,17.2853211,0,6.51,49.1475,53.877,16,5,22.985,17.2853211,14.6,8.14,49.1475,-6.4,1.2,-0.1,167.7, 4, -1,0,0,1024,1024,1024,1024,0,0,0,0,0,0,0,97,3.831,3.827,3.823,3.826,3.84,3.838,0,,17.2853211,14.6,14,Waypoint,
20600,2024-11-04 06:13:58,-23.4443660313048,151.917377611008,14.6,,,17.2853211,0,6.51,49.8952,54.6292,16,5,22.985,17.2853211,14.6,8.14,49.8952,-6.4,1.2,0,167.8, 3.6, -0.5,0,0,1024,1024,1024,1024,0,0,0,0,0,0,0,97,3.831,3.827,3.823,3.826,3.84,3.838,0,,17.2853211,14.6,14,Waypoint,
20700,2024-11-04 06:13:58,-23.4443721846084,151.917379206882,14.6,,,17.2853211,0,6.41,50.5963,55.3326,16,5,23.185,17.2853211,14.6,8.14,50.5963,-6.3,1.2,-0.1,167.8, 3, -0.2,0,0,1024,1024,1024,1024,0,0,0,0,0,0,0,97,3.866,3.857,3.857,3.857,3.89,3.858,0,,17.2853211,14.6,14,Waypoint,
20800,2024-11-04 06:13:58,-23.4443785030753,151.917380941507,14.7,,,17.3853211,0,6.41,51.3178,56.0572,16,5,23.185,17.3853211,14.7,8.14,51.3178,-6.3,1.2,0,167.8, 2.7, 0,0,0,1024,1024,1024,1024,0,0,0,0,0,0,0,97,3.866,3.857,3.857,3.857,3.89,3.858,0,,17.3853211,14.7,14,Waypoint,
20900,2024-11-04 06:13:58,-23.4443844931958,151.917382371951,14.7,,,17.3853211,0,6.41,51.9985,56.7391,16,5,23.185,17.3853211,14.7,8.14,51.9985,-6.3,1.1,0,167.8, 2, 0,0,0,1024,1024,1024,1024,0,0,0,0,0,0,0,97,3.866,3.857,3.857,3.857,3.89,3.858,0,,17.3853211,14.7,14,Waypoint,
21000,2024-11-04 06:13:58,-23.4443907080156,151.91738395408,14.7,,,17.3853211,0,6.38,52.7063,57.4489,16,5,23.185,17.3853211,14.7,8.14,52.7063,-6.3,1,0,167.9, 1.4, 0,0,0,1024,1024,1024,1024,0,0,0,0,0,0,0,97,3.866,3.857,3.857,3.857,3.89,3.858,0,,17.3853211,14.7,14,Waypoint,
21100,2024-11-04 06:13:58,-23.4443966882872,151.917385292528,14.7,,,17.3853211,0,6.38,53.3846,58.1278,16,5,23.185,17.3853211,14.7,8.14,53.3846,-6.3,1,0,167.8, 1.3, 0.2,0,0,1024,1024,1024,1024,0,0,0,0,0,0,0,97,3.866,3.857,3.857,3.857,3.89,3.858,0,,17.3853211,14.7,14,Waypoint,
21200,2024-11-04 06:13:58,-23.4444029611056,151.917386791195,14.6,,,17.2853211,0,6.38,54.0975,58.8419,16,5,23.185,17.3853211,14.7,8.14,54.0975,-6.3,1,0,167.8, 1, 0.2,0,0,1024,1024,1024,1024,0,0,0,0,0,0,0,97,3.866,3.857,3.857,3.857,3.89,3.858,0,,17.2853211,14.6,14,Waypoint,
21300,2024-11-04 06:13:58,-23.4444089820754,151.917388026535,14.6,,,17.2853211,0,6.36,54.7786,59.5232,16,5,23.185,17.3853211,14.7,8.14,54.7786,-6.3,0.9,0,167.7, 0.6, -0.2,0,0,1024,1024,1024,1024,0,0,0,0,0,0,0,97,3.866,3.857,3.857,3.857,3.89,3.858,0,,17.2853211,14.6,14,Waypoint,
21400,2024-11-04 06:13:58,-23.4444150641183,151.917389359315,14.6,,,17.2853211,0,6.36,55.4679,60.2131,16,5,23.185,17.3853211,14.7,8.14,55.4679,-6.3,0.9,0,167.8, 0.3, -0.3,0,0,1024,1024,1024,1024,0,0,0,0,0,0,0,97,3.866,3.857,3.857,3.857,3.89,3.858,0,,17.2853211,14.6,14,Waypoint,
21500,2024-11-04 06:13:58,-23.4444208735727,151.917390452253,14.6,,,17.2853211,0,6.35,56.1235,60.8687,16,5,23.185,17.3853211,14.7,8.14,56.1235,-6.3,0.8,0,167.8, -0.1, -1,0,0,1024,1024,1024,1024,0,0,0,0,0,0,0,97,3.866,3.857,3.857,3.857,3.89,3.858,0,,17.2853211,14.6,14,Waypoint,
21600,2024-11-04 06:13:59,-23.4444268294568,151.91739166099,14.6,,,17.2853211,0,6.35,56.797,61.5424,16,5,23.345,17.3853211,14.7,8.14,56.797,-6.3,0.8,0,167.8, -0.8, -1.4,0,0,1024,1024,1024,1024,0,0,0,0,0,0,0,97,3.891,3.884,3.888,3.887,3.896,3.899,0,,17.2853211,14.6,14,Waypoint,
21700,2024-11-04 06:13:59,-23.4444326634551,151.917392694885,14.6,,,17.2853211,0,6.35,57.4543,62.1997,16,5,23.345,17.3853211,14.7,8.14,57.4543,-6.3,0.8,0,167.8, -1.6, -1.6,0,0,1024,1024,1024,1024,0,0,0,0,0,0,0,97,3.891,3.884,3.888,3.887,3.896,3.899,0,,17.2853211,14.6,14,Waypoint,
21800,2024-11-04 06:13:59,-23.4444384554526,151.917393820131,14.6,,,17.2853211,0,6.35,58.1084,62.854,16,5,23.345,17.3853211,14.7,8.14,58.1084,-6.3,0.8,0,167.8, -2.2, -1.6,0,0,1024,1024,1024,1024,0,0,0,0,0,0,0,97,3.891,3.884,3.888,3.887,3.896,3.899,0,,17.2853211,14.6,14,Waypoint,
21900,2024-11-04 06:13:59,-23.4444441209787,151.917394796804,14.6,,,17.2853211,0,6.35,58.7463,63.4919,16,5,23.345,17.3853211,14.7,8.14,58.7463,-6.3,0.8,0,167.8, -3, -1.9,0,0,1024,1024,1024,1024,0,0,0,0,0,0,0,97,3.891,3.884,3.888,3.887,3.896,3.899,0,,17.2853211,14.6,14,Waypoint,
22000,2024-11-04 06:13:59,-23.4444498931222,151.917395881524,14.6,,,17.2853211,0,6.35,59.3976,64.1432,16,5,23.345,17.3853211,14.7,8.14,59.3976,-6.3,0.8,0.1,167.9, -3.6, -1.7,0,0,1024,1024,1024,1024,0,0,0,0,0,0,0,97,3.891,3.884,3.888,3.887,3.896,3.899,0,,17.2853211,14.6,14,Waypoint,
22100,2024-11-04 06:13:59,-23.4444556779806,151.917396841239,14.6,,,17.2853211,0,6.35,60.0483,64.794,16,5,23.345,17.3853211,14.7,8.14,60.0483,-6.3,0.8,0,167.9, -3.8, -1.3,0,0,1024,1024,1024,1024,0,0,0,0,0,0,0,97,3.891,3.884,3.888,3.887,3.896,3.899,0,,17.2853211,14.6,14,Waypoint,
