time(millisecond),datetime(utc),latitude,longitude,height_above_takeoff(meters),height_above_ground_at_drone_location(meters),ground_elevation_at_drone_location(meters),altitude_above_seaLevel(meters),height_sonar(meters),speed(m/s),distance(meters),mileage(meters),satellites,gpslevel,voltage(v),max_altitude(meters),max_ascent(meters),max_speed(m/s),max_distance(meters), xSpeed(m/s), ySpeed(m/s), zSpeed(m/s), compass_heading(degrees), pitch(degrees), roll(degrees),isPhoto,isVideo,rc_elevator,rc_aileron,rc_throttle,rc_rudder,rc_elevator(percent),rc_aileron(percent),rc_throttle(percent),rc_rudder(percent),gimbal_heading(degrees),gimbal_pitch(degrees),gimbal_roll(degrees),battery_percent,voltageCell1,voltageCell2,voltageCell3,voltageCell4,voltageCell5,voltageCell6,current(A),battery_temperature(c),altitude(meters),ascent(meters),flycStateRaw,flycState,message
0,2024-11-04 06:29:53,-23.4439177758442,151.91730310747,0,Available with any HD 360 subscription,Available with any HD 360 subscription,2.6853211,0,0,0,0,15,5,0,2.6853211,0,0,0,0,0,0,81.2, -1.8, 1.1,0,0,1024,1024,1024,1024,0,0,0,0,0,0,0,99,4.361,4.229,4.222,4.379,4.381,4.346,0,,2.6853211,0,41,Motors_Started,
100,2024-11-04 06:29:54,-23.4439178108863,151.917303099684,0,,,2.6853211,0,0,0.00397704,0.00397704,15,5,0,2.6853211,0,0,0.00397704,0,0,0,81.3, -1.8, 1.1,0,0,1024,1024,1024,1024,0,0,0,0,0,0,0,99,4.361,4.229,4.222,4.379,4.381,4.346,0,,2.6853211,0,41,Motors_Started,
200,2024-11-04 06:29:54,-23.4439178408755,151.917303100653,0,,,2.6853211,0,0,0.00726524,0.00731349,15,5,0,2.6853211,0,0,0.00726524,0,0,0,81.3, -1.8, 1.1,0,0,1024,1024,1024,1024,0,0,0,0,0,0,0,99,4.361,4.229,4.222,4.379,4.381,4.346,0,,2.6853211,0,41,Motors_Started,
300,2024-11-04 06:29:54,-23.4439178763787,151.917303123756,0,,,2.6853211,0,0,0.0113028,0.0119117,15,5,0,2.6853211,0,0,0.0113028,0,0,0,81.4, -1.8, 1.1,0,0,1024,1024,1024,1024,0,0,0,0,0,0,0,99,4.361,4.229,4.222,4.379,4.381,4.346,0,,2.6853211,0,41,Motors_Started,
400,2024-11-04 06:29:54,-23.4439178954111,151.917303150765,0,,,2.6853211,0,0,0.0140111,0.0153864,15,5,0,2.6853211,0,0,0.0140111,0,0,0,81.4, -1.8, 1.1,0,0,1024,1024,1024,1024,0,0,0,0,0,0,0,99,4.361,4.229,4.222,4.379,4.381,4.346,0,,2.6853211,0,41,Motors_Started,"Setting new Return-To-Home altitude to 40m (131 ft). Data Recorder File Index is 368. Setting new Maximum Flight Altitude to 120m (394 ft)"
500,2024-11-04 06:29:54,-23.4439179095533,151.917303168967,0,,,2.6853211,0,0,0.0161388,0.0178199,15,5,0,2.6853211,0,0,0.0161388,0,0,0,81.4, -1.8, 1.1,0,0,1024,1024,1024,1024,0,0,0,0,0,0,0,99,4.361,4.229,4.222,4.379,4.381,4.346,0,,2.6853211,0,41,Motors_Started,
600,2024-11-04 06:29:54,-23.4439179189684,151.917303185414,0,,,2.6853211,0,0,0.0177923,0.0197978,15,5,0,2.6853211,0,0,0.0177923,0,0,0,81.4, -1.8, 1.1,0,0,1024,1024,1024,1024,0,0,0,0,0,0,0,99,4.361,4.229,4.222,4.379,4.381,4.346,0,,2.6853211,0,41,Motors_Started,
700,2024-11-04 06:29:54,-23.4439179206424,151.917303189646,0,,,2.6853211,0,0,0.0181544,0.020268,15,5,0,2.6853211,0,0,0.0181544,0,0,0,81.4, -1.8, 1.1,0,0,1024,1024,1024,1024,0,0,0,0,0,0,0,99,4.361,4.229,4.222,4.379,4.381,4.346,0,,2.6853211,0,41,Motors_Started,
800,2024-11-04 06:29:54,-23.4439179236996,151.917303196537,0,,,2.6853211,0,0,0.0187864,0.0210489,15,5,0,2.6853211,0,0,0.0187864,0,0,0,81.5, -1.8, 1.1,0,0,1024,1024,1024,1024,0,0,0,0,0,0,0,99,4.361,4.229,4.222,4.379,4.381,4.346,0,,2.6853211,0,41,Motors_Started,
900,2024-11-04 06:29:54,-23.4439179198095,151.917303225672,0,,,2.6853211,0,0,0.0200437,0.0240527,15,5,0,2.6853211,0,0,0.0200437,0,0,0,81.5, -1.8, 1.1,0,0,1024,1024,1024,1024,0,0,0,0,0,0,0,99,4.361,4.229,4.222,4.379,4.381,4.346,0,,2.6853211,0,41,Motors_Started,
1000,2024-11-04 06:29:54,-23.4439179200745,151.917303257569,0,,,2.6853211,0,0,0.022176,0.0273072,15,5,0,2.6853211,0,0,0.022176,0,0,0,81.5, -1.8, 1.1,0,0,1024,1024,1024,1024,0,0,0,0,0,0,0,99,4.361,4.229,4.222,4.379,4.381,4.346,0,,2.6853211,0,41,Motors_Started,
1100,2024-11-04 06:29:55,-23.4439179137708,151.917303279513,0,,,2.6853211,0,0,0.0233102,0.0296532,15,5,0,2.6853211,0,0,0.0233102,0,0,0,81.6, -1.8, 1.1,0,0,1024,1024,1024,1024,0,0,0,0,0,0,0,99,4.361,4.229,4.222,4.379,4.381,4.346,0,,2.6853211,0,41,Motors_Started,
1200,2024-11-04 06:29:55,-23.4439179128886,151.917303296097,0,,,2.6853211,0,0,0.0245484,0.0313481,15,5,0,2.6853211,0,0,0.0245484,0,0,0,81.6, -1.8, 1.1,0,0,1024,1024,1024,1024,0,0,0,0,0,0,0,99,4.361,4.229,4.222,4.379,4.381,4.346,0,,2.6853211,0,41,Motors_Started,
1300,2024-11-04 06:29:55,-23.4439179066893,151.917303296782,0,,,2.6853211,0,0,0.0241823,0.032041,15,5,0,2.6853211,0,0,0.0245484,0,0,0,81.6, -1.8, 1.1,0,0,1024,1024,1024,1024,0,0,0,0,0,0,0,99,4.361,4.229,4.222,4.379,4.381,4.346,0,,2.6853211,0,41,Motors_Started,
1400,2024-11-04 06:29:55,-23.4439179042643,151.917303302527,0,,,2.6853211,0,0,0.0244948,0.0326862,15,5,0,2.6853211,0,0,0.0245484,0,0,0,81.6, -1.8, 1.1,0,0,1024,1024,1024,1024,0,0,0,0,0,0,0,99,4.361,4.229,4.222,4.379,4.381,4.346,0,,2.6853211,0,41,Motors_Started,
1500,2024-11-04 06:29:55,-23.4439178983928,151.917303294865,0,,,2.6853211,0,0,0.0234791,0.0337048,15,5,0,2.6853211,0,0,0.0245484,0,0,0,81.6, -1.8, 1.1,0,0,1024,1024,1024,1024,0,0,0,0,0,0,0,99,4.361,4.229,4.222,4.379,4.381,4.346,0,,2.6853211,0,41,Motors_Started,
1600,2024-11-04 06:29:55,-23.4439178965736,151.917303296258,0,,,2.6853211,0,0,0.0234787,0.0339521,15,5,0,2.6853211,0,0,0.0245484,0,0,0,81.6, -1.8, 1.1,0,0,1024,1024,1024,1024,0,0,0,0,0,0,0,99,4.361,4.229,4.222,4.379,4.381,4.346,0,,2.6853211,0,41,Motors_Started,
1700,2024-11-04 06:29:55,-23.4439178916488,151.917303320034,0,,,2.6853211,0,0,0.0252225,0.0364389,15,5,25.918,2.6853211,0,0,0.0252225,0,0,0,81.6, -1.8, 1.1,0,0,1024,1024,1024,1024,0,0,0,0,0,0,0,99,4.361,4.229,4.222,4.379,4.381,4.346,0,,2.6853211,0,41,Motors_Started,
1800,2024-11-04 06:29:55,-23.4439178901826,151.917303345772,0,,,2.6853211,0,0,0.0274371,0.0390699,15,5,25.918,2.6853211,0,0,0.0274371,0,0,0,81.7, -1.7, 1.1,0,0,1024,1024,1024,1024,0,0,0,0,0,0,0,99,4.361,4.229,4.222,4.379,4.381,4.346,0,,2.6853211,0,41,Motors_Started,
1900,2024-11-04 06:29:55,-23.4439178877519,151.917303362556,0,,,2.6853211,0,0,0.0288478,0.0408036,15,5,25.918,2.6853211,0,0,0.0288478,0,0,0,81.7, -1.7, 1.1,0,0,1024,1024,1024,1024,0,0,0,0,0,0,0,99,4.361,4.229,4.222,4.379,4.381,4.346,0,,2.6853211,0,41,Motors_Started,
2000,2024-11-04 06:29:55,-23.4439178871083,151.917303376206,0,,,2.6853211,0,0,0.0300807,0.042198,15,5,25.918,2.6853211,0,0,0.0300807,0,0,0,81.7, -1.7, 1.1,0,0,1024,1024,1024,1024,0,0,0,0,0,0,0,99,4.361,4.229,4.222,4.379,4.381,4.346,0,,2.6853211,0,11,AutoTakeoff,
2100,2024-11-04 06:29:56,-23.443917885202,151.917303378212,0,,,2.6853211,0,0,0.0301813,0.0424927,15,5,25.918,2.6853211,0,0,0.0301813,0,0,0,81.7, -1.7, 1.1,0,0,1024,1024,1024,1024,0,0,0,0,0,0,0,99,4.361,4.229,4.222,4.379,4.381,4.346,0,,2.6853211,0,11,AutoTakeoff,
2200,2024-11-04 06:29:56,-23.4439178853259,151.917303382923,0,,,2.6853211,0,0,0.0306273,0.0429735,15,5,25.918,2.6853211,0,0,0.0306273,0,0,0,81.7, -1.7, 1.1,0,0,1024,1024,1024,1024,0,0,0,0,0,0,0,99,4.361,4.229,4.222,4.379,4.381,4.346,0,,2.6853211,0,11,AutoTakeoff,
2300,2024-11-04 06:29:56,-23.4439178840435,151.917303375941,0,,,2.6853211,0,0,0.0299174,0.0437,15,5,25.918,2.6853211,0,0,0.0306273,0,0,0,81.7, -1.6, 1.1,0,0,1024,1024,1024,1024,0,0,0,0,0,0,0,99,4.361,4.229,4.222,4.379,4.381,4.346,0,,2.6853211,0,11,AutoTakeoff,
2400,2024-11-04 06:29:56,-23.4439178870794,151.917303366056,0,,,2.6853211,0,0,0.0291385,0.0447636,15,5,25.918,2.6853211,0,0,0.0306273,0,0,0,81.9, -1.2, 1.1,0,0,1024,1024,1024,1024,0,0,0,0,0,0,0,99,4.361,4.229,4.222,4.379,4.381,4.346,0,,2.6853211,0,11,AutoTakeoff,
2500,2024-11-04 06:29:56,-23.4439178923044,151.917303315655,0,,,2.6853211,0,0,0.0248773,0.0499386,15,5,25.918,2.6853211,0,0,0.0306273,0,0,0,82, -0.7, 1.1,0,0,1024,1024,1024,1024,0,0,0,0,0,0,0,99,4.361,4.229,4.222,4.379,4.381,4.346,0,,2.6853211,0,11,AutoTakeoff,
2600,2024-11-04 06:29:56,-23.4439179011668,151.917303258874,0,,,2.6853211,0,0,0.0208049,0.0558149,15,5,25.918,2.6853211,0,0,0.0306273,0,0,0,82.2, 0, 1.2,0,0,1024,1024,1024,1024,0,0,0,0,0,0,0,99,4.361,4.229,4.222,4.379,4.381,4.346,0,,2.6853211,0,11,AutoTakeoff,
2700,2024-11-04 06:29:56,-23.4439179129698,151.917303178347,0,,,2.6853211,0,0,0.0168769,0.0641349,15,5,25.918,2.6853211,0,0,0.0306273,0,0,0,82.3, 0.1, 1.2,0,0,1024,1024,1024,1024,0,0,0,0,0,0,0,99,4.361,4.229,4.222,4.379,4.381,4.346,0,,2.6853211,0,11,AutoTakeoff,
2800,2024-11-04 06:29:56,-23.4439179299756,151.917303119453,0,,,2.6853211,0,0,0.0171839,0.0704342,15,5,25.918,2.6853211,0,0,0.0306273,0,0,0,82.4, 0.4, 1.2,0,0,1024,1024,1024,1024,0,0,0,0,0,0,0,99,4.361,4.229,4.222,4.379,4.381,4.346,0,,2.6853211,0,11,AutoTakeoff,
2900,2024-11-04 06:29:56,-23.4439179790038,151.917303097469,0,,,2.6853211,0,0,0.0226156,0.0763298,15,5,25.918,2.6853211,0,0,0.0306273,0,0,0,82.5, 0.6, 1.4,0,0,1024,1024,1024,1024,0,0,0,0,0,0,0,99,4.361,4.229,4.222,4.379,4.381,4.346,0,,2.6853211,0,11,AutoTakeoff,
3000,2024-11-04 06:29:56,-23.4439180342571,151.917303092633,0,,,2.6853211,0,0,0.0287769,0.0824941,15,5,25.918,2.6853211,0,0,0.0306273,0,0,0,82.5, 1.3, 1.5,0,0,1024,1024,1024,1024,0,0,0,0,0,0,0,99,4.361,4.229,4.222,4.379,4.381,4.346,0,,2.6853211,0,11,AutoTakeoff,
3100,2024-11-04 06:29:57,-23.4439180885407,151.917303070698,0,,,2.6853211,0,0,0.0349755,0.0889322,15,5,25.918,2.6853211,0,0,0.0349755,0,0,0,82.6, 2, 1.5,0,0,1024,1024,1024,1024,0,0,0,0,0,0,0,99,4.361,4.229,4.222,4.379,4.381,4.346,0,,2.6853211,0,11,AutoTakeoff,
3200,2024-11-04 06:29:57,-23.4439181434756,151.917303011028,0,,,2.6853211,0,0,0.0420503,0.0975568,15,5,25.918,2.6853211,0,0,0.0420503,0,0,0,82.8, 3, 1.3,0,0,1024,1024,1024,1024,0,0,0,0,0,0,0,99,4.361,4.229,4.222,4.379,4.381,4.346,0,,2.6853211,0,11,AutoTakeoff,
3300,2024-11-04 06:29:57,-23.4439182371462,151.91730284651,0,,,2.6853211,0,0.14,0.0577972,0.117312,15,5,25.918,2.6853211,0,0.14,0.0577972,-0.1,-0.1,-0.1,83, 4, 1.5,0,0,1024,1024,1024,1024,0,0,0,0,0,0,0,99,4.361,4.229,4.222,4.379,4.381,4.346,0,,2.6853211,0,11,AutoTakeoff,
3400,2024-11-04 06:29:57,-23.4439183625769,151.917302611223,0,,,2.6853211,0,0.22,0.0825878,0.145075,15,5,25.918,2.6853211,0,0.22,0.0825878,-0.1,-0.2,-0.2,83.1, 4.5, 1.3,0,0,1024,1024,1024,1024,0,0,0,0,0,0,0,99,4.361,4.229,4.222,4.379,4.381,4.346,0,,2.6853211,0,11,AutoTakeoff,
3500,2024-11-04 06:29:57,-23.4439185153841,151.917302178558,0,,,2.6853211,0,0.32,0.125481,0.192376,15,5,25.918,2.6853211,0,0.32,0.125481,-0.1,-0.3,-0.4,83.1, 3.9, 0.6,0,0,1024,1024,1024,1024,0,0,0,0,0,0,0,99,4.361,4.229,4.222,4.379,4.381,4.346,0,,2.6853211,0,11,AutoTakeoff,
3600,2024-11-04 06:29:57,-23.4439186769573,151.917301705719,0.1,,,2.7853211,0,0.41,0.174629,0.243856,15,5,25.918,2.7853211,0.1,0.41,0.174629,-0.1,-0.4,-0.5,83.1, 2.5, 0,0,0,1024,1024,1024,1024,0,0,0,0,0,0,0,99,4.361,4.229,4.222,4.379,4.381,4.346,0,,2.7853211,0.1,11,AutoTakeoff,
3700,2024-11-04 06:29:57,-23.4439188103481,151.917301043227,0.1,,,2.7853211,0,0.51,0.239979,0.313056,15,5,25.918,2.7853211,0.1,0.51,0.239979,-0.1,-0.5,-0.5,83.1, 1.5, -0.5,0,0,1024,1024,1024,1024,0,0,0,0,0,0,0,99,4.361,4.229,4.222,4.379,4.381,4.346,0,,2.7853211,0.1,11,AutoTakeoff,
3800,2024-11-04 06:29:57,-23.4439189510798,151.917300394328,0.2,,,2.8853211,0,0.51,0.306113,0.381085,15,5,25.891,2.8853211,0.2,0.51,0.306113,-0.1,-0.5,-0.6,83.1, 0.5, -1,0,0,1024,1024,1024,1024,0,0,0,0,0,0,0,99,4.356,4.225,4.218,4.376,4.375,4.341,0,,2.8853211,0.2,11,AutoTakeoff,
3900,2024-11-04 06:29:57,-23.4439190496805,151.917299561175,0.3,,,2.9853211,0,0.61,0.388557,0.466792,15,5,25.891,2.9853211,0.3,0.61,0.388557,-0.1,-0.6,-0.7,83.1, -0.3, -0.8,0,0,1024,1024,1024,1024,0,0,0,0,0,0,0,99,4.356,4.225,4.218,4.376,4.375,4.341,0,,2.9853211,0.3,11,AutoTakeoff,
4000,2024-11-04 06:29:57,-23.4439191474686,151.91729879713,0.4,,,3.0853211,0,0.61,0.465469,0.5455,15,5,25.891,3.0853211,0.4,0.61,0.465469,-0.1,-0.6,-0.7,83.2, -0.8, -0.8,0,0,1024,1024,1024,1024,0,0,0,0,0,0,0,99,4.356,4.225,4.218,4.376,4.375,4.341,0,,3.0853211,0.4,11,AutoTakeoff,
4100,2024-11-04 06:29:58,-23.4439191746737,151.917297965467,0.4,,,3.0853211,0,0.6,0.547195,0.630405,15,5,25.891,3.0853211,0.4,0.61,0.547195,0,-0.6,-0.7,83.1, -1.7, -1,0,0,1024,1024,1024,1024,0,0,0,0,0,0,0,99,4.356,4.225,4.218,4.376,4.375,4.341,0,,3.0853211,0.4,11,AutoTakeoff,
4200,2024-11-04 06:29:58,-23.4439192031121,151.917297216906,0.5,,,3.1853211,0,0.6,0.621597,0.706843,15,5,25.891,3.1853211,0.5,0.61,0.621597,0,-0.6,-0.7,83.1, -2.5, -0.9,0,0,1024,1024,1024,1024,0,0,0,0,0,0,0,99,4.356,4.225,4.218,4.376,4.375,4.341,0,,3.1853211,0.5,11,AutoTakeoff,
4300,2024-11-04 06:29:58,-23.4439191055109,151.917296455666,0.6,,,3.2853211,0,0.6,0.694579,0.785264,15,5,25.891,3.2853211,0.6,0.61,0.694579,0,-0.6,-0.7,83.1, -2.9, -0.7,0,0,1024,1024,1024,1024,0,0,0,0,0,0,0,99,4.356,4.225,4.218,4.376,4.375,4.341,0,,3.2853211,0.6,11,AutoTakeoff,
4400,2024-11-04 06:29:58,-23.4439190457193,151.917295752986,0.7,,,3.3853211,0,0.6,0.763522,0.857263,15,5,25.891,3.3853211,0.7,0.61,0.763522,0,-0.6,-0.7,83, -2.9, -0.4,0,0,1024,1024,1024,1024,0,0,0,0,0,0,0,98,4.356,4.225,4.218,4.376,4.375,4.341,0,,3.3853211,0.7,11,AutoTakeoff,
4500,2024-11-04 06:29:58,-23.4439189293963,151.917295125223,0.7,,,3.3853211,0,0.6,0.824438,0.922605,15,5,25.891,3.3853211,0.7,0.61,0.824438,0,-0.6,-0.6,83.1, -3.1, -0.3,0,0,1024,1024,1024,1024,0,0,0,0,0,0,0,98,4.356,4.225,4.218,4.376,4.375,4.341,0,,3.3853211,0.7,11,AutoTakeoff,
4600,2024-11-04 06:29:58,-23.4439188571952,151.917294530417,0.8,,,3.4853211,0,0.5,0.883306,0.983819,15,5,25.891,3.4853211,0.8,0.61,0.883306,0,-0.5,-0.5,83.1, -3.2, 0,0,0,1024,1024,1024,1024,0,0,0,0,0,0,0,98,4.356,4.225,4.218,4.376,4.375,4.341,0,,3.4853211,0.8,11,AutoTakeoff,
4700,2024-11-04 06:29:58,-23.4439187067835,151.917293983611,0.8,,,3.4853211,0,0.5,0.93661,1.04206,15,5,25.891,3.4853211,0.8,0.61,0.93661,0,-0.5,-0.4,83, -3.3, 0.2,0,0,1024,1024,1024,1024,0,0,0,0,0,0,0,98,4.356,4.225,4.218,4.376,4.375,4.341,0,,3.4853211,0.8,11,AutoTakeoff,
4800,2024-11-04 06:29:58,-23.443918593064,151.917293449096,0.9,,,3.5853211,0,0.5,0.989587,1.09804,15,5,25.238,3.5853211,0.9,0.61,0.989587,0,-0.5,-0.4,83, -3.2, 0.7,0,0,1024,1024,1024,1024,0,0,0,0,0,0,0,98,4.25,4.135,4.122,4.272,4.236,4.223,0,,3.5853211,0.9,11,AutoTakeoff,
4900,2024-11-04 06:29:58,-23.4439184435852,151.917293027932,0.9,,,3.5853211,0,0.5,1.03105,1.14412,15,5,25.238,3.5853211,0.9,0.61,1.03105,0,-0.5,-0.4,83, -3, 0.9,0,0,1024,1024,1024,1024,0,0,0,0,0,0,0,98,4.25,4.135,4.122,4.272,4.236,4.223,0,,3.5853211,0.9,11,AutoTakeoff,
5000,2024-11-04 06:29:58,-23.4439183469389,151.917292596468,0.9,,,3.5853211,0,0.5,1.07427,1.18943,15,5,25.238,3.5853211,0.9,0.61,1.07427,0,-0.5,-0.4,83, -2.6, 0.6,0,0,1024,1024,1024,1024,0,0,0,0,0,0,0,98,4.25,4.135,4.122,4.272,4.236,4.223,0,,3.5853211,0.9,11,AutoTakeoff,
5100,2024-11-04 06:29:59,-23.4439182916988,151.917292243425,1,,,3.6853211,0,0.4,1.1099,1.22597,15,5,25.238,3.6853211,1,0.61,1.1099,0,-0.4,-0.5,83, -2.7, 0.4,0,0,1024,1024,1024,1024,0,0,0,0,0,0,0,98,4.25,4.135,4.122,4.272,4.236,4.223,0,,3.6853211,1,11,AutoTakeoff,
5200,2024-11-04 06:29:59,-23.4439182755215,151.917291855723,1.1,,,3.7853211,0,0.4,1.14932,1.26557,15,5,25.238,3.7853211,1.1,0.61,1.14932,0,-0.4,-0.5,83.1, -3.3, 0.2,0,0,1024,1024,1024,1024,0,0,0,0,0,0,0,98,4.25,4.135,4.122,4.272,4.236,4.223,0,,3.7853211,1.1,14,Waypoint,
5300,2024-11-04 06:29:59,-23.4439182789911,151.917291395269,1.1,,,3.7853211,0,0.4,1.19626,1.31255,15,5,25.238,3.7853211,1.1,0.61,1.19626,0,-0.4,-0.4,83, -3.5, 0,0,0,1024,1024,1024,1024,0,0,0,0,0,0,0,98,4.25,4.135,4.122,4.272,4.236,4.223,0,,3.7853211,1.1,14,Waypoint,
5400,2024-11-04 06:29:59,-23.4439182757623,151.917290936919,1.2,,,3.8853211,0,0.4,1.24296,1.35931,15,5,25.238,3.8853211,1.2,0.61,1.24296,0,-0.4,-0.3,82.9, -3.3, -0.1,0,0,1024,1024,1024,1024,0,0,0,0,0,0,0,98,4.25,4.135,4.122,4.272,4.236,4.223,0,,3.8853211,1.2,14,Waypoint,
5500,2024-11-04 06:29:59,-23.4439182953311,151.91729056012,1.2,,,3.8853211,0,0.3,1.28146,1.39782,15,5,25.238,3.8853211,1.2,0.61,1.28146,0,-0.3,-0.3,82.9, -2.9, 0.2,0,0,1024,1024,1024,1024,0,0,0,0,0,0,0,98,4.25,4.135,4.122,4.272,4.236,4.223,0,,3.8853211,1.2,14,Waypoint,
5600,2024-11-04 06:29:59,-23.443918300305,151.917290210123,1.2,,,3.8853211,0,0.3,1.31716,1.43353,15,5,25.238,3.8853211,1.2,0.61,1.31716,0,-0.3,-0.3,82.9, -2.6, 0.7,0,0,1024,1024,1024,1024,0,0,0,0,0,0,0,98,4.25,4.135,4.122,4.272,4.236,4.223,0,,3.8853211,1.2,14,Waypoint,
5700,2024-11-04 06:29:59,-23.4439182722015,151.917289821391,1.2,,,3.8853211,0,0.3,1.35665,1.47331,15,5,25.238,3.8853211,1.2,0.61,1.35665,0,-0.3,-0.3,83, -2.4, 1.1,0,0,1024,1024,1024,1024,0,0,0,0,0,0,0,98,4.25,4.135,4.122,4.272,4.236,4.223,0,,3.8853211,1.2,14,Waypoint,
5800,2024-11-04 06:29:59,-23.4439182578887,151.917289449896,1.2,,,3.8853211,0,0.3,1.39446,1.51125,15,5,24.486,3.8853211,1.2,0.61,1.39446,0,-0.3,-0.4,82.9, -2.7, 1.7,0,0,1024,1024,1024,1024,0,0,0,0,0,0,0,98,4.103,4.013,4.005,4.118,4.121,4.126,0,,3.8853211,1.2,14,Waypoint,
5900,2024-11-04 06:29:59,-23.4439182789229,151.917289039475,1.3,,,3.9853211,0,0.3,1.43639,1.55319,15,5,24.486,3.9853211,1.3,0.61,1.43639,0,-0.3,-0.6,82.9, -3.3, 1.5,0,0,1024,1024,1024,1024,0,0,0,0,0,0,0,98,4.103,4.013,4.005,4.118,4.121,4.126,0,,3.9853211,1.3,14,Waypoint,
6000,2024-11-04 06:29:59,-23.4439183205471,151.917288665453,1.4,,,4.0853211,0,0.3,1.47471,1.59163,15,5,24.486,4.0853211,1.4,0.61,1.47471,0,-0.3,-0.8,82.9, -3.7, 0.7,0,0,1024,1024,1024,1024,0,0,0,0,0,0,0,98,4.103,4.013,4.005,4.118,4.121,4.126,0,,4.0853211,1.4,14,Waypoint,
6100,2024-11-04 06:30:00,-23.4439183784467,151.917288293312,1.5,,,4.1853211,0,0.3,1.51291,1.63014,15,5,24.486,4.1853211,1.5,0.61,1.51291,0,-0.3,-1.1,83, -4.1, 0,0,0,1024,1024,1024,1024,0,0,0,0,0,0,0,98,4.103,4.013,4.005,4.118,4.121,4.126,0,,4.1853211,1.5,14,Waypoint,
6200,2024-11-04 06:30:00,-23.4439184447443,151.91728799549,1.6,,,4.2853211,0,0.2,1.54361,1.6614,15,5,24.486,4.2853211,1.6,0.61,1.54361,0,-0.2,-1.3,83.2, -4.2, -0.3,0,0,1024,1024,1024,1024,0,0,0,0,0,0,0,98,4.103,4.013,4.005,4.118,4.121,4.126,0,,4.2853211,1.6,14,Waypoint,
6300,2024-11-04 06:30:00,-23.4439184787126,151.91728770303,1.8,,,4.4853211,0,0.2,1.5736,1.69148,15,5,24.486,4.4853211,1.8,0.61,1.5736,0,-0.2,-1.5,83.2, -4.3, -0.5,0,0,1024,1024,1024,1024,0,0,0,0,0,0,0,98,4.103,4.013,4.005,4.118,4.121,4.126,0,,4.4853211,1.8,14,Waypoint,
6400,2024-11-04 06:30:00,-23.4439185048473,151.917287493117,2,,,4.6853211,0,0.1,1.59513,1.71309,15,5,24.486,4.6853211,2,0.61,1.59513,0,-0.1,-1.8,83.2, -4.1, -0.2,0,0,1024,1024,1024,1024,0,0,0,0,0,0,0,98,4.103,4.013,4.005,4.118,4.121,4.126,0,,4.6853211,2,14,Waypoint,
6500,2024-11-04 06:30:00,-23.4439185270967,151.91728733662,2.2,,,4.8853211,0,0.1,1.6112,1.72925,15,5,24.486,4.8853211,2.2,0.61,1.6112,0,-0.1,-2,83.2, -3.9, 0,0,0,1024,1024,1024,1024,0,0,0,0,0,0,0,98,4.103,4.013,4.005,4.118,4.121,4.126,0,,4.8853211,2.2,14,Waypoint,
6600,2024-11-04 06:30:00,-23.4439185512649,151.917287256787,2.5,,,5.1853211,0,0,1.61948,1.73783,15,5,24.486,5.1853211,2.5,0.61,1.61948,0,0,-2.3,83.2, -3.6, 0.1,0,0,1024,1024,1024,1024,0,0,0,0,0,0,0,98,4.103,4.013,4.005,4.118,4.121,4.126,0,,5.1853211,2.5,14,Waypoint,
6700,2024-11-04 06:30:00,-23.4439185703836,151.917287303611,2.7,,,5.3853211,0,0,1.61482,1.74306,15,5,24.486,5.3853211,2.7,0.61,1.61948,0,0,-2.6,83.3, -3.6, 0.3,0,0,1024,1024,1024,1024,0,0,0,0,0,0,0,98,4.103,4.013,4.005,4.118,4.121,4.126,0,,5.3853211,2.7,14,Waypoint,
6800,2024-11-04 06:30:00,-23.4439185875138,151.917287392896,3,,,5.6853211,0,0,1.60583,1.75236,15,5,24.444,5.6853211,3,0.61,1.61948,0,0,-2.9,83.3, -3.6, 0.2,0,0,1024,1024,1024,1024,0,0,0,0,0,0,0,98,4.096,4.004,4,4.109,4.116,4.119,0,,5.6853211,3,14,Waypoint,
6900,2024-11-04 06:30:00,-23.4439186191659,151.917287434154,3.3,,,5.9853211,0,0,1.60183,1.75785,15,5,24.444,5.9853211,3.3,0.61,1.61948,0,0,-3,83.3, -3.7, 0.3,0,0,1024,1024,1024,1024,0,0,0,0,0,0,0,98,4.096,4.004,4,4.109,4.116,4.119,0,,5.9853211,3.3,14,Waypoint,
7000,2024-11-04 06:30:01,-23.4439186531515,151.917287502818,3.7,,,6.3853211,0,0,1.59507,1.76581,15,5,24.444,6.3853211,3.7,0.61,1.61948,0,0,-3.1,83.2, -4.2, 0.3,0,0,1024,1024,1024,1024,0,0,0,0,0,0,0,98,4.096,4.004,4,4.109,4.116,4.119,0,,6.3853211,3.7,14,Waypoint,
7100,2024-11-04 06:30:01,-23.4439187564796,151.917287662778,4,,,6.6853211,0,0,1.57953,1.78577,15,5,24.444,6.6853211,4,0.61,1.61948,0,0,-3.2,83.1, -4.7, 0.4,0,0,1024,1024,1024,1024,0,0,0,0,0,0,0,98,4.096,4.004,4,4.109,4.116,4.119,0,,6.6853211,4,14,Waypoint,
7200,2024-11-04 06:30:01,-23.4439188549398,151.917287896156,4.3,,,6.9853211,0,0.14,1.55658,1.81198,15,5,24.444,6.9853211,4.3,0.61,1.61948,-0.1,0.1,-3.2,83.2, -5, 0.2,0,0,1024,1024,1024,1024,0,0,0,0,0,0,0,98,4.096,4.004,4,4.109,4.116,4.119,0,,6.9853211,4.3,14,Waypoint,
7300,2024-11-04 06:30:01,-23.4439189845891,151.917288249576,4.7,,,7.3853211,0,0.14,1.52184,1.85081,15,5,24.444,7.3853211,4.7,0.61,1.61948,-0.1,0.1,-3.2,83.2, -4.9, -0.2,0,0,1024,1024,1024,1024,0,0,0,0,0,0,0,98,4.096,4.004,4,4.109,4.116,4.119,0,,7.3853211,4.7,14,Waypoint,
7400,2024-11-04 06:30:01,-23.443919088481,151.917288643087,5,,,7.6853211,0,0.22,1.48295,1.89259,15,5,24.444,7.6853211,5,0.61,1.61948,-0.1,0.2,-3.2,83.2, -4.2, -0.4,0,0,1024,1024,1024,1024,0,0,0,0,0,0,0,97,4.096,4.004,4,4.109,4.116,4.119,0,,7.6853211,5,14,Waypoint,
7500,2024-11-04 06:30:01,-23.4439192327152,151.917289109166,5.3,,,7.9853211,0,0.22,1.43735,1.94277,16,5,24.444,7.9853211,5.3,0.61,1.61948,-0.1,0.2,-3.2,83.2, -3.1, -0.6,0,0,1024,1024,1024,1024,0,0,0,0,0,0,0,97,4.096,4.004,4,4.109,4.116,4.119,0,,7.9853211,5.3,14,Waypoint,
7600,2024-11-04 06:30:01,-23.4439193518521,151.917289594205,5.6,,,8.2853211,0,0.32,1.3898,1.994,16,5,24.444,8.2853211,5.6,0.61,1.61948,-0.1,0.3,-3.1,83.2, -2.2, -0.5,0,0,1024,1024,1024,1024,0,0,0,0,0,0,0,97,4.096,4.004,4,4.109,4.116,4.119,0,,8.2853211,5.6,14,Waypoint,
7700,2024-11-04 06:30:01,-23.4439195294905,151.917290101782,5.9,,,8.5853211,0,0.32,1.34117,2.04943,16,5,24.444,8.5853211,5.9,0.61,1.61948,-0.1,0.3,-3.1,83.2, -1.5, -0.3,0,0,1024,1024,1024,1024,0,0,0,0,0,0,0,97,4.096,4.004,4,4.109,4.116,4.119,0,,8.5853211,5.9,14,Waypoint,
7800,2024-11-04 06:30:01,-23.4439196799942,151.917290612091,6.2,,,8.8853211,0,0.32,1.29232,2.10412,16,5,24.088,8.8853211,6.2,0.61,1.61948,-0.1,0.3,-3,83.2, -1.1, -0.3,0,0,1024,1024,1024,1024,0,0,0,0,0,0,0,97,4.043,3.98,3.917,4.045,4.032,4.071,0,,8.8853211,6.2,14,Waypoint,
7900,2024-11-04 06:30:01,-23.4439198869189,151.91729114662,6.5,,,9.1853211,0,0.32,1.24269,2.16331,16,5,24.088,9.1853211,6.5,0.61,1.61948,-0.1,0.3,-3,83.2, -0.7, -0.6,0,0,1024,1024,1024,1024,0,0,0,0,0,0,0,97,4.043,3.98,3.917,4.045,4.032,4.071,0,,9.1853211,6.5,14,Waypoint,
8000,2024-11-04 06:30:02,-23.4439200507958,151.917291667022,6.8,,,9.4853211,0,0.32,1.19433,2.21944,16,5,24.088,9.4853211,6.8,0.61,1.61948,-0.1,0.3,-3,83.1, -0.3, -1.2,0,0,1024,1024,1024,1024,0,0,0,0,0,0,0,97,4.043,3.98,3.917,4.045,4.032,4.071,0,,9.4853211,6.8,14,Waypoint,
8100,2024-11-04 06:30:02,-23.4439202774442,151.917292175482,7.1,,,9.7853211,0,0.32,1.14952,2.27712,16,5,24.088,9.7853211,7.1,0.61,1.61948,-0.1,0.3,-3,83.1, 0, -2,0,0,1024,1024,1024,1024,0,0,0,0,0,0,0,97,4.043,3.98,3.917,4.045,4.032,4.071,0,,9.7853211,7.1,14,Waypoint,
8200,2024-11-04 06:30:02,-23.4439204469143,151.917292660975,7.4,,,10.0853211,0,0.32,1.10643,2.33012,16,5,24.088,10.0853211,7.4,0.61,1.61948,-0.1,0.3,-3,83.1, 0, -2.5,0,0,1024,1024,1024,1024,0,0,0,0,0,0,0,97,4.043,3.98,3.917,4.045,4.032,4.071,0,,10.0853211,7.4,14,Waypoint,
8300,2024-11-04 06:30:02,-23.4439205759409,151.917293090674,7.7,,,10.3853211,0,0.3,1.06836,2.37625,16,5,24.088,10.3853211,7.7,0.61,1.61948,0,0.3,-3,83.2, 0.2, -2.9,0,0,1024,1024,1024,1024,0,0,0,0,0,0,0,97,4.043,3.98,3.917,4.045,4.032,4.071,0,,10.3853211,7.7,14,Waypoint,
8400,2024-11-04 06:30:02,-23.4439206325566,151.917293507633,8,,,10.6853211,0,0.3,1.02967,2.41925,16,5,24.088,10.6853211,8,0.61,1.61948,0,0.3,-3,83.2, 0.5, -3,0,0,1024,1024,1024,1024,0,0,0,0,0,0,0,97,4.043,3.98,3.917,4.045,4.032,4.071,0,,10.6853211,8,14,Waypoint,
8500,2024-11-04 06:30:02,-23.4439206424835,151.917293873608,8.3,,,10.9853211,0,0.2,0.994569,2.4566,16,5,24.088,10.9853211,8.3,0.61,1.61948,0,0.2,-3,83.2, 0.5, -2.7,0,0,1024,1024,1024,1024,0,0,0,0,0,0,0,97,4.043,3.98,3.917,4.045,4.032,4.071,0,,10.9853211,8.3,14,Waypoint,
8600,2024-11-04 06:30:02,-23.4439206085977,151.917294232246,8.6,,,11.2853211,0,0.2,0.958736,2.49339,16,5,24.088,11.2853211,8.6,0.61,1.61948,0,0.2,-3.1,83.1, 0.6, -2.2,0,0,1024,1024,1024,1024,0,0,0,0,0,0,0,97,4.043,3.98,3.917,4.045,4.032,4.071,0,,11.2853211,8.6,14,Waypoint,
8700,2024-11-04 06:30:02,-23.4439205303831,151.917294560501,8.9,,,11.5853211,0,0.2,0.924251,2.52799,16,5,24.088,11.5853211,8.9,0.61,1.61948,0,0.2,-3.1,83, 0.7, -1.9,0,0,1024,1024,1024,1024,0,0,0,0,0,0,0,97,4.043,3.98,3.917,4.045,4.032,4.071,0,,11.5853211,8.9,14,Waypoint,
8800,2024-11-04 06:30:02,-23.4439204182383,151.917294871475,9.2,,,11.8853211,0,0.22,0.890184,2.56208,16,5,23.522,11.8853211,9.2,0.61,1.61948,0.1,0.2,-3.1,82.9, 0.8, -2.1,0,0,1024,1024,1024,1024,0,0,0,0,0,0,0,97,3.943,3.845,3.856,3.951,3.958,3.969,0,,11.8853211,9.2,14,Waypoint,
8900,2024-11-04 06:30:02,-23.4439202767098,151.917295182065,9.6,,,12.2853211,0,0.22,0.855088,2.59746,16,5,23.522,12.2853211,9.6,0.61,1.61948,0.1,0.2,-3.1,82.9, 0.8, -2.2,0,0,1024,1024,1024,1024,0,0,0,0,0,0,0,97,3.943,3.845,3.856,3.951,3.958,3.969,0,,12.2853211,9.6,14,Waypoint,
9000,2024-11-04 06:30:03,-23.4439201063155,151.917295458268,9.9,,,12.5853211,0,0.14,0.822324,2.63142,16,5,23.522,12.5853211,9.9,0.61,1.61948,0.1,0.1,-3.1,82.9, 0.8, -2.1,0,0,1024,1024,1024,1024,0,0,0,0,0,0,0,97,3.943,3.845,3.856,3.951,3.958,3.969,0,,12.5853211,9.9,14,Waypoint,
9100,2024-11-04 06:30:03,-23.4439198797061,151.917295759361,10.2,,,12.8853211,0,0.14,0.785357,2.67115,16,5,23.522,12.8853211,10.2,0.61,1.61948,0.2,0.1,-3.1,82.9, 0.8, -1.9,0,0,1024,1024,1024,1024,0,0,0,0,0,0,0,97,3.943,3.845,3.856,3.951,3.958,3.969,0,,12.8853211,10.2,14,Waypoint,
9200,2024-11-04 06:30:03,-23.4439196340513,151.917296000285,10.5,,,13.1853211,0,0.22,0.753988,2.7079,16,5,23.522,13.1853211,10.5,0.61,1.61948,0.2,0.1,-3,83, 0.8, -1.3,0,0,1024,1024,1024,1024,0,0,0,0,0,0,0,97,3.943,3.845,3.856,3.951,3.958,3.969,0,,13.1853211,10.5,14,Waypoint,
9300,2024-11-04 06:30:03,-23.4439194007942,151.917296247641,10.8,,,13.4853211,0,0.2,0.722833,2.74409,16,5,23.522,13.4853211,10.8,0.61,1.61948,0.2,0,-2.8,83, 1, -0.6,0,0,1024,1024,1024,1024,0,0,0,0,0,0,0,97,3.943,3.845,3.856,3.951,3.958,3.969,0,,13.4853211,10.8,14,Waypoint,
9400,2024-11-04 06:30:03,-23.4439191671068,151.917296414834,11.1,,,13.7853211,0,0.2,0.700132,2.77518,16,5,23.522,13.7853211,11.1,0.61,1.61948,0.2,0,-2.7,83, 1.2, 0.1,0,0,1024,1024,1024,1024,0,0,0,0,0,0,0,97,3.943,3.845,3.856,3.951,3.958,3.969,0,,13.7853211,11.1,14,Waypoint,
9600,2024-11-04 06:30:03,-23.4439187528184,151.917296787183,11.6,,,14.2853211,0,0.2,0.653922,2.83489,16,5,23.522,14.2853211,11.6,0.61,1.61948,0.2,0,-2.4,82.9, 1.3, 0.4,0,0,1024,1024,1024,1024,0,0,0,0,0,0,0,97,3.943,3.845,3.856,3.951,3.958,3.969,0,,14.2853211,11.6,14,Waypoint,
9700,2024-11-04 06:30:03,-23.4439186079809,151.917296934222,11.8,,,14.4853211,0,0.1,0.636594,2.8569,16,5,23.522,14.4853211,11.8,0.61,1.61948,0.1,0,-2.3,82.9, 1.9, 0.2,0,0,1024,1024,1024,1024,0,0,0,0,0,0,0,97,3.943,3.845,3.856,3.951,3.958,3.969,0,,14.4853211,11.8,14,Waypoint,
9800,2024-11-04 06:30:03,-23.4439184680225,151.917296978264,12,,,14.6853211,0,0.1,0.630058,2.8731,16,5,23.836,14.6853211,12,0.61,1.61948,0.1,0,-2.1,83, 2.5, 0,0,0,1024,1024,1024,1024,0,0,0,0,0,0,0,97,3.986,3.902,3.905,4.007,4.012,4.024,0,,14.6853211,12,14,Waypoint,
9900,2024-11-04 06:30:03,-23.44391834914,151.917296995767,12.2,,,14.8853211,0,0.1,0.626804,2.88644,15,5,23.836,14.8853211,12.2,0.61,1.61948,0.1,0,-2,83, 2.8, 0,0,0,1024,1024,1024,1024,0,0,0,0,0,0,0,97,3.986,3.902,3.905,4.007,4.012,4.024,0,,14.8853211,12.2,14,Waypoint,
10000,2024-11-04 06:30:03,-23.4439182067051,151.917296934914,12.4,,,15.0853211,0,0.14,0.631581,2.90346,15,5,23.836,15.0853211,12.4,0.61,1.61948,0.1,-0.1,-1.9,83.1, 3, 0,0,0,1024,1024,1024,1024,0,0,0,0,0,0,0,97,3.986,3.902,3.905,4.007,4.012,4.024,0,,15.0853211,12.4,14,Waypoint,
10100,2024-11-04 06:30:04,-23.4439180603928,151.917296868312,12.6,,,15.2853211,0,0.14,0.637343,2.92109,15,5,23.836,15.2853211,12.6,0.61,1.61948,0.1,-0.1,-1.7,83.1, 2.9, 0.1,0,0,1024,1024,1024,1024,0,0,0,0,0,0,0,97,3.986,3.902,3.905,4.007,4.012,4.024,0,,15.2853211,12.6,14,Waypoint,
10200,2024-11-04 06:30:04,-23.4439178948303,151.917296706484,12.7,,,15.3853211,0,0.22,0.653201,2.94582,15,5,23.836,15.3853211,12.7,0.61,1.61948,0.1,-0.2,-1.7,83.2, 2.8, 0.3,0,0,1024,1024,1024,1024,0,0,0,0,0,0,0,97,3.986,3.902,3.905,4.007,4.012,4.024,0,,15.3853211,12.7,14,Waypoint,
10300,2024-11-04 06:30:04,-23.443917717997,151.917296457916,12.9,,,15.5853211,0,0.22,0.678458,2.97791,16,5,23.836,15.5853211,12.9,0.61,1.61948,0.1,-0.2,-1.6,83.2, 2.8, 0.8,0,0,1024,1024,1024,1024,0,0,0,0,0,0,0,97,3.986,3.902,3.905,4.007,4.012,4.024,0,,15.5853211,12.9,14,Waypoint,
10400,2024-11-04 06:30:04,-23.443917559618,151.917296122413,13.1,,,15.7853211,0,0.22,0.713063,3.01641,16,5,23.836,15.7853211,13.1,0.61,1.61948,0.1,-0.2,-1.5,83.3, 2.4, 1.3,0,0,1024,1024,1024,1024,0,0,0,0,0,0,0,97,3.986,3.902,3.905,4.007,4.012,4.024,0,,15.7853211,13.1,14,Waypoint,
10500,2024-11-04 06:30:04,-23.4439174016455,151.917295769396,13.2,,,15.8853211,0,0.32,0.74983,3.05648,16,5,23.836,15.8853211,13.2,0.61,1.61948,0.1,-0.3,-1.5,83.4, 1.8, 1.7,0,0,1024,1024,1024,1024,0,0,0,0,0,0,0,97,3.986,3.902,3.905,4.007,4.012,4.024,0,,15.8853211,13.2,14,Waypoint,
10600,2024-11-04 06:30:04,-23.4439172821472,151.917295364674,13.3,,,15.9853211,0,0.32,0.791872,3.09986,16,5,23.836,15.9853211,13.3,0.61,1.61948,0.1,-0.3,-1.4,83.4, 1, 2,0,0,1024,1024,1024,1024,0,0,0,0,0,0,0,97,3.986,3.902,3.905,4.007,4.012,4.024,0,,15.9853211,13.3,14,Waypoint,
10700,2024-11-04 06:30:04,-23.4439171527895,151.917294979329,13.5,,,16.1853211,0,0.32,0.832171,3.14172,16,5,23.836,16.1853211,13.5,0.61,1.61948,0.1,-0.3,-1.4,83.4, 0.2, 2,0,0,1024,1024,1024,1024,0,0,0,0,0,0,0,97,3.986,3.902,3.905,4.007,4.012,4.024,0,,16.1853211,13.5,14,Waypoint,
10800,2024-11-04 06:30:04,-23.4439170731596,151.917294547951,13.6,,,16.2853211,0,0.3,0.876783,3.18662,16,5,23.836,16.2853211,13.6,0.61,1.61948,0,-0.3,-1.3,83.5, -0.3, 2.2,0,0,1024,1024,1024,1024,0,0,0,0,0,0,0,97,3.986,3.902,3.905,4.007,4.012,4.024,0,,16.2853211,13.6,14,Waypoint,
10900,2024-11-04 06:30:04,-23.4439170037458,151.917294202456,13.8,,,16.4853211,0,0.3,0.912591,3.2227,16,5,23.836,16.4853211,13.8,0.61,1.61948,0,-0.3,-1.4,83.5, -1.3, 1.9,0,0,1024,1024,1024,1024,0,0,0,0,0,0,0,97,3.986,3.902,3.905,4.007,4.012,4.024,0,,16.4853211,13.8,14,Waypoint,
11000,2024-11-04 06:30:04,-23.4439169969943,151.917293834603,13.9,,,16.5853211,0,0.3,0.95003,3.26024,16,5,23.836,16.5853211,13.9,0.61,1.61948,0,-0.3,-1.3,83.4, -2, 1.8,0,0,1024,1024,1024,1024,0,0,0,0,0,0,0,97,3.986,3.902,3.905,4.007,4.012,4.024,0,,16.5853211,13.9,14,Waypoint,
11100,2024-11-04 06:30:05,-23.4439170022812,151.917293546351,14,,,16.6853211,0,0.3,0.979269,3.28965,16,5,23.836,16.6853211,14,0.61,1.61948,0,-0.3,-1.2,83.4, -2.6, 1.7,0,0,1024,1024,1024,1024,0,0,0,0,0,0,0,97,3.986,3.902,3.905,4.007,4.012,4.024,0,,16.6853211,14,14,Waypoint,
11200,2024-11-04 06:30:05,-23.4439170602235,151.917293223526,14.2,,,16.8853211,0,0.2,1.01155,3.32322,16,5,23.836,16.8853211,14.2,0.61,1.61948,0,-0.2,-1.1,83.4, -2.7, 1.4,0,0,1024,1024,1024,1024,0,0,0,0,0,0,0,97,3.986,3.902,3.905,4.007,4.012,4.024,0,,16.8853211,14.2,14,Waypoint,
11300,2024-11-04 06:30:05,-23.4439170855997,151.917293056642,14.3,,,16.9853211,0,0.2,1.02831,3.34047,16,5,23.836,16.9853211,14.3,0.61,1.61948,0,-0.2,-1,83.4, -2.8, 1.2,0,0,1024,1024,1024,1024,0,0,0,0,0,0,0,97,3.986,3.902,3.905,4.007,4.012,4.024,0,,16.9853211,14.3,14,Waypoint,
11400,2024-11-04 06:30:05,-23.4439171563556,151.91729286226,14.4,,,17.0853211,0,0.22,1.04755,3.36181,16,5,23.836,17.0853211,14.4,0.61,1.61948,-0.1,-0.2,-0.9,84.1, -2.6, 0.8,0,0,1024,1024,1024,1024,0,0,0,0,0,0,0,97,3.986,3.902,3.905,4.007,4.012,4.024,0,,17.0853211,14.4,14,Waypoint,
11500,2024-11-04 06:30:05,-23.4439172125101,151.917292799175,14.5,,,17.1853211,0,0.14,1.05358,3.37078,16,5,23.836,17.1853211,14.5,0.61,1.61948,-0.1,-0.1,-0.7,87.7, -2.2, 0.3,0,0,1024,1024,1024,1024,0,0,0,0,0,0,0,97,3.986,3.902,3.905,4.007,4.012,4.024,0,,17.1853211,14.5,14,Waypoint,
11600,2024-11-04 06:30:05,-23.4439173124939,151.917292669029,14.5,,,17.1853211,0,0.14,1.06624,3.3881,16,5,23.836,17.1853211,14.5,0.61,1.61948,-0.1,-0.1,-0.5,94.1, -1.7, -0.2,0,0,1024,1024,1024,1024,0,0,0,0,0,0,0,97,3.986,3.902,3.905,4.007,4.012,4.024,0,,17.1853211,14.5,14,Waypoint,
11700,2024-11-04 06:30:05,-23.4439174207286,151.917292577247,14.5,,,17.1853211,0,0.14,1.07508,3.40335,16,5,23.836,17.1853211,14.5,0.61,1.61948,-0.1,-0.1,-0.2,103.1, -1.3, -1,0,0,1024,1024,1024,1024,0,0,0,0,0,0,0,97,3.986,3.902,3.905,4.007,4.012,4.024,0,,17.1853211,14.5,14,Waypoint,
11800,2024-11-04 06:30:05,-23.4439175523578,151.917292422538,14.5,,,17.1853211,0,0.14,1.09042,3.42487,16,5,24.124,17.1853211,14.5,0.61,1.61948,-0.1,-0.1,0,112.8, -1.6, -1.6,0,0,1024,1024,1024,1024,0,0,0,0,0,0,0,97,4.045,3.948,3.951,4.055,4.055,4.07,0,,17.1853211,14.5,14,Waypoint,
11900,2024-11-04 06:30:05,-23.4439177073403,151.917292290735,14.5,,,17.1853211,0,0.14,1.10361,3.44673,16,5,24.124,17.1853211,14.5,0.61,1.61948,-0.1,-0.1,0,122.5, -2.6, -1.8,0,0,1024,1024,1024,1024,0,0,0,0,0,0,0,97,4.045,3.948,3.951,4.055,4.055,4.07,0,,17.1853211,14.5,14,Waypoint,
12000,2024-11-04 06:30:05,-23.4439178771579,151.917292150781,14.5,,,17.1853211,0,0.14,1.11792,3.47041,16,5,24.124,17.1853211,14.5,0.61,1.61948,-0.1,-0.1,0,132, -3.3, -1.9,0,0,1024,1024,1024,1024,0,0,0,0,0,0,0,97,4.045,3.948,3.951,4.055,4.055,4.07,0,,17.1853211,14.5,14,Waypoint,
12100,2024-11-04 06:30:06,-23.4439180842894,151.917292034557,14.5,,,17.1853211,0,0.1,1.13025,3.49632,16,5,24.124,17.1853211,14.5,0.61,1.61948,-0.1,0,0,141.3, -3.3, -1.5,0,0,1024,1024,1024,1024,0,0,0,0,0,0,0,97,4.045,3.948,3.951,4.055,4.055,4.07,0,,17.1853211,14.5,14,Waypoint,
12200,2024-11-04 06:30:06,-23.4439183208877,151.917291938517,14.5,,,17.1853211,0,0.1,1.14113,3.52439,16,5,24.124,17.1853211,14.5,0.61,1.61948,-0.1,0,0,150.1, -3.2, -0.7,0,0,1024,1024,1024,1024,0,0,0,0,0,0,0,97,4.045,3.948,3.951,4.055,4.055,4.07,0,,17.1853211,14.5,14,Waypoint,
12300,2024-11-04 06:30:06,-23.4439185718734,151.91729179239,14.5,,,17.1853211,0,0.2,1.15782,3.55604,16,5,24.124,17.1853211,14.5,0.61,1.61948,-0.2,0,0,156.8, -3.1, 0.5,0,0,1024,1024,1024,1024,0,0,0,0,0,0,0,97,4.045,3.948,3.951,4.055,4.055,4.07,0,,17.1853211,14.5,14,Waypoint,
12400,2024-11-04 06:30:06,-23.4439188928878,151.917291665701,14.5,,,17.1853211,0,0.3,1.17395,3.594,16,5,24.124,17.1853211,14.5,0.61,1.61948,-0.3,0,0,161.4, -2.6, 1.6,0,0,1024,1024,1024,1024,0,0,0,0,0,0,0,97,4.045,3.948,3.951,4.055,4.055,4.07,0,,17.1853211,14.5,14,Waypoint,
12500,2024-11-04 06:30:06,-23.443919233864,151.917291495207,14.5,,,17.1853211,0,0.4,1.1958,3.63572,16,5,24.124,17.1853211,14.5,0.61,1.61948,-0.4,0,0,164.4, -1.3, 1.4,0,0,1024,1024,1024,1024,0,0,0,0,0,0,0,97,4.045,3.948,3.951,4.055,4.055,4.07,0,,17.1853211,14.5,14,Waypoint,
12600,2024-11-04 06:30:06,-23.4439196526819,151.917291314568,14.5,,,17.1853211,0,0.41,1.22115,3.68581,16,5,24.124,17.1853211,14.5,0.61,1.61948,-0.4,-0.1,0.1,166.1, 0.1, 0.3,0,0,1024,1024,1024,1024,0,0,0,0,0,0,0,97,4.045,3.948,3.951,4.055,4.055,4.07,0,,17.1853211,14.5,14,Waypoint,
12700,2024-11-04 06:30:06,-23.4439200442286,151.917291148776,14.5,,,17.1853211,0,0.41,1.2459,3.73252,16,5,24.124,17.1853211,14.5,0.61,1.61948,-0.4,-0.1,0.1,166.7, 0.3, -0.4,0,0,1024,1024,1024,1024,0,0,0,0,0,0,0,97,4.045,3.948,3.951,4.055,4.055,4.07,0,,17.1853211,14.5,14,Waypoint,
12800,2024-11-04 06:30:06,-23.4439205016288,151.917290971229,14.5,,,17.1853211,0,0.41,1.27478,3.78652,16,5,24.124,17.1853211,14.5,0.61,1.61948,-0.4,-0.1,0,166.8, -0.6, -0.7,0,0,1024,1024,1024,1024,0,0,0,0,0,0,0,97,4.045,3.948,3.951,4.055,4.055,4.07,0,,17.1853211,14.5,14,Waypoint,
12900,2024-11-04 06:30:06,-23.4439208984049,151.91729082393,14.4,,,17.0853211,0,0.51,1.30046,3.83313,16,5,24.124,17.1853211,14.5,0.61,1.61948,-0.5,-0.1,0.1,167, -2.3, -1.1,0,0,1024,1024,1024,1024,0,0,0,0,0,0,0,97,4.045,3.948,3.951,4.055,4.055,4.07,0,,17.0853211,14.4,14,Waypoint,
13000,2024-11-04 06:30:06,-23.4439213658266,151.917290663439,14.4,,,17.0853211,0,0.51,1.3309,3.88763,16,5,24.124,17.1853211,14.5,0.61,1.61948,-0.5,-0.1,0,167, -4.7, -1.4,0,0,1024,1024,1024,1024,0,0,0,0,0,0,0,97,4.045,3.948,3.951,4.055,4.055,4.07,0,,17.0853211,14.4,14,Waypoint,
13100,2024-11-04 06:30:07,-23.443921897371,151.917290515485,14.4,,,17.0853211,0,0.61,1.36402,3.94864,16,5,24.124,17.1853211,14.5,0.61,1.61948,-0.6,-0.1,0,167.1, -6.9, -1.8,0,0,1024,1024,1024,1024,0,0,0,0,0,0,0,97,4.045,3.948,3.951,4.055,4.055,4.07,0,,17.0853211,14.4,14,Waypoint,
13200,2024-11-04 06:30:07,-23.4439225678812,151.917290384902,14.4,,,17.0853211,0,0.8,1.40317,4.02438,16,5,24.124,17.1853211,14.5,0.8,1.61948,-0.8,0,0,167.3, -8.6, -1.9,0,0,1024,1024,1024,1024,0,0,0,0,0,0,0,97,4.045,3.948,3.951,4.055,4.055,4.07,0,,17.0853211,14.4,14,Waypoint,
13300,2024-11-04 06:30:07,-23.4439234002018,151.917290308239,14.5,,,17.1853211,0,0.9,1.44792,4.11727,16,5,24.114,17.1853211,14.5,0.9,1.61948,-0.9,0,0,167.5, -9.8, -2.3,0,0,1024,1024,1024,1024,0,0,0,0,0,0,0,97,4.033,3.941,3.958,4.05,4.069,4.063,0,,17.1853211,14.5,14,Waypoint,
13400,2024-11-04 06:30:07,-23.4439243918191,151.917290283103,14.5,,,17.1853211,0,1.1,1.50109,4.22758,16,5,24.114,17.1853211,14.5,1.1,1.61948,-1.1,0,0,167.5, -10.7, -2.5,0,0,1024,1024,1024,1024,0,0,0,0,0,0,0,97,4.033,3.941,3.958,4.05,4.069,4.063,0,,17.1853211,14.5,14,Waypoint,
13600,2024-11-04 06:30:07,-23.4439271405862,151.917290408289,14.5,,,17.1853211,0,1.5,1.6623,4.53352,16,5,24.114,17.1853211,14.5,1.5,1.6623,-1.5,0.1,-0.1,167.6, -11.1, -2.8,0,0,1024,1024,1024,1024,0,0,0,0,0,0,0,97,4.033,3.941,3.958,4.05,4.069,4.063,0,,17.1853211,14.5,14,Waypoint,
13700,2024-11-04 06:30:07,-23.4439288878471,151.917290548731,14.5,,,17.1853211,0,1.71,1.78011,4.72836,16,5,24.114,17.1853211,14.5,1.71,1.78011,-1.7,0.2,0,167.6, -11.3, -3.1,0,0,1024,1024,1024,1024,0,0,0,0,0,0,0,97,4.033,3.941,3.958,4.05,4.069,4.063,0,,17.1853211,14.5,14,Waypoint,
13800,2024-11-04 06:30:07,-23.4439307286077,151.91729077458,14.6,,,17.2853211,0,1.91,1.91261,4.93435,16,5,24.114,17.2853211,14.6,1.91,1.91261,-1.9,0.2,0,167.6, -11.4, -3.3,0,0,1024,1024,1024,1024,0,0,0,0,0,0,0,97,4.033,3.941,3.958,4.05,4.069,4.063,0,,17.2853211,14.6,14,Waypoint,
13900,2024-11-04 06:30:07,-23.4439329582097,151.917291041727,14.6,,,17.2853211,0,2.12,2.0895,5.18379,16,5,24.114,17.2853211,14.6,2.12,2.0895,-2.1,0.3,0,167.5, -11.3, -3.7,0,0,1024,1024,1024,1024,0,0,0,0,0,0,0,97,4.033,3.941,3.958,4.05,4.069,4.063,0,,17.2853211,14.6,14,Waypoint,
14000,2024-11-04 06:30:08,-23.4439352236033,151.917291393353,14.6,,,17.2853211,0,2.33,2.27884,5.43826,16,5,24.114,17.2853211,14.6,2.33,2.27884,-2.3,0.4,0,167.4, -10.9, -3.6,0,0,1024,1024,1024,1024,0,0,0,0,0,0,0,97,4.033,3.941,3.958,4.05,4.069,4.063,0,,17.2853211,14.6,14,Waypoint,
14100,2024-11-04 06:30:08,-23.443937820649,151.917291793362,14.6,,,17.2853211,0,2.43,2.51026,5.72993,16,5,24.114,17.2853211,14.6,2.43,2.51026,-2.4,0.4,0,167.3, -10.5, -3.5,0,0,1024,1024,1024,1024,0,0,0,0,0,0,0,97,4.033,3.941,3.958,4.05,4.069,4.063,0,,17.2853211,14.6,14,Waypoint,
14200,2024-11-04 06:30:08,-23.4439404149329,151.91729227802,14.6,,,17.2853211,0,2.65,2.74938,6.02264,16,5,24.114,17.2853211,14.6,2.65,2.74938,-2.6,0.5,0,167.2, -10.3, -2.9,0,0,1024,1024,1024,1024,0,0,0,0,0,0,0,97,4.033,3.941,3.958,4.05,4.069,4.063,0,,17.2853211,14.6,14,Waypoint,
14300,2024-11-04 06:30:08,-23.4439434118398,151.917292745454,14.6,,,17.2853211,0,2.84,3.04059,6.35931,16,5,24.114,17.2853211,14.6,2.84,3.04059,-2.8,0.5,0,167.1, -9.8, -3,0,0,1024,1024,1024,1024,0,0,0,0,0,0,0,97,4.033,3.941,3.958,4.05,4.069,4.063,0,,17.2853211,14.6,14,Waypoint,
14400,2024-11-04 06:30:08,-23.4439464104729,151.917293294029,14.6,,,17.2853211,0,3.04,3.33804,6.69744,16,5,24.114,17.2853211,14.6,3.04,3.33804,-3,0.5,0,167, -9.2, -2.9,0,0,1024,1024,1024,1024,0,0,0,0,0,0,0,97,4.033,3.941,3.958,4.05,4.069,4.063,0,,17.2853211,14.6,14,Waypoint,
14500,2024-11-04 06:30:08,-23.4439498373216,151.917293782603,14.6,,,17.2853211,0,3.16,3.69018,7.08177,16,5,24.114,17.2853211,14.6,3.16,3.69018,-3.1,0.6,0,167, -8.9, -2.5,0,0,1024,1024,1024,1024,0,0,0,0,0,0,0,97,4.033,3.941,3.958,4.05,4.069,4.063,0,,17.2853211,14.6,14,Waypoint,
14600,2024-11-04 06:30:08,-23.4439531886723,151.917294373549,14.6,,,17.2853211,0,3.35,4.03768,7.45931,16,5,24.114,17.2853211,14.6,3.35,4.03768,-3.3,0.6,0,167.1, -8.9, -2.2,0,0,1024,1024,1024,1024,0,0,0,0,0,0,0,97,4.033,3.941,3.958,4.05,4.069,4.063,0,,17.2853211,14.6,14,Waypoint,
14700,2024-11-04 06:30:08,-23.4439569073545,151.917294907981,14.6,,,17.2853211,0,3.45,4.43134,7.87643,16,5,24.114,17.2853211,14.6,3.45,4.43134,-3.4,0.6,0,167.1, -9.7, -1.9,0,0,1024,1024,1024,1024,0,0,0,0,0,0,0,97,4.033,3.941,3.958,4.05,4.069,4.063,0,,17.2853211,14.6,14,Waypoint,
14800,2024-11-04 06:30:08,-23.4439605627325,151.917295540041,14.6,,,17.2853211,0,3.65,4.8204,8.28801,16,5,24.114,17.2853211,14.6,3.65,4.8204,-3.6,0.6,0,167.2, -10.8, -2.3,0,0,1024,1024,1024,1024,0,0,0,0,0,0,0,97,4.033,3.941,3.958,4.05,4.069,4.063,0,,17.2853211,14.6,14,Waypoint,
14900,2024-11-04 06:30:08,-23.4439646218018,151.917296112602,14.6,,,17.2853211,0,3.86,5.25821,8.74317,16,5,24.114,17.2853211,14.6,3.86,5.25821,-3.8,0.7,0.1,167.3, -11.8, -1.7,0,0,1024,1024,1024,1024,0,0,0,0,0,0,0,97,4.033,3.941,3.958,4.05,4.069,4.063,0,,17.2853211,14.6,14,Waypoint,
15000,2024-11-04 06:30:09,-23.4439686260935,151.917296775919,14.6,,,17.2853211,0,4.06,5.69164,9.19359,16,5,24.114,17.2853211,14.6,4.06,5.69164,-4,0.7,0,167.4, -12.4, -1.5,0,0,1024,1024,1024,1024,0,0,0,0,0,0,0,97,4.033,3.941,3.958,4.05,4.069,4.063,0,,17.2853211,14.6,14,Waypoint,
15100,2024-11-04 06:30:09,-23.4439730714948,151.917297373264,14.6,,,17.2853211,0,4.26,6.17698,9.69168,16,5,24.114,17.2853211,14.6,4.26,6.17698,-4.2,0.7,0,167.4, -12.5, -1.4,0,0,1024,1024,1024,1024,0,0,0,0,0,0,0,97,4.033,3.941,3.958,4.05,4.069,4.063,0,,17.2853211,14.6,14,Waypoint,
15200,2024-11-04 06:30:09,-23.4439774981853,151.917298075077,14.6,,,17.2853211,0,4.46,6.6613,10.1891,16,5,24.114,17.2853211,14.6,4.46,6.6613,-4.4,0.7,0,167.5, -12.5, -2.3,0,0,1024,1024,1024,1024,0,0,0,0,0,0,0,97,4.033,3.941,3.958,4.05,4.069,4.063,0,,17.2853211,14.6,14,Waypoint,
15300,2024-11-04 06:30:09,-23.4439824893987,151.917298759481,14.5,,,17.1853211,0,4.77,7.2102,10.7486,16,5,24.219,17.2853211,14.6,4.77,7.2102,-4.7,0.8,0.1,167.5, -12.7, -2.8,0,0,1024,1024,1024,1024,0,0,0,0,0,0,0,97,4.052,3.966,3.961,4.073,4.077,4.09,0,,17.1853211,14.5,14,Waypoint,
15400,2024-11-04 06:30:09,-23.4439874162495,151.917299573713,14.5,,,17.1853211,0,4.98,7.75283,11.3027,16,5,24.219,17.2853211,14.6,4.98,7.75283,-4.9,0.9,0,167.5, -12.7, -3.8,0,0,1024,1024,1024,1024,0,0,0,0,0,0,0,97,4.052,3.966,3.961,4.073,4.077,4.09,0,,17.1853211,14.5,14,Waypoint,
15500,2024-11-04 06:30:09,-23.4439930224415,151.917300399283,14.5,,,17.1853211,0,5.28,8.37244,11.9318,16,5,24.219,17.2853211,14.6,5.28,8.37244,-5.2,0.9,0,167.4, -12.6, -4.3,0,0,1024,1024,1024,1024,0,0,0,0,0,0,0,97,4.052,3.966,3.961,4.073,4.077,4.09,0,,17.1853211,14.5,14,Waypoint,
15600,2024-11-04 06:30:09,-23.4439984855911,151.917301361038,14.5,,,17.1853211,0,5.49,8.97718,12.5472,16,5,24.219,17.2853211,14.6,5.49,8.97718,-5.4,1,0,167.4, -12.3, -5,0,0,1024,1024,1024,1024,0,0,0,0,0,0,0,97,4.052,3.966,3.961,4.073,4.077,4.09,0,,17.1853211,14.5,14,Waypoint,
15700,2024-11-04 06:30:09,-23.4440045918327,151.91730241258,14.5,,,17.1853211,0,5.81,9.65473,13.2347,16,5,24.219,17.2853211,14.6,5.81,9.65473,-5.7,1.1,0,167.3, -12.3, -5.3,0,0,1024,1024,1024,1024,0,0,0,0,0,0,0,97,4.052,3.966,3.961,4.073,4.077,4.09,0,,17.1853211,14.5,14,Waypoint,
15800,2024-11-04 06:30:09,-23.4440104907408,151.917303585113,14.5,,,17.1853211,0,6.02,10.3106,13.9015,16,5,24.219,17.2853211,14.6,6.02,10.3106,-5.9,1.2,0,167.3, -12.3, -5.5,0,0,1024,1024,1024,1024,0,0,0,0,0,0,0,97,4.052,3.966,3.961,4.073,4.077,4.09,0,,17.1853211,14.5,14,Waypoint,
15900,2024-11-04 06:30:09,-23.4440168947727,151.917304828739,14.5,,,17.1853211,0,6.22,11.024,14.6249,16,5,24.219,17.2853211,14.6,6.22,11.024,-6.1,1.2,0,167.3, -12, -5.2,0,0,1024,1024,1024,1024,0,0,0,0,0,0,0,97,4.052,3.966,3.961,4.073,4.077,4.09,0,,17.1853211,14.5,14,Waypoint,
16000,2024-11-04 06:30:10,-23.4440231246457,151.917306153222,14.6,,,17.2853211,0,6.43,11.7195,15.3308,16,5,24.219,17.2853211,14.6,6.43,11.7195,-6.3,1.3,0,167.2, -11.5, -4.6,0,0,1024,1024,1024,1024,0,0,0,0,0,0,0,97,4.052,3.966,3.961,4.073,4.077,4.09,0,,17.2853211,14.6,14,Waypoint,
16100,2024-11-04 06:30:10,-23.4440298864858,151.917307449899,14.5,,,17.1853211,0,6.63,12.4753,16.0943,16,5,24.219,17.2853211,14.6,6.63,12.4753,-6.5,1.3,0.1,167.2, -11.3, -4.3,0,0,1024,1024,1024,1024,0,0,0,0,0,0,0,97,4.052,3.966,3.961,4.073,4.077,4.09,0,,17.1853211,14.5,14,Waypoint,
16200,2024-11-04 06:30:10,-23.4440364668977,151.917308816685,14.5,,,17.1853211,0,6.75,13.212,16.8392,16,5,24.219,17.2853211,14.6,6.75,13.212,-6.6,1.4,0.1,167.1, -11.2, -4.3,0,0,1024,1024,1024,1024,0,0,0,0,0,0,0,97,4.052,3.966,3.961,4.073,4.077,4.09,0,,17.1853211,14.5,14,Waypoint,
16300,2024-11-04 06:30:10,-23.4440435664706,151.91731017617,14.5,,,17.1853211,0,6.94,14.0073,17.6408,16,5,24.219,17.2853211,14.6,6.94,14.0073,-6.8,1.4,0.1,167, -11.2, -4.3,0,0,1024,1024,1024,1024,0,0,0,0,0,0,0,97,4.052,3.966,3.961,4.073,4.077,4.09,0,,17.1853211,14.5,14,Waypoint,
16400,2024-11-04 06:30:10,-23.444050470995,151.917311623886,14.5,,,17.1853211,0,7.16,14.7821,18.4227,16,5,24.219,17.2853211,14.6,7.16,14.7821,-7,1.5,0.1,167.1, -11.4, -4.8,0,0,1024,1024,1024,1024,0,0,0,0,0,0,0,97,4.052,3.966,3.961,4.073,4.077,4.09,0,,17.1853211,14.5,14,Waypoint,
16500,2024-11-04 06:30:10,-23.4440578856914,151.917313112059,14.5,,,17.1853211,0,7.35,15.6145,19.2612,16,5,24.219,17.2853211,14.6,7.35,15.6145,-7.2,1.5,0.1,167.1, -11.5, -5.1,0,0,1024,1024,1024,1024,0,0,0,0,0,0,0,97,4.052,3.966,3.961,4.073,4.077,4.09,0,,17.1853211,14.5,14,Waypoint,
16600,2024-11-04 06:30:10,-23.4440651195653,151.917314665462,14.5,,,17.1853211,0,7.57,16.4279,20.0811,16,5,24.219,17.2853211,14.6,7.57,16.4279,-7.4,1.6,0.1,167.1, -11.4, -5.2,0,0,1024,1024,1024,1024,0,0,0,0,0,0,0,97,4.052,3.966,3.961,4.073,4.077,4.09,0,,17.1853211,14.5,14,Waypoint,
16700,2024-11-04 06:30:10,-23.4440728151878,151.917316269779,14.4,,,17.0853211,0,7.57,17.2935,20.9524,16,5,24.219,17.2853211,14.6,7.57,17.2935,-7.5,1.6,0.1,167.2, -11.4, -5.3,0,0,1024,1024,1024,1024,0,0,0,0,0,0,0,97,4.052,3.966,3.961,4.073,4.077,4.09,0,,17.0853211,14.4,14,Waypoint,
16800,2024-11-04 06:30:10,-23.4440802902277,151.917317940373,14.4,,,17.0853211,0,7.89,18.1358,21.8009,16,5,24.219,17.2853211,14.6,7.89,18.1358,-7.7,1.7,0.1,167.1, -10.6, -5.3,0,0,1024,1024,1024,1024,0,0,0,0,0,0,0,97,4.052,3.966,3.961,4.073,4.077,4.09,0,,17.0853211,14.4,14,Waypoint,
16900,2024-11-04 06:30:10,-23.444088030183,151.917319705194,14.4,,,17.0853211,0,7.98,19.0089,22.6803,16,5,24.219,17.2853211,14.6,7.98,19.0089,-7.8,1.7,0,167, -8.8, -4.7,0,0,1024,1024,1024,1024,0,0,0,0,0,0,0,97,4.052,3.966,3.961,4.073,4.077,4.09,0,,17.0853211,14.4,14,Waypoint,
17000,2024-11-04 06:30:10,-23.444095604571,151.917321528431,14.4,,,17.0853211,0,8.1,19.8647,23.5429,16,5,24.219,17.2853211,14.6,8.1,19.8647,-7.9,1.8,0,167, -6.9, -4.6,0,0,1024,1024,1024,1024,0,0,0,0,0,0,0,97,4.052,3.966,3.961,4.073,4.077,4.09,0,,17.0853211,14.4,14,Waypoint,
17100,2024-11-04 06:30:11,-23.4441037750478,151.917323526198,14.4,,,17.0853211,0,8.2,20.7889,24.4741,16,5,24.056,17.2853211,14.6,8.2,20.7889,-8,1.8,0,166.9, -5.2, -4.4,0,0,1024,1024,1024,1024,0,0,0,0,0,0,0,97,4.032,3.93,3.945,4.041,4.056,4.052,0,,17.0853211,14.4,14,Waypoint,
17200,2024-11-04 06:30:11,-23.4441116881783,151.917325496506,14.4,,,17.0853211,0,8.2,21.6849,25.3768,16,5,24.056,17.2853211,14.6,8.2,21.6849,-8,1.8,0,166.8, -3.5, -3.8,0,0,1024,1024,1024,1024,0,0,0,0,0,0,0,97,4.032,3.93,3.945,4.041,4.056,4.052,0,,17.0853211,14.4,14,Waypoint,
17300,2024-11-04 06:30:11,-23.4441200333545,151.917327601129,14.4,,,17.0853211,0,8.22,22.6307,26.3293,16,5,24.056,17.2853211,14.6,8.22,22.6307,-8,1.9,0,166.7, -1.9, -3.8,0,0,1024,1024,1024,1024,0,0,0,0,0,0,0,97,4.032,3.93,3.945,4.041,4.056,4.052,0,,17.0853211,14.4,14,Waypoint,
17400,2024-11-04 06:30:11,-23.4441279495985,151.917329625329,14.5,,,17.1853211,0,8.22,23.5287,27.2336,16,5,24.056,17.2853211,14.6,8.22,23.5287,-8,1.9,0,166.9, -1, -3.8,0,0,1024,1024,1024,1024,0,0,0,0,0,0,0,97,4.032,3.93,3.945,4.041,4.056,4.052,0,,17.1853211,14.5,14,Waypoint,
17500,2024-11-04 06:30:11,-23.4441357223181,151.917331727349,14.5,,,17.1853211,0,8.22,24.4122,28.1241,16,5,24.056,17.2853211,14.6,8.22,24.4122,-8,1.9,-0.1,166.9, -1.1, -2.8,0,0,1024,1024,1024,1024,0,0,0,0,0,0,0,97,4.032,3.93,3.945,4.041,4.056,4.052,0,,17.1853211,14.5,14,Waypoint,
17600,2024-11-04 06:30:11,-23.4441432350728,151.917333726401,14.5,,,17.1853211,0,8.22,25.2663,28.9841,16,5,24.056,17.2853211,14.6,8.22,25.2663,-8,1.9,0,166.9, -1.8, -2.2,0,0,1024,1024,1024,1024,0,0,0,0,0,0,0,97,4.032,3.93,3.945,4.041,4.056,4.052,0,,17.1853211,14.5,14,Waypoint,
17700,2024-11-04 06:30:11,-23.4441510485295,151.917335772291,14.5,,,17.1853211,0,8.2,26.1545,29.8778,16,5,24.056,17.2853211,14.6,8.22,26.1545,-8,1.8,0,166.8, -2.1, -1.7,0,0,1024,1024,1024,1024,0,0,0,0,0,0,0,97,4.032,3.93,3.945,4.041,4.056,4.052,0,,17.1853211,14.5,14,Waypoint,
17800,2024-11-04 06:30:11,-23.4441587318149,151.9173376892,14.5,,,17.1853211,0,8.2,27.0271,30.7543,16,5,24.056,17.2853211,14.6,8.22,27.0271,-8,1.8,0,166.9, -2.2, -1.9,0,0,1024,1024,1024,1024,0,0,0,0,0,0,0,97,4.032,3.93,3.945,4.041,4.056,4.052,0,,17.1853211,14.5,14,Waypoint,
17900,2024-11-04 06:30:11,-23.4441665706232,151.917339683667,14.5,,,17.1853211,0,8.3,27.918,31.6494,16,5,24.056,17.2853211,14.6,8.3,27.918,-8.1,1.8,0,166.8, -1.6, -2.4,0,0,1024,1024,1024,1024,0,0,0,0,0,0,0,97,4.032,3.93,3.945,4.041,4.056,4.052,0,,17.1853211,14.5,14,Waypoint,
18000,2024-11-04 06:30:11,-23.4441741972648,151.917341577565,14.5,,,17.1853211,0,8.2,28.7845,32.5193,16,5,23.871,17.2853211,14.6,8.3,28.7845,-8,1.8,0,166.8, -0.6, -2.6,0,0,1024,1024,1024,1024,0,0,0,0,0,0,0,97,3.994,3.907,3.908,4.014,4.019,4.029,0,,17.1853211,14.5,14,Waypoint,
18100,2024-11-04 06:30:12,-23.4441819452189,151.917343622624,14.5,,,17.1853211,0,8.2,29.6666,33.4058,16,5,23.871,17.2853211,14.6,8.3,29.6666,-8,1.8,0,166.7, 0.6, -2.4,0,0,1024,1024,1024,1024,0,0,0,0,0,0,0,97,3.994,3.907,3.908,4.014,4.019,4.029,0,,17.1853211,14.5,14,Waypoint,
18200,2024-11-04 06:30:12,-23.4441894852012,151.917345539465,14.6,,,17.2853211,0,8.2,30.5243,34.2668,16,5,23.871,17.2853211,14.6,8.3,30.5243,-8,1.8,0,166.7, 1.1, -2.3,0,0,1024,1024,1024,1024,0,0,0,0,0,0,0,97,3.994,3.907,3.908,4.014,4.019,4.029,0,,17.2853211,14.6,14,Waypoint,
18300,2024-11-04 06:30:12,-23.4441971139272,151.917347552444,14.6,,,17.2853211,0,8.08,31.3933,35.1397,16,5,23.871,17.2853211,14.6,8.3,31.3933,-7.9,1.7,-0.1,166.7, 0.9, -2.2,0,0,1024,1024,1024,1024,0,0,0,0,0,0,0,97,3.994,3.907,3.908,4.014,4.019,4.029,0,,17.2853211,14.6,14,Waypoint,
18400,2024-11-04 06:30:12,-23.4442045411691,151.917349410719,14.6,,,17.2853211,0,8.08,32.2381,35.9871,16,5,23.871,17.2853211,14.6,8.3,32.2381,-7.9,1.7,-0.1,166.7, 0.6, -2.1,0,0,1024,1024,1024,1024,0,0,0,0,0,0,0,97,3.994,3.907,3.908,4.014,4.019,4.029,0,,17.2853211,14.6,14,Waypoint,
18500,2024-11-04 06:30:12,-23.4442120617143,151.917351430865,14.6,,,17.2853211,0,8.08,33.0957,36.8485,16,5,23.871,17.2853211,14.6,8.3,33.0957,-7.9,1.7,0,166.7, 0.4, -2.3,0,0,1024,1024,1024,1024,0,0,0,0,0,0,0,97,3.994,3.907,3.908,4.014,4.019,4.029,0,,17.2853211,14.6,14,Waypoint,
18600,2024-11-04 06:30:12,-23.4442193854653,151.91735331021,14.7,,,17.3853211,0,7.98,33.9297,37.6852,16,5,23.871,17.3853211,14.7,8.3,33.9297,-7.8,1.7,0,166.7, 0.4, -2.1,0,0,1024,1024,1024,1024,0,0,0,0,0,0,0,97,3.994,3.907,3.908,4.014,4.019,4.029,0,,17.3853211,14.7,14,Waypoint,
18700,2024-11-04 06:30:12,-23.4442267547867,151.917355306871,14.7,,,17.3853211,0,7.98,34.7706,38.5296,16,5,23.871,17.3853211,14.7,8.3,34.7706,-7.8,1.7,0,166.7, 0.3, -2.3,0,0,1024,1024,1024,1024,0,0,0,0,0,0,0,97,3.994,3.907,3.908,4.014,4.019,4.029,0,,17.3853211,14.7,14,Waypoint,
18800,2024-11-04 06:30:12,-23.4442339435201,151.917357139093,14.7,,,17.3853211,0,7.89,35.5893,39.3506,16,5,23.871,17.3853211,14.7,8.3,35.5893,-7.7,1.7,0,166.7, 0.5, -2.1,0,0,1024,1024,1024,1024,0,0,0,0,0,0,0,97,3.994,3.907,3.908,4.014,4.019,4.029,0,,17.3853211,14.7,14,Waypoint,
18900,2024-11-04 06:30:12,-23.4442412626073,151.917359113297,14.7,,,17.3853211,0,7.86,36.4247,40.1891,16,5,23.871,17.3853211,14.7,8.3,36.4247,-7.7,1.6,0,166.7, 0.6, -1.7,0,0,1024,1024,1024,1024,0,0,0,0,0,0,0,97,3.994,3.907,3.908,4.014,4.019,4.029,0,,17.3853211,14.7,14,Waypoint,
19000,2024-11-04 06:30:12,-23.4442484284383,151.917360913303,14.7,,,17.3853211,0,7.86,37.2406,41.0069,16,5,23.878,17.3853211,14.7,8.3,37.2406,-7.7,1.6,0,166.8, 1, -1.5,0,0,1024,1024,1024,1024,0,0,0,0,0,0,0,97,3.982,3.904,3.909,4.009,4.032,4.042,0,,17.3853211,14.7,14,Waypoint,
19100,2024-11-04 06:30:13,-23.4442557159467,151.917362819079,14.7,,,17.3853211,0,7.86,38.0716,41.8403,16,5,23.878,17.3853211,14.7,8.3,38.0716,-7.7,1.6,0,166.8, 1.3, -1.5,0,0,1024,1024,1024,1024,0,0,0,0,0,0,0,97,3.982,3.904,3.909,4.009,4.032,4.042,0,,17.3853211,14.7,14,Waypoint,
19200,2024-11-04 06:30:13,-23.4442627922002,151.917364533336,14.7,,,17.3853211,0,7.86,38.8764,42.6464,16,5,23.878,17.3853211,14.7,8.3,38.8764,-7.6,1.5,0,166.8, 1.9, -1.6,0,0,1024,1024,1024,1024,0,0,0,0,0,0,0,97,3.982,3.904,3.909,4.009,4.032,4.042,0,,17.3853211,14.7,14,Waypoint,
19300,2024-11-04 06:30:13,-23.4442699995891,151.91736639212,14.7,,,17.3853211,0,7.75,39.698,43.4701,16,5,23.878,17.3853211,14.7,8.3,39.698,-7.6,1.5,0,166.9, 2.2, -2,0,0,1024,1024,1024,1024,0,0,0,0,0,0,0,97,3.982,3.904,3.909,4.009,4.032,4.042,0,,17.3853211,14.7,14,Waypoint,
19400,2024-11-04 06:30:13,-23.4442769988759,151.917368080805,14.7,,,17.3853211,0,7.65,40.4941,44.2673,16,5,23.878,17.3853211,14.7,8.3,40.4941,-7.5,1.5,0.1,166.9, 2.1, -2.1,0,0,1024,1024,1024,1024,0,0,0,0,0,0,0,97,3.982,3.904,3.909,4.009,4.032,4.042,0,,17.3853211,14.7,14,Waypoint,
19500,2024-11-04 06:30:13,-23.4442840738789,151.917369955327,14.7,,,17.3853211,0,7.65,41.3016,45.077,16,5,23.878,17.3853211,14.7,8.3,41.3016,-7.5,1.5,0.1,166.9, 1.2, -1.8,0,0,1024,1024,1024,1024,0,0,0,0,0,0,0,97,3.982,3.904,3.909,4.009,4.032,4.042,0,,17.3853211,14.7,14,Waypoint,
19600,2024-11-04 06:30:13,-23.4442909500553,151.917371642757,14.7,,,17.3853211,0,7.65,42.0842,45.8608,16,5,23.878,17.3853211,14.7,8.3,42.0842,-7.5,1.5,0.1,166.9, 0.4, -1.6,0,0,1024,1024,1024,1024,0,0,0,0,0,0,0,97,3.982,3.904,3.909,4.009,4.032,4.042,0,,17.3853211,14.7,14,Waypoint,
19700,2024-11-04 06:30:13,-23.4442979926717,151.917373502082,14.7,,,17.3853211,0,7.65,42.8881,46.6666,16,5,23.878,17.3853211,14.7,8.3,42.8881,-7.5,1.5,0.1,166.9, -0.1, -1.4,0,0,1024,1024,1024,1024,0,0,0,0,0,0,0,97,3.982,3.904,3.909,4.009,4.032,4.042,0,,17.3853211,14.7,14,Waypoint,
19800,2024-11-04 06:30:13,-23.4443048714797,151.917375140073,14.7,,,17.3853211,0,7.55,43.6702,47.4496,16,5,23.878,17.3853211,14.7,8.3,43.6702,-7.4,1.5,0.1,166.9, -0.1, -1.3,0,0,1024,1024,1024,1024,0,0,0,0,0,0,0,97,3.982,3.904,3.909,4.009,4.032,4.042,0,,17.3853211,14.7,14,Waypoint,
19900,2024-11-04 06:30:13,-23.4443116965881,151.917376979111,14.7,,,17.3853211,0,7.55,44.45,48.2314,16,5,23.878,17.3853211,14.7,8.3,44.45,-7.4,1.5,0,166.9, 0, -1.1,0,0,1024,1024,1024,1024,0,0,0,0,0,0,0,97,3.982,3.904,3.909,4.009,4.032,4.042,0,,17.3853211,14.7,14,Waypoint,
20000,2024-11-04 06:30:13,-23.4443183708375,151.917378638406,14.7,,,17.3853211,0,7.55,45.2102,48.9927,16,5,23.872,17.3853211,14.7,8.3,45.2102,-7.4,1.5,0,166.8, 0.1, -1.1,0,0,1024,1024,1024,1024,0,0,0,0,0,0,0,97,4,3.911,3.909,4.011,4.01,4.031,0,,17.3853211,14.7,14,Waypoint,
20100,2024-11-04 06:30:14,-23.4443252144711,151.917380516897,14.7,,,17.3853211,0,7.45,45.9928,49.7775,16,5,23.872,17.3853211,14.7,8.3,45.9928,-7.3,1.5,0,166.8, 0.2, -1.3,0,0,1024,1024,1024,1024,0,0,0,0,0,0,0,97,4,3.911,3.909,4.011,4.01,4.031,0,,17.3853211,14.7,14,Waypoint,
20200,2024-11-04 06:30:14,-23.4443319204035,151.917382188732,14.7,,,17.3853211,0,7.45,46.7568,50.5425,16,5,23.872,17.3853211,14.7,8.3,46.7568,-7.3,1.4,0,166.8, 0.2, -0.9,0,0,1024,1024,1024,1024,0,0,0,0,0,0,0,97,4,3.911,3.909,4.011,4.01,4.031,0,,17.3853211,14.7,14,Waypoint,
20300,2024-11-04 06:30:14,-23.4443387130212,151.917384032589,14.7,,,17.3853211,0,7.33,47.5333,51.321,16,5,23.872,17.3853211,14.7,8.3,47.5333,-7.2,1.4,0,166.9, -0.3, -1,0,0,1024,1024,1024,1024,0,0,0,0,0,0,0,97,4,3.911,3.909,4.011,4.01,4.031,0,,17.3853211,14.7,14,Waypoint,
20400,2024-11-04 06:30:14,-23.444345355796,151.917385658268,14.7,,,17.3853211,0,7.33,48.2896,52.0781,16,5,23.872,17.3853211,14.7,8.3,48.2896,-7.2,1.4,0,167, -1, -0.2,0,0,1024,1024,1024,1024,0,0,0,0,0,0,0,97,4,3.911,3.909,4.011,4.01,4.031,0,,17.3853211,14.7,14,Waypoint,
20500,2024-11-04 06:30:14,-23.4443519812963,151.917387387839,14.7,,,17.3853211,0,7.33,49.0459,52.8357,16,5,23.872,17.3853211,14.7,8.3,49.0459,-7.2,1.4,0,167, -1.8, 0.1,0,0,1024,1024,1024,1024,0,0,0,0,0,0,0,97,4,3.911,3.909,4.011,4.01,4.031,0,,17.3853211,14.7,14,Waypoint,
20700,2024-11-04 06:30:14,-23.4443651916769,151.917390542409,14.7,,,17.3853211,0,7.32,50.5487,54.3397,16,5,23.872,17.3853211,14.7,8.3,50.5487,-7.2,1.3,0,167, -2.8, 0,0,0,1024,1024,1024,1024,0,0,0,0,0,0,0,97,4,3.911,3.909,4.011,4.01,4.031,0,,17.3853211,14.7,14,Waypoint,
20800,2024-11-04 06:30:14,-23.4443718160308,151.917391996683,14.6,,,17.2853211,0,7.41,51.3,55.0911,16,5,23.872,17.3853211,14.7,8.3,51.3,-7.3,1.3,0,166.9, -2.9, -0.2,0,0,1024,1024,1024,1024,0,0,0,0,0,0,0,97,4,3.911,3.909,4.011,4.01,4.031,0,,17.2853211,14.6,14,Waypoint,
20900,2024-11-04 06:30:14,-23.4443787420506,151.917393570125,14.6,,,17.2853211,0,7.41,52.0865,55.8779,16,5,23.872,17.3853211,14.7,8.3,52.0865,-7.3,1.3,0.1,166.9, -2.9, -0.6,0,0,1024,1024,1024,1024,0,0,0,0,0,0,0,97,4,3.911,3.909,4.011,4.01,4.031,0,,17.2853211,14.6,14,Waypoint,
21000,2024-11-04 06:30:14,-23.4443855252364,151.917394986048,14.6,,,17.2853211,0,7.41,52.8545,56.6459,16,5,23.872,17.3853211,14.7,8.3,52.8545,-7.3,1.3,0,167, -2.7, -1.1,0,0,1024,1024,1024,1024,0,0,0,0,0,0,0,97,4,3.911,3.909,4.011,4.01,4.031,0,,17.2853211,14.6,14,Waypoint,
21100,2024-11-04 06:30:15,-23.4443924631373,151.917396529423,14.6,,,17.2853211,0,7.41,53.6417,57.4334,16,5,23.872,17.3853211,14.7,8.3,53.6417,-7.3,1.3,0,166.9, -2.6, -1.2,0,0,1024,1024,1024,1024,0,0,0,0,0,0,0,97,4,3.911,3.909,4.011,4.01,4.031,0,,17.2853211,14.6,14,Waypoint,
21200,2024-11-04 06:30:15,-23.4443992350152,151.917397924756,14.6,,,17.2853211,0,7.4,54.4081,58.1998,16,5,23.872,17.3853211,14.7,8.3,54.4081,-7.3,1.2,0,166.9, -2.6, -1.3,0,0,1024,1024,1024,1024,0,0,0,0,0,0,0,97,4,3.911,3.909,4.011,4.01,4.031,0,,17.2853211,14.6,14,Waypoint,
21300,2024-11-04 06:30:15,-23.4444061866733,151.917399445608,14.7,,,17.3853211,0,7.4,55.1964,58.9883,16,5,23.872,17.3853211,14.7,8.3,55.1964,-7.3,1.2,0,166.9, -2.7, -1.5,0,0,1024,1024,1024,1024,0,0,0,0,0,0,0,97,4,3.911,3.909,4.011,4.01,4.031,0,,17.3853211,14.7,14,Waypoint,
21400,2024-11-04 06:30:15,-23.4444129845541,151.917400817653,14.7,,,17.3853211,0,7.4,55.9653,59.7571,16,5,23.872,17.3853211,14.7,8.3,55.9653,-7.3,1.2,0,166.9, -3, -1.5,0,0,1024,1024,1024,1024,0,0,0,0,0,0,0,97,4,3.911,3.909,4.011,4.01,4.031,0,,17.3853211,14.7,14,Waypoint,
21500,2024-11-04 06:30:15,-23.4444198234457,151.917402266641,14.7,,,17.3853211,0,7.4,56.74,60.5318,16,5,23.872,17.3853211,14.7,8.3,56.74,-7.4,1.2,0,166.9, -3.1, -1.7,0,0,1024,1024,1024,1024,0,0,0,0,0,0,0,97,4,3.911,3.909,4.011,4.01,4.031,0,,17.3853211,14.7,14,Waypoint,
21600,2024-11-04 06:30:15,-23.4444265663502,151.917403600792,14.7,,,17.3853211,0,7.5,57.5021,61.2939,16,5,23.872,17.3853211,14.7,8.3,57.5021,-7.4,1.2,0,166.8, -3, -2.2,0,0,1024,1024,1024,1024,0,0,0,0,0,0,0,97,4,3.911,3.909,4.011,4.01,4.031,0,,17.3853211,14.7,14,Waypoint,
21700,2024-11-04 06:30:15,-23.4444334428654,151.917405056662,14.7,,,17.3853211,0,7.5,58.281,62.0729,16,5,23.872,17.3853211,14.7,8.3,58.281,-7.4,1.2,0,166.8, -3, -2.5,0,0,1024,1024,1024,1024,0,0,0,0,0,0,0,97,4,3.911,3.909,4.011,4.01,4.031,0,,17.3853211,14.7,14,Waypoint,
