time(millisecond),datetime(utc),latitude,longitude,height_above_takeoff(meters),height_above_ground_at_drone_location(meters),ground_elevation_at_drone_location(meters),altitude_above_seaLevel(meters),height_sonar(meters),speed(m/s),distance(meters),mileage(meters),satellites,gpslevel,voltage(v),max_altitude(meters),max_ascent(meters),max_speed(m/s),max_distance(meters), xSpeed(m/s), ySpeed(m/s), zSpeed(m/s), compass_heading(degrees), pitch(degrees), roll(degrees),isPhoto,isVideo,rc_elevator,rc_aileron,rc_throttle,rc_rudder,rc_elevator(percent),rc_aileron(percent),rc_throttle(percent),rc_rudder(percent),gimbal_heading(degrees),gimbal_pitch(degrees),gimbal_roll(degrees),battery_percent,voltageCell1,voltageCell2,voltageCell3,voltageCell4,voltageCell5,voltageCell6,current(A),battery_temperature(c),altitude(meters),ascent(meters),flycStateRaw,flycState,message
0,2024-11-04 05:58:14,-23.4439317140985,151.917303826031,0,Available with any HD 360 subscription,Available with any HD 360 subscription,2.5528648,0,0,0,0,14,5,0,2.5528648,0,0,0,0,0,0,83.2, -2.6, 0.8,0,0,1024,1024,1024,1024,0,0,0,0,0,0,0,100,4.344,4.347,4.345,4.357,4.36,4.355,0,,2.5528648,0,41,Motors_Started,
100,2024-11-04 05:58:14,-23.4439316774582,151.917303884618,0,,,2.5528648,0,0,0.0072341,0.0072341,14,5,0,2.5528648,0,0,0.0072341,0,0,0,83.6, -2.7, 0.8,0,0,1024,1024,1024,1024,0,0,0,0,0,0,0,100,4.344,4.347,4.345,4.357,4.36,4.355,0,,2.5528648,0,41,Motors_Started,
200,2024-11-04 05:58:14,-23.4439316502711,151.917303934889,0,,,2.5528648,0,0,0.0131808,0.0131878,14,5,0,2.5528648,0,0,0.0131808,0,0,0,83.9, -2.7, 0.8,0,0,1024,1024,1024,1024,0,0,0,0,0,0,0,100,4.344,4.347,4.345,4.357,4.36,4.355,0,,2.5528648,0,41,Motors_Started,"Setting new Return-To-Home altitude to 40m (131 ft). Data Recorder File Index is 365. Setting new Maximum Flight Altitude to 120m (394 ft)"
300,2024-11-04 05:58:15,-23.4439316314058,151.917303952293,0,,,2.5528648,0,0,0.0158276,0.0159363,14,5,0,2.5528648,0,0,0.0158276,0,0,0,84.3, -2.7, 0.8,0,0,1024,1024,1024,1024,0,0,0,0,0,0,0,100,4.344,4.347,4.345,4.357,4.36,4.355,0,,2.5528648,0,41,Motors_Started,
400,2024-11-04 05:58:15,-23.4439316155335,151.917303979195,0,,,2.5528648,0,0,0.0190876,0.0191996,14,5,0,2.5528648,0,0,0.0190876,0,0,0,84.6, -2.7, 0.8,0,0,1024,1024,1024,1024,0,0,0,0,0,0,0,100,4.344,4.347,4.345,4.357,4.36,4.355,0,,2.5528648,0,41,Motors_Started,
500,2024-11-04 05:58:15,-23.4439316057509,151.917304015705,0,,,2.5528648,0,0,0.0227961,0.0230801,14,5,0,2.5528648,0,0,0.0227961,0,0,0,84.8, -2.7, 0.8,0,0,1024,1024,1024,1024,0,0,0,0,0,0,0,100,4.344,4.347,4.345,4.357,4.36,4.355,0,,2.5528648,0,41,Motors_Started,
600,2024-11-04 05:58:15,-23.4439315951442,151.917304053577,0,,,2.5528648,0,0,0.0267199,0.0271201,14,5,0,2.5528648,0,0,0.0267199,0,0,0,85.1, -2.7, 0.8,0,0,1024,1024,1024,1024,0,0,0,0,0,0,0,100,4.344,4.347,4.345,4.357,4.36,4.355,0,,2.5528648,0,41,Motors_Started,
700,2024-11-04 05:58:15,-23.4439315895198,151.917304105504,0,,,2.5528648,0,0,0.031701,0.0324548,14,5,0,2.5528648,0,0,0.031701,0,0,0,85.2, -2.7, 0.8,0,0,1024,1024,1024,1024,0,0,0,0,0,0,0,100,4.344,4.347,4.345,4.357,4.36,4.355,0,,2.5528648,0,41,Motors_Started,
800,2024-11-04 05:58:15,-23.4439315813241,151.917304154815,0,,,2.5528648,0,0,0.0366504,0.0375677,14,5,0,2.5528648,0,0,0.0366504,0,0,0,85.4, -2.7, 0.8,0,0,1024,1024,1024,1024,0,0,0,0,0,0,0,100,4.344,4.347,4.345,4.357,4.36,4.355,0,,2.5528648,0,41,Motors_Started,
900,2024-11-04 05:58:15,-23.4439315788055,151.917304164406,0,,,2.5528648,0,0,0.0376591,0.0385856,15,5,0,2.5528648,0,0,0.0376591,0,0,0,85.5, -2.7, 0.8,0,0,1024,1024,1024,1024,0,0,0,0,0,0,0,100,4.344,4.347,4.345,4.357,4.36,4.355,0,,2.5528648,0,41,Motors_Started,
1000,2024-11-04 05:58:15,-23.443931573578,151.917304186729,0,,,2.5528648,0,0,0.039981,0.0409361,15,5,0,2.5528648,0,0,0.039981,0,0,0,85.6, -2.7, 0.8,0,0,1024,1024,1024,1024,0,0,0,0,0,0,0,100,4.344,4.347,4.345,4.357,4.36,4.355,0,,2.5528648,0,41,Motors_Started,
1100,2024-11-04 05:58:15,-23.4439315290739,151.917304218331,0,,,2.5528648,0,0,0.0450039,0.0468428,15,5,0,2.5528648,0,0,0.0450039,0,0,0,85.7, -2.7, 0.8,0,0,1024,1024,1024,1024,0,0,0,0,0,0,0,100,4.344,4.347,4.345,4.357,4.36,4.355,0,,2.5528648,0,41,Motors_Started,
1200,2024-11-04 05:58:15,-23.4439314966891,151.917304254405,0,,,2.5528648,0,0,0.0499469,0.0519922,15,5,0,2.5528648,0,0,0.0499469,0,0,0,85.8, -2.6, 0.8,0,0,1024,1024,1024,1024,0,0,0,0,0,0,0,100,4.344,4.347,4.345,4.357,4.36,4.355,0,,2.5528648,0,41,Motors_Started,
1300,2024-11-04 05:58:16,-23.4439314710948,151.917304301212,0,,,2.5528648,0,0,0.0555037,0.0575516,15,5,0,2.5528648,0,0,0.0555037,0,0,0,85.8, -2.6, 0.8,0,0,1024,1024,1024,1024,0,0,0,0,0,0,0,100,4.344,4.347,4.345,4.357,4.36,4.355,0,,2.5528648,0,41,Motors_Started,
1400,2024-11-04 05:58:16,-23.4439314513766,151.917304346359,0,,,2.5528648,0,0,0.0605955,0.0626531,15,5,0,2.5528648,0,0,0.0605955,0,0,0,85.9, -2.6, 0.8,0,0,1024,1024,1024,1024,0,0,0,0,0,0,0,100,4.344,4.347,4.345,4.357,4.36,4.355,0,,2.5528648,0,41,Motors_Started,
1500,2024-11-04 05:58:16,-23.4439314437724,151.917304356403,0,,,2.5528648,0,0,0.0619015,0.0639817,15,5,0,2.5528648,0,0,0.0619015,0,0,0,85.9, -2.6, 0.8,0,0,1024,1024,1024,1024,0,0,0,0,0,0,0,100,4.344,4.347,4.345,4.357,4.36,4.355,0,,2.5528648,0,41,Motors_Started,
1600,2024-11-04 05:58:16,-23.4439314331931,151.917304378021,0,,,2.5528648,0,0,0.0644009,0.0664814,15,5,26.108,2.5528648,0,0,0.0644009,0,0,0,86, -2.6, 0.8,0,0,1024,1024,1024,1024,0,0,0,0,0,0,0,100,4.344,4.347,4.345,4.357,4.36,4.355,0,,2.5528648,0,41,Motors_Started,
1700,2024-11-04 05:58:16,-23.4439314366317,151.91730440914,0,,,2.5528648,0,0,0.0670181,0.0696793,15,5,26.108,2.5528648,0,0,0.0670181,0,0,0,86, -2.6, 0.8,0,0,1024,1024,1024,1024,0,0,0,0,0,0,0,100,4.344,4.347,4.345,4.357,4.36,4.355,0,,2.5528648,0,41,Motors_Started,
1800,2024-11-04 05:58:16,-23.4439314336765,151.917304443425,0,,,2.5528648,0,0,0.070287,0.0731927,15,5,26.108,2.5528648,0,0,0.070287,0,0,0,86, -2.6, 0.8,0,0,1024,1024,1024,1024,0,0,0,0,0,0,0,100,4.344,4.347,4.345,4.357,4.36,4.355,0,,2.5528648,0,41,Motors_Started,
1900,2024-11-04 05:58:16,-23.4439314430996,151.917304491198,0,,,2.5528648,0,0,0.0742549,0.0781781,15,5,26.108,2.5528648,0,0,0.0742549,0,0,0,86.1, -2.6, 0.8,0,0,1024,1024,1024,1024,0,0,0,0,0,0,0,100,4.344,4.347,4.345,4.357,4.36,4.355,0,,2.5528648,0,41,Motors_Started,
2000,2024-11-04 05:58:16,-23.4439314443801,151.917304536553,0,,,2.5528648,0,0,0.0784519,0.0828077,15,5,26.108,2.5528648,0,0,0.0784519,0,0,0,86.1, -2.6, 0.8,0,0,1024,1024,1024,1024,0,0,0,0,0,0,0,100,4.344,4.347,4.345,4.357,4.36,4.355,0,,2.5528648,0,41,Motors_Started,
2100,2024-11-04 05:58:16,-23.4439314561085,151.917304548701,0,,,2.5528648,0,0,0.0791164,0.084607,15,5,26.108,2.5528648,0,0,0.0791164,0,0,0,86.2, -2.6, 0.8,0,0,1024,1024,1024,1024,0,0,0,0,0,0,0,100,4.344,4.347,4.345,4.357,4.36,4.355,0,,2.5528648,0,11,AutoTakeoff,
2200,2024-11-04 05:58:17,-23.4439314601994,151.917304568398,0,,,2.5528648,0,0,0.0808325,0.0866674,15,5,26.108,2.5528648,0,0,0.0808325,0,0,0,86.1, -2.5, 0.9,0,0,1024,1024,1024,1024,0,0,0,0,0,0,0,100,4.344,4.347,4.345,4.357,4.36,4.355,0,,2.5528648,0,11,AutoTakeoff,
2300,2024-11-04 05:58:17,-23.4439314712137,151.917304597582,0,,,2.5528648,0,0,0.0832234,0.0898871,15,5,26.108,2.5528648,0,0,0.0832234,0,0,0,86.2, -2.4, 0.8,0,0,1024,1024,1024,1024,0,0,0,0,0,0,0,100,4.344,4.347,4.345,4.357,4.36,4.355,0,,2.5528648,0,11,AutoTakeoff,
2400,2024-11-04 05:58:17,-23.4439314762087,151.917304629496,0,,,2.5528648,0,0,0.0861374,0.0931902,15,5,26.108,2.5528648,0,0,0.0861374,0,0,0,86.2, -2.2, 0.8,0,0,1024,1024,1024,1024,0,0,0,0,0,0,0,100,4.344,4.347,4.345,4.357,4.36,4.355,0,,2.5528648,0,11,AutoTakeoff,
2500,2024-11-04 05:58:17,-23.4439314406518,151.917304604094,0,,,2.5528648,0,0,0.0850077,0.0979179,15,5,26.108,2.5528648,0,0,0.0861374,0,0,0,86.3, -1.6, 0.9,0,0,1024,1024,1024,1024,0,0,0,0,0,0,0,100,4.344,4.347,4.345,4.357,4.36,4.355,0,,2.5528648,0,11,AutoTakeoff,
2600,2024-11-04 05:58:17,-23.4439314195509,151.917304555837,0,,,2.5528648,0,0,0.0813455,0.103372,15,5,26.093,2.5528648,0,0,0.0861374,0,0,0,86.4, -0.8, 0.9,0,0,1024,1024,1024,1024,0,0,0,0,0,0,0,100,4.342,4.344,4.343,4.355,4.357,4.352,0,,2.5528648,0,11,AutoTakeoff,
2700,2024-11-04 05:58:17,-23.4439314064687,151.917304527902,0,,,2.5528648,0,0,0.0793612,0.106572,15,5,26.093,2.5528648,0,0,0.0861374,0,0,0,86.4, -0.2, 1,0,0,1024,1024,1024,1024,0,0,0,0,0,0,0,100,4.342,4.344,4.343,4.355,4.357,4.352,0,,2.5528648,0,11,AutoTakeoff,
2800,2024-11-04 05:58:17,-23.4439314074159,151.917304534808,0,,,2.5528648,0,0,0.0799526,0.107284,15,5,26.093,2.5528648,0,0,0.0861374,0,0,0,86.4, -0.1, 0.9,0,0,1024,1024,1024,1024,0,0,0,0,0,0,0,100,4.342,4.344,4.343,4.355,4.357,4.352,0,,2.5528648,0,11,AutoTakeoff,
2900,2024-11-04 05:58:17,-23.4439314162981,151.917304504354,0,,,2.5528648,0,0,0.0767222,0.110545,15,5,26.093,2.5528648,0,0,0.0861374,0,0,0.1,86.4, 0, 0.9,0,0,1024,1024,1024,1024,0,0,0,0,0,0,0,100,4.342,4.344,4.343,4.355,4.357,4.352,0,,2.5528648,0,11,AutoTakeoff,
3000,2024-11-04 05:58:17,-23.4439314224924,151.917304476866,0,,,2.5528648,0,0,0.0738975,0.113433,15,5,26.093,2.5528648,0,0,0.0861374,0,0,0.2,86.5, 0.3, 0.8,0,0,1024,1024,1024,1024,0,0,0,0,0,0,0,100,4.342,4.344,4.343,4.355,4.357,4.352,0,,2.5528648,0,11,AutoTakeoff,
3100,2024-11-04 05:58:17,-23.4439314223955,151.917304466013,0,,,2.5528648,0,0,0.0729089,0.11454,15,5,26.093,2.5528648,0,0,0.0861374,0,0,0.1,86.6, 1, 0.8,0,0,1024,1024,1024,1024,0,0,0,0,0,0,0,100,4.342,4.344,4.343,4.355,4.357,4.352,0,,2.5528648,0,11,AutoTakeoff,
3200,2024-11-04 05:58:18,-23.4439314272442,151.91730440061,-0.1,,,2.4528648,0,0.1,0.0667394,0.121235,15,5,26.093,2.5528648,0,0.1,0.0861374,0,-0.1,0.1,86.8, 2.3, 0.8,0,0,1024,1024,1024,1024,0,0,0,0,0,0,0,100,4.342,4.344,4.343,4.355,4.357,4.352,0,,2.4528648,-0.1,11,AutoTakeoff,
3300,2024-11-04 05:58:18,-23.4439314008495,151.917304236344,-0.1,,,2.4528648,0,0.2,0.0544607,0.138249,15,5,26.093,2.5528648,0,0.2,0.0861374,0,-0.2,0,86.9, 3.9, 0.9,0,0,1024,1024,1024,1024,0,0,0,0,0,0,0,100,4.342,4.344,4.343,4.355,4.357,4.352,0,,2.4528648,-0.1,11,AutoTakeoff,
3400,2024-11-04 05:58:18,-23.4439314209373,151.917303988542,-0.1,,,2.4528648,0,0.3,0.0365753,0.16363,15,5,26.093,2.5528648,0,0.3,0.0861374,0,-0.3,0,86.9, 4.7, 0.8,0,0,1024,1024,1024,1024,0,0,0,0,0,0,0,100,4.342,4.344,4.343,4.355,4.357,4.352,0,,2.4528648,-0.1,11,AutoTakeoff,
3500,2024-11-04 05:58:18,-23.4439314654291,151.917303469823,-0.1,,,2.4528648,0,0.41,0.0456672,0.216783,15,5,26.093,2.5528648,0,0.41,0.0861374,-0.1,-0.4,-0.1,86.9, 3.9, 0.4,0,0,1024,1024,1024,1024,0,0,0,0,0,0,0,100,4.342,4.344,4.343,4.355,4.357,4.352,0,,2.4528648,-0.1,11,AutoTakeoff,
3600,2024-11-04 05:58:18,-23.4439315376957,151.917302943946,-0.1,,,2.4528648,0,0.51,0.0921089,0.271035,15,5,26.045,2.5528648,0,0.51,0.0921089,-0.1,-0.5,-0.2,86.9, 3, 0.3,0,0,1024,1024,1024,1024,0,0,0,0,0,0,0,100,4.336,4.333,4.335,4.347,4.348,4.346,0,,2.4528648,-0.1,11,AutoTakeoff,
3700,2024-11-04 05:58:18,-23.4439316107031,151.917302185272,-0.1,,,2.4528648,0,0.61,0.167795,0.348864,15,5,26.045,2.5528648,0,0.61,0.167795,-0.1,-0.6,-0.3,86.9, 1.8, 0.1,0,0,1024,1024,1024,1024,0,0,0,0,0,0,0,100,4.336,4.333,4.335,4.347,4.348,4.346,0,,2.4528648,-0.1,11,AutoTakeoff,
3800,2024-11-04 05:58:18,-23.4439317128622,151.917301434186,0,,,2.5528648,0,0.71,0.24403,0.426332,15,5,26.045,2.5528648,0,0.71,0.24403,-0.1,-0.7,-0.4,86.9, 0.6, -0.2,0,0,1024,1024,1024,1024,0,0,0,0,0,0,0,100,4.336,4.333,4.335,4.347,4.348,4.346,0,,2.5528648,0,11,AutoTakeoff,
3900,2024-11-04 05:58:18,-23.4439318172458,151.917300433302,0,,,2.5528648,0,0.71,0.346337,0.529106,15,5,26.045,2.5528648,0,0.71,0.346337,-0.1,-0.7,-0.5,86.9, -0.5, -0.5,0,0,1024,1024,1024,1024,0,0,0,0,0,0,0,100,4.336,4.333,4.335,4.347,4.348,4.346,0,,2.5528648,0,11,AutoTakeoff,
4000,2024-11-04 05:58:18,-23.4439319325224,151.91729951606,0,,,2.5528648,0,0.81,0.4404,0.623562,15,5,26.045,2.5528648,0,0.81,0.4404,-0.1,-0.8,-0.7,86.9, -1.7, -0.5,0,0,1024,1024,1024,1024,0,0,0,0,0,0,0,100,4.336,4.333,4.335,4.347,4.348,4.346,0,,2.5528648,0,11,AutoTakeoff,
4100,2024-11-04 05:58:18,-23.4439319664295,151.917298529979,0.1,,,2.6528648,0,0.81,0.541063,0.724239,15,5,26.045,2.6528648,0.1,0.81,0.541063,-0.1,-0.8,-0.7,86.9, -2.6, -0.5,0,0,1024,1024,1024,1024,0,0,0,0,0,0,0,100,4.336,4.333,4.335,4.347,4.348,4.346,0,,2.6528648,0.1,11,AutoTakeoff,
4200,2024-11-04 05:58:19,-23.4439320309857,151.917297630498,0.2,,,2.7528648,0,0.71,0.633087,0.81629,15,5,26.045,2.7528648,0.2,0.81,0.633087,-0.1,-0.7,-0.7,86.9, -3.4, -0.4,0,0,1024,1024,1024,1024,0,0,0,0,0,0,0,100,4.336,4.333,4.335,4.347,4.348,4.346,0,,2.7528648,0.2,11,AutoTakeoff,
4300,2024-11-04 05:58:19,-23.4439320441437,151.917296700895,0.3,,,2.8528648,0,0.71,0.727875,0.911145,16,5,26.045,2.8528648,0.3,0.81,0.727875,-0.1,-0.7,-0.8,86.9, -3.9, -0.5,0,0,1024,1024,1024,1024,0,0,0,0,0,0,0,100,4.336,4.333,4.335,4.347,4.348,4.346,0,,2.8528648,0.3,11,AutoTakeoff,
4400,2024-11-04 05:58:19,-23.4439320923525,151.917295833693,0.4,,,2.9528648,0,0.71,0.816511,0.999784,16,5,26.045,2.9528648,0.4,0.81,0.816511,-0.1,-0.7,-0.7,87, -4.4, -0.5,0,0,1024,1024,1024,1024,0,0,0,0,0,0,0,100,4.336,4.333,4.335,4.347,4.348,4.346,0,,2.9528648,0.4,11,AutoTakeoff,
4500,2024-11-04 05:58:19,-23.4439320841111,151.917295043155,0.5,,,3.0528648,0,0.7,0.897026,1.08044,16,5,26.045,3.0528648,0.5,0.81,0.897026,0,-0.7,-0.7,87, -4.7, -0.5,0,0,1024,1024,1024,1024,0,0,0,0,0,0,0,100,4.336,4.333,4.335,4.347,4.348,4.346,0,,3.0528648,0.5,11,AutoTakeoff,
4600,2024-11-04 05:58:19,-23.4439321147756,151.917294285445,0.6,,,3.1528648,0,0.7,0.974407,1.15783,16,5,25.017,3.1528648,0.6,0.81,0.974407,0,-0.7,-0.7,87, -5.2, -0.4,0,0,1024,1024,1024,1024,0,0,0,0,0,0,0,100,4.153,4.149,4.162,4.196,4.172,4.185,0,,3.1528648,0.6,11,AutoTakeoff,
4700,2024-11-04 05:58:19,-23.443932063615,151.917293633249,0.7,,,3.2528648,0,0.6,1.04066,1.22461,16,5,25.017,3.2528648,0.7,0.81,1.04066,0,-0.6,-0.7,87, -5.7, -0.3,0,0,1024,1024,1024,1024,0,0,0,0,0,0,0,100,4.153,4.149,4.162,4.196,4.172,4.185,0,,3.2528648,0.7,11,AutoTakeoff,
4800,2024-11-04 05:58:19,-23.44393206422,151.917293002581,0.8,,,3.3528648,0,0.6,1.10496,1.28895,16,5,25.017,3.3528648,0.8,0.81,1.10496,0,-0.6,-0.7,87, -5.8, -0.3,0,0,1024,1024,1024,1024,0,0,0,0,0,0,0,100,4.153,4.149,4.162,4.196,4.172,4.185,0,,3.3528648,0.8,11,AutoTakeoff,
4900,2024-11-04 05:58:19,-23.4439320539771,151.9172924939,0.9,,,3.4528648,0,0.5,1.15679,1.34087,16,5,25.017,3.4528648,0.9,0.81,1.15679,0,-0.5,-0.7,86.9, -5.6, -0.5,0,0,1024,1024,1024,1024,0,0,0,0,0,0,0,100,4.153,4.149,4.162,4.196,4.172,4.185,0,,3.4528648,0.9,11,AutoTakeoff,
5000,2024-11-04 05:58:19,-23.4439320803477,151.917291989881,1,,,3.5528648,0,0.5,1.20828,1.39237,16,5,25.017,3.5528648,1,0.81,1.20828,0,-0.5,-0.7,86.9, -5, -0.7,0,0,1024,1024,1024,1024,0,0,0,0,0,0,0,100,4.153,4.149,4.162,4.196,4.172,4.185,0,,3.5528648,1,11,AutoTakeoff,
5100,2024-11-04 05:58:19,-23.4439320945957,151.917291626289,1.1,,,3.6528648,0,0.4,1.24541,1.4295,16,5,25.017,3.6528648,1.1,0.81,1.24541,0,-0.4,-0.7,86.9, -4.5, -0.8,0,0,1024,1024,1024,1024,0,0,0,0,0,0,0,100,4.153,4.149,4.162,4.196,4.172,4.185,0,,3.6528648,1.1,6,P-GPS,
5200,2024-11-04 05:58:20,-23.4439321311123,151.917291232749,1.2,,,3.7528648,0,0.4,1.28568,1.46986,16,5,25.017,3.7528648,1.2,0.81,1.28568,0,-0.4,-0.6,86.9, -4.2, -0.7,0,0,1024,1024,1024,1024,0,0,0,0,0,0,0,100,4.153,4.149,4.162,4.196,4.172,4.185,0,,3.7528648,1.2,14,Waypoint,
5300,2024-11-04 05:58:20,-23.443932224676,151.917290978818,1.3,,,3.8528648,0,0.4,1.31198,1.49778,16,5,25.017,3.8528648,1.3,0.81,1.31198,0,-0.4,-0.5,86.8, -3.5, -0.9,0,0,1024,1024,1024,1024,0,0,0,0,0,0,0,100,4.153,4.149,4.162,4.196,4.172,4.185,0,,3.8528648,1.3,14,Waypoint,
5400,2024-11-04 05:58:20,-23.4439323076539,151.917290670167,1.3,,,3.8528648,0,0.4,1.34386,1.53059,16,5,25.017,3.8528648,1.3,0.81,1.34386,0,-0.4,-0.3,86.9, -3.3, -1,0,0,1024,1024,1024,1024,0,0,0,0,0,0,0,100,4.153,4.149,4.162,4.196,4.172,4.185,0,,3.8528648,1.3,14,Waypoint,
5500,2024-11-04 05:58:20,-23.4439323493804,151.917290327547,1.4,,,3.9528648,0,0.4,1.37901,1.56585,16,5,25.017,3.9528648,1.4,0.81,1.37901,0,-0.4,-0.3,86.9, -3.2, -0.8,0,0,1024,1024,1024,1024,0,0,0,0,0,0,0,100,4.153,4.149,4.162,4.196,4.172,4.185,0,,3.9528648,1.4,14,Waypoint,
5600,2024-11-04 05:58:20,-23.4439324021472,151.917289962489,1.4,,,3.9528648,0,0.4,1.41651,1.60356,16,5,25.017,3.9528648,1.4,0.81,1.41651,0,-0.4,-0.4,87, -3.3, -0.8,0,0,1024,1024,1024,1024,0,0,0,0,0,0,0,100,4.153,4.149,4.162,4.196,4.172,4.185,0,,3.9528648,1.4,14,Waypoint,
5700,2024-11-04 05:58:20,-23.4439324986424,151.917289520621,1.5,,,4.0528648,0,0.4,1.46213,1.6499,16,5,24.592,4.0528648,1.5,0.81,1.46213,0,-0.4,-0.5,87, -3.4, -0.7,0,0,1024,1024,1024,1024,0,0,0,0,0,0,0,100,4.089,4.093,4.093,4.107,4.101,4.109,0,,4.0528648,1.5,14,Waypoint,
5800,2024-11-04 05:58:20,-23.4439325777215,151.917289102858,1.6,,,4.1528648,0,0.4,1.50521,1.69342,16,5,24.592,4.1528648,1.6,0.81,1.50521,0,-0.4,-0.6,87, -3.4, -0.6,0,0,1024,1024,1024,1024,0,0,0,0,0,0,0,100,4.089,4.093,4.093,4.107,4.101,4.109,0,,4.1528648,1.6,14,Waypoint,
5900,2024-11-04 05:58:20,-23.4439326719926,151.917288591123,1.7,,,4.2528648,0,0.41,1.558,1.74667,16,5,24.592,4.2528648,1.7,0.81,1.558,-0.1,-0.4,-0.8,87, -3.5, -0.5,0,0,1024,1024,1024,1024,0,0,0,0,0,0,0,100,4.089,4.093,4.093,4.107,4.101,4.109,0,,4.2528648,1.7,14,Waypoint,
6000,2024-11-04 05:58:20,-23.4439327637912,151.917288142835,1.8,,,4.3528648,0,0.41,1.60435,1.79354,16,5,24.592,4.3528648,1.8,0.81,1.60435,-0.1,-0.4,-1.1,86.9, -3.7, -0.7,0,0,1024,1024,1024,1024,0,0,0,0,0,0,0,100,4.089,4.093,4.093,4.107,4.101,4.109,0,,4.3528648,1.8,14,Waypoint,
6100,2024-11-04 05:58:20,-23.4439328836642,151.917287574706,2,,,4.5528648,0,0.41,1.66315,1.85301,16,5,24.592,4.5528648,2,0.81,1.66315,-0.1,-0.4,-1.3,86.9, -3.9, -0.6,0,0,1024,1024,1024,1024,0,0,0,0,0,0,0,100,4.089,4.093,4.093,4.107,4.101,4.109,0,,4.5528648,2,14,Waypoint,
6200,2024-11-04 05:58:21,-23.4439329838577,151.917287095243,2.1,,,4.6528648,0,0.41,1.71281,1.90318,16,5,24.592,4.6528648,2.1,0.81,1.71281,-0.1,-0.4,-1.5,86.8, -4.1, -0.5,0,0,1024,1024,1024,1024,0,0,0,0,0,0,0,100,4.089,4.093,4.093,4.107,4.101,4.109,0,,4.6528648,2.1,14,Waypoint,
6300,2024-11-04 05:58:21,-23.4439331019252,151.917286461839,2.3,,,4.8528648,0,0.41,1.77831,1.96913,16,5,24.592,4.8528648,2.3,0.81,1.77831,-0.1,-0.4,-1.6,86.8, -4.5, -0.8,0,0,1024,1024,1024,1024,0,0,0,0,0,0,0,100,4.089,4.093,4.093,4.107,4.101,4.109,0,,4.8528648,2.3,14,Waypoint,
6400,2024-11-04 05:58:21,-23.4439332220708,151.91728596376,2.5,,,5.0528648,0,0.32,1.83012,2.02167,16,5,24.592,5.0528648,2.5,0.81,1.83012,-0.1,-0.3,-1.8,87, -5.5, -1,0,0,1024,1024,1024,1024,0,0,0,0,0,0,0,100,4.089,4.093,4.093,4.107,4.101,4.109,0,,5.0528648,2.5,14,Waypoint,
6500,2024-11-04 05:58:21,-23.4439333348608,151.917285505677,2.7,,,5.2528648,0,0.32,1.87782,2.07006,16,5,24.592,5.2528648,2.7,0.81,1.87782,-0.1,-0.3,-2,87.1, -6.3, -0.8,0,0,1024,1024,1024,1024,0,0,0,0,0,0,0,100,4.089,4.093,4.093,4.107,4.101,4.109,0,,5.2528648,2.7,14,Waypoint,
6600,2024-11-04 05:58:21,-23.4439334488605,151.917285166153,2.9,,,5.4528648,0,0.22,1.91354,2.10695,16,5,24.592,5.4528648,2.9,0.81,1.91354,-0.1,-0.2,-2.3,87.2, -6.7, -0.7,0,0,1024,1024,1024,1024,0,0,0,0,0,0,0,100,4.089,4.093,4.093,4.107,4.101,4.109,0,,5.4528648,2.9,14,Waypoint,
6700,2024-11-04 05:58:21,-23.4439336061764,151.917284682686,3.2,,,5.7528648,0,0.14,1.96442,2.15929,16,5,24.689,5.7528648,3.2,0.81,1.96442,-0.1,-0.1,-2.4,87.2, -6.9, -0.8,0,0,1024,1024,1024,1024,0,0,0,0,0,0,0,100,4.11,4.119,4.121,4.109,4.129,4.101,0,,5.7528648,3.2,14,Waypoint,
6800,2024-11-04 05:58:21,-23.4439337354391,151.917284385161,3.4,,,5.9528648,0,0.14,1.99617,2.19287,16,5,24.689,5.9528648,3.4,0.81,1.99617,-0.1,-0.1,-2.6,87.1, -7.1, -0.4,0,0,1024,1024,1024,1024,0,0,0,0,0,0,0,100,4.11,4.119,4.121,4.109,4.129,4.101,0,,5.9528648,3.4,14,Waypoint,
6900,2024-11-04 05:58:21,-23.4439339527549,151.917284028082,3.7,,,6.2528648,0,0.1,2.03519,2.23659,16,5,24.689,6.2528648,3.7,0.81,2.03519,-0.1,0,-2.7,87, -7.5, 0,0,0,1024,1024,1024,1024,0,0,0,0,0,0,0,100,4.11,4.119,4.121,4.109,4.129,4.101,0,,6.2528648,3.7,14,Waypoint,
7000,2024-11-04 05:58:21,-23.4439341290727,151.917283870651,4,,,6.5528648,0,0.1,2.0536,2.26194,16,5,24.689,6.5528648,4,0.81,2.0536,-0.1,0,-2.8,86.8, -7.8, -0.7,0,0,1024,1024,1024,1024,0,0,0,0,0,0,0,100,4.11,4.119,4.121,4.109,4.129,4.101,0,,6.5528648,4,14,Waypoint,
7100,2024-11-04 05:58:21,-23.4439343774224,151.917283863582,4.3,,,6.8528648,0,0.1,2.05811,2.28957,16,5,24.689,6.8528648,4.3,0.81,2.05811,-0.1,0,-2.9,86.8, -8, -1.4,0,0,1024,1024,1024,1024,0,0,0,0,0,0,0,100,4.11,4.119,4.121,4.109,4.129,4.101,0,,6.8528648,4.3,14,Waypoint,
7200,2024-11-04 05:58:22,-23.4439345696305,151.917283984058,4.6,,,7.1528648,0,0.14,2.04915,2.31422,16,5,24.689,7.1528648,4.6,0.81,2.05811,-0.1,0.1,-2.9,86.8, -7.7, -2.4,0,0,1024,1024,1024,1024,0,0,0,0,0,0,0,100,4.11,4.119,4.121,4.109,4.129,4.101,0,,7.1528648,4.6,14,Waypoint,
7300,2024-11-04 05:58:22,-23.4439347513746,151.917284266806,4.9,,,7.4528648,0,0.22,2.02393,2.34945,16,5,24.689,7.4528648,4.9,0.81,2.05811,-0.1,0.2,-3,87, -7, -3.1,0,0,1024,1024,1024,1024,0,0,0,0,0,0,0,100,4.11,4.119,4.121,4.109,4.129,4.101,0,,7.4528648,4.9,14,Waypoint,
7400,2024-11-04 05:58:22,-23.4439348731855,151.917284618451,5.1,,,7.6528648,0,0.22,1.99091,2.38779,16,5,24.689,7.6528648,5.1,0.81,2.05811,-0.1,0.3,-2.9,87.1, -6.4, -3.6,0,0,1024,1024,1024,1024,0,0,0,0,0,0,0,100,4.11,4.119,4.121,4.109,4.129,4.101,0,,7.6528648,5.1,14,Waypoint,
7500,2024-11-04 05:58:22,-23.4439349852163,151.917285142654,5.4,,,7.9528648,0,0.32,1.94059,2.44271,16,5,24.689,7.9528648,5.4,0.81,2.05811,-0.1,0.3,-3,87.2, -5.5, -3.6,0,0,1024,1024,1024,1024,0,0,0,0,0,0,0,100,4.11,4.119,4.121,4.109,4.129,4.101,0,,7.9528648,5.4,14,Waypoint,
7600,2024-11-04 05:58:22,-23.4439350398557,151.917285677583,5.7,,,8.2528648,0,0.4,1.88819,2.49762,16,5,24.689,8.2528648,5.7,0.81,2.05811,0,0.4,-2.9,87.2, -4.7, -3.4,0,0,1024,1024,1024,1024,0,0,0,0,0,0,0,100,4.11,4.119,4.121,4.109,4.129,4.101,0,,8.2528648,5.7,14,Waypoint,
7700,2024-11-04 05:58:22,-23.4439350933662,151.917286399514,6,,,8.5528648,0,0.4,1.81724,2.57152,16,5,24.03,8.5528648,6,0.81,2.05811,0,0.4,-2.9,87.2, -3.9, -3,0,0,1024,1024,1024,1024,0,0,0,0,0,0,0,100,3.988,3.989,4.007,4.022,3.998,4.026,0,,8.5528648,6,14,Waypoint,
7800,2024-11-04 05:58:22,-23.4439350890748,151.917287080559,6.3,,,8.8528648,0,0.5,1.74921,2.641,16,5,24.03,8.8528648,6.3,0.81,2.05811,0,0.5,-2.9,87.1, -3, -2.5,0,0,1024,1024,1024,1024,0,0,0,0,0,0,0,100,3.988,3.989,4.007,4.022,3.998,4.026,0,,8.8528648,6.3,14,Waypoint,
7900,2024-11-04 05:58:22,-23.4439350280969,151.917287798822,6.6,,,9.1528648,0,0.5,1.67621,2.7146,16,5,24.03,9.1528648,6.6,0.81,2.05811,0,0.5,-2.9,87.1, -2, -2.2,0,0,1024,1024,1024,1024,0,0,0,0,0,0,0,100,3.988,3.989,4.007,4.022,3.998,4.026,0,,9.1528648,6.6,14,Waypoint,
8000,2024-11-04 05:58:22,-23.4439349338454,151.917288479316,6.8,,,9.3528648,0,0.5,1.60618,2.78481,16,5,24.03,9.3528648,6.8,0.81,2.05811,0,0.5,-3,87.1, -1, -1.8,0,0,1024,1024,1024,1024,0,0,0,0,0,0,0,100,3.988,3.989,4.007,4.022,3.998,4.026,0,,9.3528648,6.8,14,Waypoint,
8100,2024-11-04 05:58:22,-23.4439348050345,151.917289057322,7.1,,,9.6528648,0,0.5,1.5455,2.8455,16,5,24.03,9.6528648,7.1,0.81,2.05811,0,0.5,-3,87, -0.2, -1.5,0,0,1024,1024,1024,1024,0,0,0,0,0,0,0,100,3.988,3.989,4.007,4.022,3.998,4.026,0,,9.6528648,7.1,14,Waypoint,
8200,2024-11-04 05:58:22,-23.4439346822264,151.917289618173,7.4,,,9.9528648,0,0.4,1.48668,2.90433,16,5,24.03,9.9528648,7.4,0.81,2.05811,0,0.4,-3.1,87, 0.2, -1.3,0,0,1024,1024,1024,1024,0,0,0,0,0,0,0,100,3.988,3.989,4.007,4.022,3.998,4.026,0,,9.9528648,7.4,14,Waypoint,
8300,2024-11-04 05:58:23,-23.443934548785,151.91729015013,7.7,,,10.2528648,0,0.4,1.43046,2.96059,16,5,24.03,10.2528648,7.7,0.81,2.05811,0,0.4,-3.1,86.9, 0.4, -1,0,0,1024,1024,1024,1024,0,0,0,0,0,0,0,100,3.988,3.989,4.007,4.022,3.998,4.026,0,,10.2528648,7.7,14,Waypoint,
8400,2024-11-04 05:58:23,-23.443934417213,151.917290650463,8.1,,,10.6528648,0,0.3,1.37745,3.0137,16,5,24.03,10.6528648,8.1,0.81,2.05811,0,0.3,-3.1,86.8, 0.2, -0.9,0,0,1024,1024,1024,1024,0,0,0,0,0,0,0,100,3.988,3.989,4.007,4.022,3.998,4.026,0,,10.6528648,8.1,14,Waypoint,
8500,2024-11-04 05:58:23,-23.4439342365536,151.917290973915,8.4,,,10.9528648,0,0.3,1.34092,3.05233,16,5,24.03,10.9528648,8.4,0.81,2.05811,0,0.3,-3.2,86.7, 0, -0.9,0,0,1024,1024,1024,1024,0,0,0,0,0,0,0,100,3.988,3.989,4.007,4.022,3.998,4.026,0,,10.9528648,8.4,14,Waypoint,
8600,2024-11-04 05:58:23,-23.4439340892248,151.917291301411,8.7,,,11.2528648,0,0.3,1.30485,3.08955,16,5,24.03,11.2528648,8.7,0.81,2.05811,0,0.3,-3.2,86.8, -0.6, -0.9,0,0,1024,1024,1024,1024,0,0,0,0,0,0,0,100,3.988,3.989,4.007,4.022,3.998,4.026,0,,11.2528648,8.7,14,Waypoint,
8700,2024-11-04 05:58:23,-23.4439339319095,151.917291560149,9,,,11.5528648,0,0.2,1.27551,3.12121,16,5,24.03,11.5528648,9,0.81,2.05811,0,0.2,-3.3,86.9, -1, -1.3,0,0,1024,1024,1024,1024,0,0,0,0,0,0,0,100,3.988,3.989,4.007,4.022,3.998,4.026,0,,11.5528648,9,14,Waypoint,
8800,2024-11-04 05:58:23,-23.4439337901571,151.917291849136,9.4,,,11.9528648,0,0.2,1.24357,3.15465,16,5,23.75,11.9528648,9.4,0.81,2.05811,0,0.2,-3.3,86.8, -1.3, -1.9,0,0,1024,1024,1024,1024,0,0,0,0,0,0,0,100,3.949,3.951,3.959,3.966,3.961,3.964,0,,11.9528648,9.4,14,Waypoint,
8900,2024-11-04 05:58:23,-23.443933586412,151.917292059681,9.7,,,12.2528648,0,0.2,1.2184,3.18587,16,5,23.75,12.2528648,9.7,0.81,2.05811,0,0.2,-3.3,86.8, -1.3, -2.4,0,0,1024,1024,1024,1024,0,0,0,0,0,0,0,100,3.949,3.951,3.959,3.966,3.961,3.964,0,,12.2528648,9.7,14,Waypoint,
9000,2024-11-04 05:58:23,-23.443933394762,151.91729229251,10,,,12.5528648,0,0.2,1.19147,3.21778,16,5,23.75,12.5528648,10,0.81,2.05811,0,0.2,-3.2,86.9, -1.3, -2.5,0,0,1024,1024,1024,1024,0,0,0,0,0,0,0,100,3.949,3.951,3.959,3.966,3.961,3.964,0,,12.5528648,10,14,Waypoint,
9100,2024-11-04 05:58:23,-23.4439330999334,151.917292557475,10.3,,,12.8528648,0,0.22,1.15997,3.26028,16,5,23.75,12.8528648,10.3,0.81,2.05811,0.1,0.2,-3.1,86.9, -1.3, -2.2,0,0,1024,1024,1024,1024,0,0,0,0,0,0,0,100,3.949,3.951,3.959,3.966,3.961,3.964,0,,12.8528648,10.3,14,Waypoint,
9200,2024-11-04 05:58:24,-23.4439328534796,151.917292822444,10.6,,,13.1528648,0,0.22,1.12978,3.29877,16,5,23.75,13.1528648,10.6,0.81,2.05811,0.1,0.2,-3,87, -1.4, -1.9,0,0,1024,1024,1024,1024,0,0,0,0,0,0,0,100,3.949,3.951,3.959,3.966,3.961,3.964,0,,13.1528648,10.6,14,Waypoint,
9300,2024-11-04 05:58:24,-23.4439325061069,151.917293135949,10.9,,,13.4528648,0,0.22,1.09422,3.34893,16,5,23.75,13.4528648,10.9,0.81,2.05811,0.1,0.2,-2.8,87, -1.5, -1.5,0,0,1024,1024,1024,1024,0,0,0,0,0,0,0,100,3.949,3.951,3.959,3.966,3.961,3.964,0,,13.4528648,10.9,14,Waypoint,
9400,2024-11-04 05:58:24,-23.4439322198652,151.917293410835,11.2,,,13.7528648,0,0.22,1.06411,3.39135,16,5,23.75,13.7528648,11.2,0.81,2.05811,0.1,0.2,-2.6,87, -1.3, -0.9,0,0,1024,1024,1024,1024,0,0,0,0,0,0,0,100,3.949,3.951,3.959,3.966,3.961,3.964,0,,13.7528648,11.2,14,Waypoint,
9500,2024-11-04 05:58:24,-23.4439318810253,151.9172937329,11.4,,,13.9528648,0,0.22,1.02993,3.44135,16,5,23.75,13.9528648,11.4,0.81,2.05811,0.1,0.2,-2.6,86.9, -1, -0.2,0,0,1024,1024,1024,1024,0,0,0,0,0,0,0,100,3.949,3.951,3.959,3.966,3.961,3.964,0,,13.9528648,11.4,14,Waypoint,
9600,2024-11-04 05:58:24,-23.4439316086547,151.917294004568,11.7,,,14.2528648,0,0.22,1.00211,3.4824,16,5,23.75,14.2528648,11.7,0.81,2.05811,0.1,0.2,-2.4,86.9, -0.6, 0.1,0,0,1024,1024,1024,1024,0,0,0,0,0,0,0,100,3.949,3.951,3.959,3.966,3.961,3.964,0,,14.2528648,11.7,14,Waypoint,
9700,2024-11-04 05:58:24,-23.4439313297302,151.917294331197,11.9,,,14.4528648,0,0.22,0.969663,3.52793,16,5,23.764,14.4528648,11.9,0.81,2.05811,0.1,0.2,-2.3,86.8, -0.1, 0.3,0,0,1024,1024,1024,1024,0,0,0,0,0,0,0,100,3.95,3.956,3.953,3.966,3.961,3.978,0,,14.4528648,11.9,14,Waypoint,
9800,2024-11-04 05:58:24,-23.4439311148202,151.917294585313,12.2,,,14.7528648,0,0.14,0.945146,3.56319,16,5,23.764,14.7528648,12.2,0.81,2.05811,0.1,0.1,-2.1,86.8, 0.4, 0.4,0,0,1024,1024,1024,1024,0,0,0,0,0,0,0,100,3.95,3.956,3.953,3.966,3.961,3.978,0,,14.7528648,12.2,14,Waypoint,
9900,2024-11-04 05:58:24,-23.4439308517263,151.917294953967,12.4,,,14.9528648,0,0.14,0.910247,3.61084,16,5,23.764,14.9528648,12.4,0.81,2.05811,0.1,0.1,-2,86.8, 1.2, 0.3,0,0,1024,1024,1024,1024,0,0,0,0,0,0,0,100,3.95,3.956,3.953,3.966,3.961,3.978,0,,14.9528648,12.4,14,Waypoint,
10000,2024-11-04 05:58:24,-23.4439306637733,151.917295200429,12.6,,,15.1528648,0,0.14,0.887753,3.64354,16,5,23.764,15.1528648,12.6,0.81,2.05811,0.1,0.1,-1.9,86.8, 2, 0.3,0,0,1024,1024,1024,1024,0,0,0,0,0,0,0,100,3.95,3.956,3.953,3.966,3.961,3.978,0,,15.1528648,12.6,14,Waypoint,
10100,2024-11-04 05:58:24,-23.4439304585507,151.917295394888,12.8,,,15.3528648,0,0.1,0.871454,3.67378,16,5,23.764,15.3528648,12.8,0.81,2.05811,0.1,0,-1.7,86.8, 2.5, 0.4,0,0,1024,1024,1024,1024,0,0,0,0,0,0,0,100,3.95,3.956,3.953,3.966,3.961,3.978,0,,15.3528648,12.8,14,Waypoint,
10200,2024-11-04 05:58:25,-23.4439303241048,151.917295437494,12.9,,,15.4528648,0,0,0.869696,3.68935,16,5,23.764,15.4528648,12.9,0.81,2.05811,0,0,-1.7,86.9, 2.5, 0.7,0,0,1024,1024,1024,1024,0,0,0,0,0,0,0,98,3.95,3.956,3.953,3.966,3.961,3.978,0,,15.4528648,12.9,14,Waypoint,
10300,2024-11-04 05:58:25,-23.4439302064216,151.917295356416,13.1,,,15.6528648,0,0.1,0.880236,3.70484,16,5,23.764,15.6528648,13.1,0.81,2.05811,0,-0.1,-1.5,86.9, 2.3, 0.8,0,0,1024,1024,1024,1024,0,0,0,0,0,0,0,98,3.95,3.956,3.953,3.966,3.961,3.978,0,,15.6528648,13.1,14,Waypoint,
10400,2024-11-04 05:58:25,-23.4439301512768,151.917295179035,13.2,,,15.7528648,0,0.2,0.899174,3.72394,16,5,23.764,15.7528648,13.2,0.81,2.05811,0,-0.2,-1.5,86.9, 1.8, 0.9,0,0,1024,1024,1024,1024,0,0,0,0,0,0,0,98,3.95,3.956,3.953,3.966,3.961,3.978,0,,15.7528648,13.2,14,Waypoint,
10500,2024-11-04 05:58:25,-23.4439300632871,151.91729486458,13.4,,,15.9528648,0,0.2,0.932549,3.75749,16,5,23.764,15.9528648,13.4,0.81,2.05811,0,-0.2,-1.5,86.9, 1.1, 0.9,0,0,1024,1024,1024,1024,0,0,0,0,0,0,0,98,3.95,3.956,3.953,3.966,3.961,3.978,0,,15.9528648,13.4,14,Waypoint,
10600,2024-11-04 05:58:25,-23.4439300524441,151.917294513763,13.5,,,16.0528648,0,0.3,0.967897,3.7933,16,5,23.764,16.0528648,13.5,0.81,2.05811,0,-0.3,-1.4,86.9, 0.1, 0.9,0,0,1024,1024,1024,1024,0,0,0,0,0,0,0,98,3.95,3.956,3.953,3.966,3.961,3.978,0,,16.0528648,13.5,14,Waypoint,
10700,2024-11-04 05:58:25,-23.4439299726452,151.917294036303,13.7,,,16.2528648,0,0.3,1.01741,3.84281,16,5,23.764,16.2528648,13.7,0.81,2.05811,0,-0.3,-1.4,86.9, -1, 1,0,0,1024,1024,1024,1024,0,0,0,0,0,0,0,98,3.95,3.956,3.953,3.966,3.961,3.978,0,,16.2528648,13.7,14,Waypoint,
10800,2024-11-04 05:58:25,-23.4439300009276,151.917293565336,13.8,,,16.3528648,0,0.3,1.06405,3.89097,16,5,23.764,16.3528648,13.8,0.81,2.05811,0,-0.3,-1.3,86.9, -2.2, 1,0,0,1024,1024,1024,1024,0,0,0,0,0,0,0,98,3.95,3.956,3.953,3.966,3.961,3.978,0,,16.3528648,13.8,14,Waypoint,
10900,2024-11-04 05:58:25,-23.4439299804695,151.91729310316,14,,,16.5528648,0,0.32,1.11087,3.93818,16,5,23.764,16.5528648,14,0.81,2.05811,-0.1,-0.3,-1.2,86.8, -3, 0.9,0,0,1024,1024,1024,1024,0,0,0,0,0,0,0,98,3.95,3.956,3.953,3.966,3.961,3.978,0,,16.5528648,14,14,Waypoint,
11000,2024-11-04 05:58:25,-23.4439300559621,151.917292637675,14.1,,,16.6528648,0,0.32,1.1563,3.9864,16,5,23.764,16.6528648,14.1,0.81,2.05811,-0.1,-0.3,-1.2,86.8, -3.7, 0.7,0,0,1024,1024,1024,1024,0,0,0,0,0,0,0,98,3.95,3.956,3.953,3.966,3.961,3.978,0,,16.6528648,14.1,14,Waypoint,
11100,2024-11-04 05:58:25,-23.4439299848111,151.917292255161,14.2,,,16.7528648,0,0.32,1.19609,4.02622,16,5,23.764,16.7528648,14.2,0.81,2.05811,-0.1,-0.3,-1.1,86.8, -4.4, 0.5,0,0,1024,1024,1024,1024,0,0,0,0,0,0,0,98,3.95,3.956,3.953,3.966,3.961,3.978,0,,16.7528648,14.2,14,Waypoint,
11200,2024-11-04 05:58:26,-23.4439300283757,151.917291888265,14.3,,,16.8528648,0,0.32,1.2323,4.06397,16,5,23.764,16.8528648,14.3,0.81,2.05811,-0.1,-0.3,-1,86.8, -4.8, 0.5,0,0,1024,1024,1024,1024,0,0,0,0,0,0,0,98,3.95,3.956,3.953,3.966,3.961,3.978,0,,16.8528648,14.3,14,Waypoint,
11300,2024-11-04 05:58:26,-23.4439299736999,151.917291598083,14.4,,,16.9528648,0,0.22,1.26249,4.09419,16,5,23.764,16.9528648,14.4,0.81,2.05811,-0.1,-0.2,-0.9,86.9, -4.9, 0.4,0,0,1024,1024,1024,1024,0,0,0,0,0,0,0,98,3.95,3.956,3.953,3.966,3.961,3.978,0,,16.9528648,14.4,14,Waypoint,
11400,2024-11-04 05:58:26,-23.4439300367229,151.917291276421,14.5,,,17.0528648,0,0.32,1.2939,4.12775,16,5,23.764,17.0528648,14.5,0.81,2.05811,-0.1,-0.3,-0.7,87.1, -5.1, -0.5,0,0,1024,1024,1024,1024,0,0,0,0,0,0,0,98,3.95,3.956,3.953,3.966,3.961,3.978,0,,17.0528648,14.5,14,Waypoint,
11500,2024-11-04 05:58:26,-23.4439299521492,151.917291133893,14.6,,,17.1528648,0,0.22,1.30967,4.14507,16,5,23.764,17.1528648,14.6,0.81,2.05811,-0.1,-0.2,-0.4,87.2, -7.1, -2,0,0,1024,1024,1024,1024,0,0,0,0,0,0,0,98,3.95,3.956,3.953,3.966,3.961,3.978,0,,17.1528648,14.6,14,Waypoint,
11600,2024-11-04 05:58:26,-23.4439300041131,151.917290953649,14.6,,,17.1528648,0,0.14,1.32701,4.16435,16,5,23.764,17.1528648,14.6,0.81,2.05811,-0.1,-0.1,-0.2,87.2, -9.4, -2.9,0,0,1024,1024,1024,1024,0,0,0,0,0,0,0,98,3.95,3.956,3.953,3.966,3.961,3.978,0,,17.1528648,14.6,14,Waypoint,
11700,2024-11-04 05:58:26,-23.4439298684264,151.917290999489,14.6,,,17.1528648,0,0.1,1.32464,4.18014,16,5,23.764,17.1528648,14.6,0.81,2.05811,-0.1,0,-0.1,87.3, -11.7, -3.1,0,0,1024,1024,1024,1024,0,0,0,0,0,0,0,98,3.95,3.956,3.953,3.966,3.961,3.978,0,,17.1528648,14.6,14,Waypoint,
11800,2024-11-04 05:58:26,-23.4439298413794,151.91729106382,14.7,,,17.2528648,0,0,1.31863,4.18736,16,5,23.764,17.2528648,14.7,0.81,2.05811,0,0,-0.1,87.3, -13.4, -2.7,0,0,1024,1024,1024,1024,0,0,0,0,0,0,0,98,3.95,3.956,3.953,3.966,3.961,3.978,0,,17.2528648,14.7,14,Waypoint,
11900,2024-11-04 05:58:26,-23.4439296953809,151.917291431174,14.7,,,17.2528648,0,0.2,1.28437,4.22821,16,5,23.764,17.2528648,14.7,0.81,2.05811,0,0.2,0,87.3, -14.5, -2,0,0,1024,1024,1024,1024,0,0,0,0,0,0,0,98,3.95,3.956,3.953,3.966,3.961,3.978,0,,17.2528648,14.7,14,Waypoint,
12000,2024-11-04 05:58:26,-23.4439296361364,151.917291850181,14.7,,,17.2528648,0,0.3,1.24351,4.27146,16,5,23.764,17.2528648,14.7,0.81,2.05811,0,0.3,0,87.2, -15.6, -1.3,0,0,1024,1024,1024,1024,0,0,0,0,0,0,0,98,3.95,3.956,3.953,3.966,3.961,3.978,0,,17.2528648,14.7,14,Waypoint,
12100,2024-11-04 05:58:26,-23.4439294330593,151.917292791299,14.7,,,17.2528648,0,0.5,1.15405,4.3701,15,5,23.764,17.2528648,14.7,0.81,2.05811,0,0.5,0,87.2, -16.4, -0.7,0,0,1024,1024,1024,1024,0,0,0,0,0,0,0,98,3.95,3.956,3.953,3.966,3.961,3.978,0,,17.2528648,14.7,14,Waypoint,
12200,2024-11-04 05:58:27,-23.4439293144524,151.917293741597,14.7,,,17.2528648,0,0.8,1.06292,4.46795,15,5,23.764,17.2528648,14.7,0.81,2.05811,0,0.8,0.1,87.1, -16.9, -0.1,0,0,1024,1024,1024,1024,0,0,0,0,0,0,0,97,3.95,3.956,3.953,3.966,3.961,3.978,0,,17.2528648,14.7,14,Waypoint,
12300,2024-11-04 05:58:27,-23.443929182098,151.917295194137,14.7,,,17.2528648,0,1,0.924596,4.61687,16,5,23.764,17.2528648,14.7,1,2.05811,0,1,0.1,87, -16.6, 0.4,0,0,1024,1024,1024,1024,0,0,0,0,0,0,0,97,3.95,3.956,3.953,3.966,3.961,3.978,0,,17.2528648,14.7,14,Waypoint,
12400,2024-11-04 05:58:27,-23.4439291453525,151.917296679328,14.7,,,17.2528648,0,1.3,0.78311,4.76846,16,5,23.764,17.2528648,14.7,1.3,2.05811,0,1.3,0.1,87, -16.4, 0.6,0,0,1024,1024,1024,1024,0,0,0,0,0,0,0,97,3.95,3.956,3.953,3.966,3.961,3.978,0,,17.2528648,14.7,14,Waypoint,
12500,2024-11-04 05:58:27,-23.4439291649152,151.917298691466,14.7,,,17.2528648,0,1.5,0.595644,4.97376,16,5,23.764,17.2528648,14.7,1.5,2.05811,0,1.5,0,87, -16.4, 0.5,0,0,1024,1024,1024,1024,0,0,0,0,0,0,0,97,3.95,3.956,3.953,3.966,3.961,3.978,0,,17.2528648,14.7,14,Waypoint,
12600,2024-11-04 05:58:27,-23.4439292443774,151.917300708988,14.7,,,17.2528648,0,1.7,0.4202,5.17979,16,5,23.764,17.2528648,14.7,1.7,2.05811,-0.1,1.7,0.1,87.1, -16.3, 0,0,0,1024,1024,1024,1024,0,0,0,0,0,0,0,97,3.95,3.956,3.953,3.966,3.961,3.978,0,,17.2528648,14.7,14,Waypoint,
12700,2024-11-04 05:58:27,-23.4439294373146,151.917303270302,14.7,,,17.2528648,0,2,0.259463,5.44199,16,5,23.764,17.2528648,14.7,2,2.05811,-0.1,2,0.1,87.2, -16.3, -0.4,0,0,1024,1024,1024,1024,0,0,0,0,0,0,0,97,3.95,3.956,3.953,3.966,3.961,3.978,0,,17.2528648,14.7,14,Waypoint,
12800,2024-11-04 05:58:27,-23.4439296264281,151.917305784405,14.7,,,17.2528648,0,2.2,0.306302,5.69935,16,5,23.764,17.2528648,14.7,2.2,2.05811,-0.1,2.2,0.1,87.2, -16.5, -0.7,0,0,1024,1024,1024,1024,0,0,0,0,0,0,0,97,3.95,3.956,3.953,3.966,3.961,3.978,0,,17.2528648,14.7,14,Waypoint,
12900,2024-11-04 05:58:27,-23.443929919093,151.917308771174,14.6,,,17.1528648,0,2.4,0.542587,6.00582,16,5,23.764,17.2528648,14.7,2.4,2.05811,-0.1,2.4,0.2,87.3, -16.6, -1,0,0,1024,1024,1024,1024,0,0,0,0,0,0,0,97,3.95,3.956,3.953,3.966,3.961,3.978,0,,17.1528648,14.6,14,Waypoint,
13000,2024-11-04 05:58:27,-23.4439301776167,151.917311731832,14.6,,,17.1528648,0,2.6,0.824497,6.30924,16,5,24.296,17.2528648,14.7,2.6,2.05811,-0.1,2.6,0.1,87.3, -16.8, -1.2,0,0,1024,1024,1024,1024,0,0,0,0,0,0,0,97,4.048,4.056,4.037,4.05,4.057,4.048,0,,17.1528648,14.6,14,Waypoint,"Aircraft is tilted, please keep the aircraft stationary and level before flight__"
13100,2024-11-04 05:58:27,-23.4439305253658,151.917315139729,14.6,,,17.1528648,0,2.91,1.16184,6.65908,16,5,24.296,17.2528648,14.7,2.91,2.05811,-0.2,2.9,0.2,87.3, -17.4, -1.5,0,0,1024,1024,1024,1024,0,0,0,0,0,0,0,97,4.048,4.056,4.037,4.05,4.057,4.048,0,,17.1528648,14.6,14,Waypoint,
13200,2024-11-04 05:58:28,-23.4439308198498,151.917318595602,14.6,,,17.1528648,0,3.11,1.51016,7.01319,16,5,24.296,17.2528648,14.7,3.11,2.05811,-0.2,3.1,0.1,87.3, -17.5, -1.7,0,0,1024,1024,1024,1024,0,0,0,0,0,0,0,97,4.048,4.056,4.037,4.05,4.057,4.048,0,,17.1528648,14.6,14,Waypoint,
13400,2024-11-04 05:58:28,-23.4439315816327,151.917326465265,14.5,,,17.0528648,0,3.61,2.30984,7.82056,16,5,24.296,17.2528648,14.7,3.61,2.30984,-0.2,3.6,0,87.3, -16.9, -1.8,0,0,1024,1024,1024,1024,0,0,0,0,0,0,0,97,4.048,4.056,4.037,4.05,4.057,4.048,0,,17.0528648,14.5,14,Waypoint,
13500,2024-11-04 05:58:28,-23.4439320205771,151.917330827947,14.5,,,17.0528648,0,3.81,2.75511,8.26833,16,5,24.296,17.2528648,14.7,3.81,2.75511,-0.2,3.8,0,87.3, -16.8, -2,0,0,1024,1024,1024,1024,0,0,0,0,0,0,0,97,4.048,4.056,4.037,4.05,4.057,4.048,0,,17.0528648,14.5,14,Waypoint,
13600,2024-11-04 05:58:28,-23.4439323815837,151.917335181603,14.5,,,17.0528648,0,4,3.19994,8.71433,16,5,24.296,17.2528648,14.7,4,3.19994,-0.2,4,0,87.4, -16.7, -2.1,0,0,1024,1024,1024,1024,0,0,0,0,0,0,0,97,4.048,4.056,4.037,4.05,4.057,4.048,0,,17.0528648,14.5,14,Waypoint,
13700,2024-11-04 05:58:28,-23.4439328621103,151.917340035147,14.5,,,17.0528648,0,4.2,3.69648,9.21239,16,5,24.296,17.2528648,14.7,4.2,3.69648,-0.2,4.2,0,87.4, -17, -2.3,0,0,1024,1024,1024,1024,0,0,0,0,0,0,0,97,4.048,4.056,4.037,4.05,4.057,4.048,0,,17.0528648,14.5,14,Waypoint,
13800,2024-11-04 05:58:28,-23.4439332493138,151.917344831297,14.5,,,17.0528648,0,4.4,4.18709,9.70361,16,5,24.296,17.2528648,14.7,4.4,4.18709,-0.2,4.4,0,87.5, -17.3, -2.8,0,0,1024,1024,1024,1024,0,0,0,0,0,0,0,97,4.048,4.056,4.037,4.05,4.057,4.048,0,,17.0528648,14.5,14,Waypoint,
13900,2024-11-04 05:58:28,-23.4439337379378,151.917349939423,14.5,,,17.0528648,0,4.6,4.71015,10.2276,16,5,24.296,17.2528648,14.7,4.6,4.71015,-0.2,4.6,0.1,87.6, -17.6, -3.1,0,0,1024,1024,1024,1024,0,0,0,0,0,0,0,97,4.048,4.056,4.037,4.05,4.057,4.048,0,,17.0528648,14.5,14,Waypoint,
14000,2024-11-04 05:58:28,-23.4439341340105,151.91735505883,14.5,,,17.0528648,0,4.8,5.234,10.7518,16,5,24.296,17.2528648,14.7,4.8,5.234,-0.2,4.8,0,87.6, -17.8, -3.4,0,0,1024,1024,1024,1024,0,0,0,0,0,0,0,97,4.048,4.056,4.037,4.05,4.057,4.048,0,,17.0528648,14.5,14,Waypoint,
14100,2024-11-04 05:58:28,-23.4439345953005,151.917360484219,14.4,,,16.9528648,0,5,5.78948,11.3077,15,5,24.296,17.2528648,14.7,5,5.78948,-0.2,5,0,87.6, -18.1, -3.7,0,0,1024,1024,1024,1024,0,0,0,0,0,0,0,97,4.048,4.056,4.037,4.05,4.057,4.048,0,,16.9528648,14.4,14,Waypoint,
14200,2024-11-04 05:58:29,-23.4439349524119,151.917365956824,14.4,,,16.9528648,0,5.3,6.34918,11.8674,15,5,24.296,17.2528648,14.7,5.3,6.34918,-0.2,5.3,0,87.6, -18.7, -3.9,0,0,1024,1024,1024,1024,0,0,0,0,0,0,0,97,4.048,4.056,4.037,4.05,4.057,4.048,0,,16.9528648,14.4,14,Waypoint,
14300,2024-11-04 05:58:29,-23.443935430143,151.917372022126,14.4,,,16.9528648,0,5.5,6.97004,12.4885,16,5,24.296,17.2528648,14.7,5.5,6.97004,-0.2,5.5,0,87.6, -19.2, -4.3,0,0,1024,1024,1024,1024,0,0,0,0,0,0,0,97,4.048,4.056,4.037,4.05,4.057,4.048,0,,16.9528648,14.4,14,Waypoint,
14400,2024-11-04 05:58:29,-23.4439357962201,151.917378063802,14.4,,,16.9528648,0,5.8,7.58778,13.1063,16,5,24.296,17.2528648,14.7,5.8,7.58778,-0.2,5.8,0.1,87.6, -19.3, -4.7,0,0,1024,1024,1024,1024,0,0,0,0,0,0,0,97,4.048,4.056,4.037,4.05,4.057,4.048,0,,16.9528648,14.4,14,Waypoint,
14500,2024-11-04 05:58:29,-23.4439360997507,151.917384775949,14.4,,,16.9528648,0,6,8.27339,13.7919,16,5,24.296,17.2528648,14.7,6,8.27339,-0.1,6,0,87.7, -19, -4.9,0,0,1024,1024,1024,1024,0,0,0,0,0,0,0,97,4.048,4.056,4.037,4.05,4.057,4.048,0,,16.9528648,14.4,14,Waypoint,
14600,2024-11-04 05:58:29,-23.4439363156701,151.917391385595,14.4,,,16.9528648,0,6.3,8.948,14.4667,16,5,24.296,17.2528648,14.7,6.3,8.948,-0.1,6.3,0,87.7, -18.5, -4.9,0,0,1024,1024,1024,1024,0,0,0,0,0,0,0,97,4.048,4.056,4.037,4.05,4.057,4.048,0,,16.9528648,14.4,14,Waypoint,
14700,2024-11-04 05:58:29,-23.4439365000792,151.917398634238,14.3,,,16.8528648,0,6.5,9.68753,15.2065,16,5,24.296,17.2528648,14.7,6.5,9.68753,-0.1,6.5,0,87.6, -17.7, -4.6,0,0,1024,1024,1024,1024,0,0,0,0,0,0,0,97,4.048,4.056,4.037,4.05,4.057,4.048,0,,16.8528648,14.3,14,Waypoint,
14800,2024-11-04 05:58:29,-23.4439366275587,151.917405718497,14.3,,,16.8528648,0,6.6,10.41,15.9295,16,5,24.122,17.2528648,14.7,6.6,10.41,0,6.6,0,87.6, -17.3, -4.2,0,0,1024,1024,1024,1024,0,0,0,0,0,0,0,97,4.003,4.02,4.03,4.006,4.018,4.045,0,,16.8528648,14.3,14,Waypoint,
14900,2024-11-04 05:58:29,-23.4439367596357,151.917413409707,14.3,,,16.8528648,0,6.9,11.1945,16.7143,16,5,24.122,17.2528648,14.7,6.9,11.1945,0,6.9,0,87.6, -17.2, -4.1,0,0,1024,1024,1024,1024,0,0,0,0,0,0,0,97,4.003,4.02,4.03,4.006,4.018,4.045,0,,16.8528648,14.3,14,Waypoint,
15000,2024-11-04 05:58:29,-23.4439368564112,151.917420915747,14.3,,,16.8528648,0,7.1,11.9599,17.4802,16,5,24.122,17.2528648,14.7,7.1,11.9599,0,7.1,0,87.6, -17.4, -4.2,0,0,1024,1024,1024,1024,0,0,0,0,0,0,0,97,4.003,4.02,4.03,4.006,4.018,4.045,0,,16.8528648,14.3,14,Waypoint,
15100,2024-11-04 05:58:29,-23.4439369319625,151.917428948432,14.3,,,16.8528648,0,7.2,12.7789,18.2998,16,5,24.122,17.2528648,14.7,7.2,12.7789,0,7.2,0,87.7, -17.4, -4.2,0,0,1024,1024,1024,1024,0,0,0,0,0,0,0,97,4.003,4.02,4.03,4.006,4.018,4.045,0,,16.8528648,14.3,14,Waypoint,
15200,2024-11-04 05:58:30,-23.4439369832446,151.917436795331,14.3,,,16.8528648,0,7.4,13.579,19.1004,16,5,24.122,17.2528648,14.7,7.4,13.579,0,7.4,0,87.7, -17.3, -4,0,0,1024,1024,1024,1024,0,0,0,0,0,0,0,97,4.003,4.02,4.03,4.006,4.018,4.045,0,,16.8528648,14.3,14,Waypoint,
15300,2024-11-04 05:58:30,-23.4439371098321,151.917445120243,14.2,,,16.7528648,0,7.6,14.4282,19.9499,16,5,24.122,17.2528648,14.7,7.6,14.4282,0,7.6,0,87.7, -17.4, -3.7,0,0,1024,1024,1024,1024,0,0,0,0,0,0,0,97,4.003,4.02,4.03,4.006,4.018,4.045,0,,16.7528648,14.2,14,Waypoint,
15400,2024-11-04 05:58:30,-23.4439372026123,151.917453280847,14.2,,,16.7528648,0,7.8,15.2605,20.7825,16,5,24.122,17.2528648,14.7,7.8,15.2605,0,7.8,0,87.6, -17.4, -3.7,0,0,1024,1024,1024,1024,0,0,0,0,0,0,0,97,4.003,4.02,4.03,4.006,4.018,4.045,0,,16.7528648,14.2,14,Waypoint,
15500,2024-11-04 05:58:30,-23.4439372714328,151.917461847488,14.2,,,16.7528648,0,7.9,16.1341,21.6566,16,5,24.122,17.2528648,14.7,7.9,16.1341,0,7.9,0,87.6, -16.9, -3.7,0,0,1024,1024,1024,1024,0,0,0,0,0,0,0,97,4.003,4.02,4.03,4.006,4.018,4.045,0,,16.7528648,14.2,14,Waypoint,
15600,2024-11-04 05:58:30,-23.4439373198135,151.917470279253,14.2,,,16.7528648,0,8.1,16.994,22.5168,16,5,24.122,17.2528648,14.7,8.1,16.994,0,8.1,-0.1,87.6, -15.7, -4,0,0,1024,1024,1024,1024,0,0,0,0,0,0,0,97,4.003,4.02,4.03,4.006,4.018,4.045,0,,16.7528648,14.2,14,Waypoint,
15700,2024-11-04 05:58:30,-23.4439373571846,151.917479257953,14.2,,,16.7528648,0,8.1,17.9096,23.4329,16,5,24.122,17.2528648,14.7,8.1,17.9096,0,8.1,0,87.5, -14.2, -4.2,0,0,1024,1024,1024,1024,0,0,0,0,0,0,0,97,4.003,4.02,4.03,4.006,4.018,4.045,0,,16.7528648,14.2,14,Waypoint,
15800,2024-11-04 05:58:30,-23.443937392839,151.917487960516,14.2,,,16.7528648,0,8.3,18.7971,24.3208,16,5,24.122,17.2528648,14.7,8.3,18.7971,0,8.3,-0.1,87.5, -12.6, -4.7,0,0,1024,1024,1024,1024,0,0,0,0,0,0,0,97,4.003,4.02,4.03,4.006,4.018,4.045,0,,16.7528648,14.2,14,Waypoint,
15900,2024-11-04 05:58:30,-23.4439373932013,151.917496712456,14.1,,,16.6528648,0,8.3,19.6896,25.2137,16,5,24.122,17.2528648,14.7,8.3,19.6896,0,8.3,0,87.5, -11.3, -4.9,0,0,1024,1024,1024,1024,0,0,0,0,0,0,0,97,4.003,4.02,4.03,4.006,4.018,4.045,0,,16.6528648,14.1,14,Waypoint,
16000,2024-11-04 05:58:30,-23.4439373535524,151.917505297119,14.1,,,16.6528648,0,8.3,20.5649,26.0896,16,5,24.122,17.2528648,14.7,8.3,20.5649,0,8.3,0,87.5, -10.1, -4.7,0,0,1024,1024,1024,1024,0,0,0,0,0,0,0,97,4.003,4.02,4.03,4.006,4.018,4.045,0,,16.6528648,14.1,14,Waypoint,
16100,2024-11-04 05:58:31,-23.4439372096932,151.917514114798,14.1,,,16.6528648,0,8.4,21.4636,26.9894,16,5,24.122,17.2528648,14.7,8.4,21.4636,0,8.4,0,87.4, -9.4, -4.6,0,0,1024,1024,1024,1024,0,0,0,0,0,0,0,97,4.003,4.02,4.03,4.006,4.018,4.045,0,,16.6528648,14.1,14,Waypoint,
16200,2024-11-04 05:58:31,-23.4439371039868,151.917522758327,14,,,16.5528648,0,8.3,22.3448,27.8713,16,5,24.122,17.2528648,14.7,8.4,22.3448,0,8.3,0,87.3, -9, -4.5,0,0,1024,1024,1024,1024,0,0,0,0,0,0,0,97,4.003,4.02,4.03,4.006,4.018,4.045,0,,16.5528648,14,14,Waypoint,
16300,2024-11-04 05:58:31,-23.4439369007037,151.917531939976,13.9,,,16.4528648,0,8.3,23.2807,28.8084,16,5,24.122,17.2528648,14.7,8.4,23.2807,0,8.3,0,87.3, -8.3, -4,0,0,1024,1024,1024,1024,0,0,0,0,0,0,0,97,4.003,4.02,4.03,4.006,4.018,4.045,0,,16.4528648,13.9,14,Waypoint,
16400,2024-11-04 05:58:31,-23.4439367673243,151.917540713468,13.9,,,16.4528648,0,8.3,24.1752,29.7036,16,5,24.122,17.2528648,14.7,8.4,24.1752,0,8.3,0,87.3, -7.3, -3.7,0,0,1024,1024,1024,1024,0,0,0,0,0,0,0,97,4.003,4.02,4.03,4.006,4.018,4.045,0,,16.4528648,13.9,14,Waypoint,
16500,2024-11-04 05:58:31,-23.4439365248995,151.917548994521,13.9,,,16.4528648,0,8.2,25.0193,30.5489,16,5,24.122,17.2528648,14.7,8.4,25.0193,0,8.2,-0.1,87.2, -6.8, -3.5,0,0,1024,1024,1024,1024,0,0,0,0,0,0,0,97,4.003,4.02,4.03,4.006,4.018,4.045,0,,16.4528648,13.9,14,Waypoint,
16600,2024-11-04 05:58:31,-23.4439363437461,151.917557193811,13.9,,,16.4528648,0,8.2,25.8552,31.3857,16,5,24.122,17.2528648,14.7,8.4,25.8552,0,8.2,-0.2,87.2, -7.1, -3,0,0,1024,1024,1024,1024,0,0,0,0,0,0,0,97,4.003,4.02,4.03,4.006,4.018,4.045,0,,16.4528648,13.9,14,Waypoint,
16700,2024-11-04 05:58:31,-23.4439360089637,151.917565854802,13.9,,,16.4528648,0,8.2,26.738,32.2701,16,5,24.122,17.2528648,14.7,8.4,26.738,0.1,8.2,-0.4,87.3, -7.2, -3.1,0,0,1024,1024,1024,1024,0,0,0,0,0,0,0,97,4.003,4.02,4.03,4.006,4.018,4.045,0,,16.4528648,13.9,14,Waypoint,
16800,2024-11-04 05:58:31,-23.4439357566371,151.917574337925,13.9,,,16.4528648,0,8.2,27.6029,33.1361,16,5,23.756,17.2528648,14.7,8.4,27.6029,0.1,8.2,-0.5,87.2, -7.8, -2.9,0,0,1024,1024,1024,1024,0,0,0,0,0,0,0,97,3.949,3.948,3.955,3.972,3.96,3.972,0,,16.4528648,13.9,14,Waypoint,
16900,2024-11-04 05:58:31,-23.4439353315267,151.917583010363,13.9,,,16.4528648,0,8.2,28.4869,34.0222,16,5,23.756,17.2528648,14.7,8.4,28.4869,0.1,8.2,-0.4,87.3, -8.3, -3,0,0,1024,1024,1024,1024,0,0,0,0,0,0,0,97,3.949,3.948,3.955,3.972,3.96,3.972,0,,16.4528648,13.9,14,Waypoint,
17000,2024-11-04 05:58:31,-23.4439350455937,151.917591455145,14,,,16.5528648,0,8.2,29.348,34.8843,16,5,23.756,17.2528648,14.7,8.4,29.348,0.1,8.2,-0.5,87.2, -8.1, -2.8,0,0,1024,1024,1024,1024,0,0,0,0,0,0,0,97,3.949,3.948,3.955,3.972,3.96,3.972,0,,16.5528648,14,14,Waypoint,
17100,2024-11-04 05:58:31,-23.4439345964149,151.917599982997,14,,,16.5528648,0,8.2,30.2174,35.7558,16,5,23.756,17.2528648,14.7,8.4,30.2174,0.1,8.2,-0.5,87.2, -7.7, -2.8,0,0,1024,1024,1024,1024,0,0,0,0,0,0,0,97,3.949,3.948,3.955,3.972,3.96,3.972,0,,16.5528648,14,14,Waypoint,
17200,2024-11-04 05:58:32,-23.443934278401,151.917608314511,14,,,16.5528648,0,8.2,31.0671,36.6066,16,5,23.756,17.2528648,14.7,8.4,31.0671,0.1,8.2,-0.5,87.2, -7.1, -2.8,0,0,1024,1024,1024,1024,0,0,0,0,0,0,0,97,3.949,3.948,3.955,3.972,3.96,3.972,0,,16.5528648,14,14,Waypoint,
17300,2024-11-04 05:58:32,-23.4439338368729,151.91761637519,14.1,,,16.6528648,0,8.2,31.889,37.4305,16,5,23.756,17.2528648,14.7,8.4,31.889,0.1,8.2,-0.4,87.1, -6.4, -2.3,0,0,1024,1024,1024,1024,0,0,0,0,0,0,0,97,3.949,3.948,3.955,3.972,3.96,3.972,0,,16.6528648,14.1,14,Waypoint,
17400,2024-11-04 05:58:32,-23.4439335282526,151.917624353361,14.1,,,16.6528648,0,8.1,32.7027,38.2452,16,5,23.756,17.2528648,14.7,8.4,32.7027,0.1,8.1,-0.5,87.1, -5.8, -1.9,0,0,1024,1024,1024,1024,0,0,0,0,0,0,0,97,3.949,3.948,3.955,3.972,3.96,3.972,0,,16.6528648,14.1,14,Waypoint,
17500,2024-11-04 05:58:32,-23.4439330304665,151.91763290409,14.1,,,16.6528648,0,8.1,33.5748,39.1193,16,5,23.756,17.2528648,14.7,8.4,33.5748,0.1,8.1,-0.5,87.1, -5.8, -1.5,0,0,1024,1024,1024,1024,0,0,0,0,0,0,0,97,3.949,3.948,3.955,3.972,3.96,3.972,0,,16.6528648,14.1,14,Waypoint,
17600,2024-11-04 05:58:32,-23.443932725328,151.917641154253,14.2,,,16.7528648,0,8,34.4164,39.9617,16,5,23.756,17.2528648,14.7,8.4,34.4164,0.1,8,-0.5,87.1, -6.1, -1.2,0,0,1024,1024,1024,1024,0,0,0,0,0,0,0,97,3.949,3.948,3.955,3.972,3.96,3.972,0,,16.7528648,14.2,14,Waypoint,
17700,2024-11-04 05:58:32,-23.4439323126076,151.917649452786,14.2,,,16.7528648,0,7.9,35.263,40.8096,16,5,23.756,17.2528648,14.7,8.4,35.263,0.1,7.9,-0.4,87.1, -6.2, -1.1,0,0,1024,1024,1024,1024,0,0,0,0,0,0,0,97,3.949,3.948,3.955,3.972,3.96,3.972,0,,16.7528648,14.2,14,Waypoint,
17800,2024-11-04 05:58:32,-23.4439320625837,151.917657471146,14.3,,,16.8528648,0,7.9,36.081,41.6282,16,5,23.796,17.2528648,14.7,8.4,36.081,0,7.9,-0.4,87.1, -6.2, -0.9,0,0,1024,1024,1024,1024,0,0,0,0,0,0,0,97,3.957,3.962,3.961,3.976,3.972,3.968,0,,16.8528648,14.3,14,Waypoint,
17900,2024-11-04 05:58:32,-23.4439317007271,151.917665460261,14.3,,,16.8528648,0,7.8,36.8961,42.4443,16,5,23.796,17.2528648,14.7,8.4,36.8961,0,7.8,-0.4,87.1, -6.6, -0.9,0,0,1024,1024,1024,1024,0,0,0,0,0,0,0,97,3.957,3.962,3.961,3.976,3.972,3.968,0,,16.8528648,14.3,14,Waypoint,
18000,2024-11-04 05:58:32,-23.4439315014577,151.917673274235,14.3,,,16.8528648,0,7.8,37.6933,43.2418,16,5,23.796,17.2528648,14.7,8.4,37.6933,0,7.8,-0.4,87.1, -6.9, -1,0,0,1024,1024,1024,1024,0,0,0,0,0,0,0,97,3.957,3.962,3.961,3.976,3.972,3.968,0,,16.8528648,14.3,14,Waypoint,
18100,2024-11-04 05:58:32,-23.4439312187272,151.917681116147,14.4,,,16.9528648,0,7.7,38.4934,44.0425,16,5,23.796,17.2528648,14.7,8.4,38.4934,0,7.7,-0.3,87.1, -7.3, -1.2,0,0,1024,1024,1024,1024,0,0,0,0,0,0,0,97,3.957,3.962,3.961,3.976,3.972,3.968,0,,16.9528648,14.4,14,Waypoint,
18200,2024-11-04 05:58:33,-23.4439310938147,151.917688791212,14.4,,,16.9528648,0,7.7,39.2765,44.8257,16,5,23.796,17.2528648,14.7,8.4,39.2765,0,7.7,-0.4,87.1, -7.7, -1.1,0,0,1024,1024,1024,1024,0,0,0,0,0,0,0,97,3.957,3.962,3.961,3.976,3.972,3.968,0,,16.9528648,14.4,14,Waypoint,
18300,2024-11-04 05:58:33,-23.4439308984052,151.917696538476,14.5,,,17.0528648,0,7.6,40.067,45.6164,16,5,23.796,17.2528648,14.7,8.4,40.067,0,7.6,-0.3,87.1, -8, -1.1,0,0,1024,1024,1024,1024,0,0,0,0,0,0,0,97,3.957,3.962,3.961,3.976,3.972,3.968,0,,17.0528648,14.5,14,Waypoint,
18400,2024-11-04 05:58:33,-23.4439308326411,151.917704149072,14.5,,,17.0528648,0,7.6,40.8435,46.3929,16,5,23.796,17.2528648,14.7,8.4,40.8435,0,7.6,-0.3,87.1, -8.3, -1,0,0,1024,1024,1024,1024,0,0,0,0,0,0,0,97,3.957,3.962,3.961,3.976,3.972,3.968,0,,17.0528648,14.5,14,Waypoint,
18500,2024-11-04 05:58:33,-23.4439306426381,151.917711818385,14.5,,,17.0528648,0,7.6,41.626,47.1757,16,5,23.796,17.2528648,14.7,8.4,41.626,0,7.6,-0.2,87.1, -8.5, -1,0,0,1024,1024,1024,1024,0,0,0,0,0,0,0,97,3.957,3.962,3.961,3.976,3.972,3.968,0,,17.0528648,14.5,14,Waypoint,
18600,2024-11-04 05:58:33,-23.4439305842133,151.917719363354,14.5,,,17.0528648,0,7.6,42.3958,47.9455,16,5,23.796,17.2528648,14.7,8.4,42.3958,0,7.6,-0.2,87.1, -8.2, -0.9,0,0,1024,1024,1024,1024,0,0,0,0,0,0,0,97,3.957,3.962,3.961,3.976,3.972,3.968,0,,17.0528648,14.5,14,Waypoint,
18700,2024-11-04 05:58:33,-23.4439303855529,151.917727264469,14.5,,,17.0528648,0,7.6,43.202,48.7519,16,5,23.796,17.2528648,14.7,8.4,43.202,0,7.6,-0.2,87.1, -8, -0.4,0,0,1024,1024,1024,1024,0,0,0,0,0,0,0,97,3.957,3.962,3.961,3.976,3.972,3.968,0,,17.0528648,14.5,14,Waypoint,
18800,2024-11-04 05:58:33,-23.4439303537671,151.917734952718,14.6,,,17.1528648,0,7.6,43.9864,49.5363,16,5,24.138,17.2528648,14.7,8.4,43.9864,0,7.6,-0.2,87.1, -8.1, -0.3,0,0,1024,1024,1024,1024,0,0,0,0,0,0,0,97,4.011,4.029,4.015,4.024,4.033,4.026,0,,17.1528648,14.6,14,Waypoint,
18900,2024-11-04 05:58:33,-23.4439302118099,151.91774288405,14.6,,,17.1528648,0,7.6,44.7957,50.3457,16,5,24.138,17.2528648,14.7,8.4,44.7957,-0.1,7.6,-0.2,87.1, -8.1, -0.5,0,0,1024,1024,1024,1024,0,0,0,0,0,0,0,97,4.011,4.029,4.015,4.024,4.033,4.026,0,,17.1528648,14.6,14,Waypoint,
19000,2024-11-04 05:58:33,-23.4439302306547,151.917750578351,14.6,,,17.1528648,0,7.6,45.5807,51.1307,16,5,24.138,17.2528648,14.7,8.4,45.5807,-0.1,7.6,-0.2,87, -8.1, -0.8,0,0,1024,1024,1024,1024,0,0,0,0,0,0,0,97,4.011,4.029,4.015,4.024,4.033,4.026,0,,17.1528648,14.6,14,Waypoint,
19100,2024-11-04 05:58:33,-23.4439301495272,151.917758174118,14.6,,,17.1528648,0,7.5,46.3557,51.9057,16,5,24.138,17.2528648,14.7,8.4,46.3557,-0.2,7.5,-0.2,87.1, -7.5, -0.9,0,0,1024,1024,1024,1024,0,0,0,0,0,0,0,97,4.011,4.029,4.015,4.024,4.033,4.026,0,,17.1528648,14.6,14,Waypoint,
19200,2024-11-04 05:58:33,-23.4439302237786,151.917765658728,14.6,,,17.1528648,0,7.5,47.1192,52.6694,16,5,24.138,17.2528648,14.7,8.4,47.1192,-0.2,7.5,-0.3,87.1, -5.8, -1.3,0,0,1024,1024,1024,1024,0,0,0,0,0,0,0,97,4.011,4.029,4.015,4.024,4.033,4.026,0,,17.1528648,14.6,14,Waypoint,
19300,2024-11-04 05:58:34,-23.4439302084268,151.917773236119,14.7,,,17.2528648,0,7.5,47.8923,53.4425,16,5,24.138,17.2528648,14.7,8.4,47.8923,-0.2,7.5,-0.2,87.1, -3.7, -1.8,0,0,1024,1024,1024,1024,0,0,0,0,0,0,0,97,4.011,4.029,4.015,4.024,4.033,4.026,0,,17.2528648,14.7,14,Waypoint,
19400,2024-11-04 05:58:34,-23.4439303240877,151.917780631235,14.7,,,17.2528648,0,7.4,48.6468,54.1971,16,5,24.138,17.2528648,14.7,8.4,48.6468,-0.2,7.4,-0.2,87.1, -1.7, -2.2,0,0,1024,1024,1024,1024,0,0,0,0,0,0,0,97,4.011,4.029,4.015,4.024,4.033,4.026,0,,17.2528648,14.7,14,Waypoint,
19500,2024-11-04 05:58:34,-23.443930340972,151.917787990083,14.7,,,17.2528648,0,7.3,49.3976,54.9479,16,5,24.138,17.2528648,14.7,8.4,49.3976,-0.2,7.3,-0.2,87.1, 0, -2.2,0,0,1024,1024,1024,1024,0,0,0,0,0,0,0,97,4.011,4.029,4.015,4.024,4.033,4.026,0,,17.2528648,14.7,14,Waypoint,
19600,2024-11-04 05:58:34,-23.4439304504749,151.917795135207,14.7,,,17.2528648,0,7.1,50.1265,55.677,16,5,24.138,17.2528648,14.7,8.4,50.1265,-0.2,7.1,-0.2,87, 1.7, -2.1,0,0,1024,1024,1024,1024,0,0,0,0,0,0,0,97,4.011,4.029,4.015,4.024,4.033,4.026,0,,17.2528648,14.7,14,Waypoint,
19700,2024-11-04 05:58:34,-23.4439304215108,151.917802193302,14.8,,,17.3528648,0,6.9,50.8466,56.3971,16,5,24.138,17.3528648,14.8,8.4,50.8466,-0.2,6.9,-0.2,87.1, 3.2, -2,0,0,1024,1024,1024,1024,0,0,0,0,0,0,0,97,4.011,4.029,4.015,4.024,4.033,4.026,0,,17.3528648,14.8,14,Waypoint,
19800,2024-11-04 05:58:34,-23.4439305249538,151.917808983924,14.8,,,17.3528648,0,6.7,51.5394,57.09,16,5,24.138,17.3528648,14.8,8.4,51.5394,-0.2,6.7,-0.3,87.1, 4.4, -1.8,0,0,1024,1024,1024,1024,0,0,0,0,0,0,0,97,4.011,4.029,4.015,4.024,4.033,4.026,0,,17.3528648,14.8,14,Waypoint,
19900,2024-11-04 05:58:34,-23.4439305115356,151.91781548709,14.8,,,17.3528648,0,6.7,52.2029,57.7535,16,5,24.214,17.3528648,14.8,8.4,52.2029,-0.2,6.5,-0.2,87, 4.9, -1.6,0,0,1024,1024,1024,1024,0,0,0,0,0,0,0,97,4.023,4.031,4.03,4.044,4.039,4.047,0,,17.3528648,14.8,14,Waypoint,
20000,2024-11-04 05:58:34,-23.4439306444996,151.91782177317,14.9,,,17.4528648,0,6.3,52.8442,58.395,16,5,24.214,17.4528648,14.9,8.4,52.8442,-0.2,6.3,-0.2,87, 5.8, -1.7,0,0,1024,1024,1024,1024,0,0,0,0,0,0,0,97,4.023,4.031,4.03,4.044,4.039,4.047,0,,17.4528648,14.9,14,Waypoint,
20100,2024-11-04 05:58:34,-23.4439305741422,151.917827741764,14.9,,,17.4528648,0,6.1,53.4532,59.004,16,5,24.214,17.4528648,14.9,8.4,53.4532,-0.2,6.1,-0.1,87, 6.4, -1.9,0,0,1024,1024,1024,1024,0,0,0,0,0,0,0,97,4.023,4.031,4.03,4.044,4.039,4.047,0,,17.4528648,14.9,14,Waypoint,
20200,2024-11-04 05:58:35,-23.4439306432421,151.91783352659,14.9,,,17.4528648,0,5.9,54.0434,59.5943,16,5,24.214,17.4528648,14.9,8.4,54.0434,-0.2,5.9,-0.1,87, 7.2, -1.6,0,0,1024,1024,1024,1024,0,0,0,0,0,0,0,97,4.023,4.031,4.03,4.044,4.039,4.047,0,,17.4528648,14.9,14,Waypoint,
20400,2024-11-04 05:58:35,-23.443930656271,151.91784404043,14.9,,,17.4528648,0,5.41,55.116,60.667,16,5,24.214,17.4528648,14.9,8.4,55.116,-0.3,5.4,0,86.9, 8.4, -1.6,0,0,1024,1024,1024,1024,0,0,0,0,0,0,0,97,4.023,4.031,4.03,4.044,4.039,4.047,0,,17.4528648,14.9,14,Waypoint,
20500,2024-11-04 05:58:35,-23.4439306012536,151.917849060674,14.9,,,17.4528648,0,5.11,55.6283,61.1792,16,5,24.214,17.4528648,14.9,8.4,55.6283,-0.3,5.1,0,87, 9.2, -1.3,0,0,1024,1024,1024,1024,0,0,0,0,0,0,0,97,4.023,4.031,4.03,4.044,4.039,4.047,0,,17.4528648,14.9,14,Waypoint,
20600,2024-11-04 05:58:35,-23.4439307192535,151.9178538245,14.9,,,17.4528648,0,4.91,56.1143,61.6654,16,5,24.214,17.4528648,14.9,8.4,56.1143,-0.3,4.9,-0.1,86.9, 9.2, -1.2,0,0,1024,1024,1024,1024,0,0,0,0,0,0,0,97,4.023,4.031,4.03,4.044,4.039,4.047,0,,17.4528648,14.9,14,Waypoint,
20700,2024-11-04 05:58:35,-23.4439307216324,151.917858296389,14.9,,,17.4528648,0,4.61,56.5705,62.1217,16,5,24.214,17.4528648,14.9,8.4,56.5705,-0.3,4.6,0,86.8, 8.7, -1.5,0,0,1024,1024,1024,1024,0,0,0,0,0,0,0,97,4.023,4.031,4.03,4.044,4.039,4.047,0,,17.4528648,14.9,14,Waypoint,
20800,2024-11-04 05:58:35,-23.4439308778962,151.917862543908,14.9,,,17.4528648,0,4.41,57.0038,62.5554,16,5,24.214,17.4528648,14.9,8.4,57.0038,-0.3,4.4,0,86.8, 9.6, -1.9,0,0,1024,1024,1024,1024,0,0,0,0,0,0,0,97,4.023,4.031,4.03,4.044,4.039,4.047,0,,17.4528648,14.9,14,Waypoint,
20900,2024-11-04 05:58:35,-23.4439307894797,151.917866515737,14.9,,,17.4528648,0,4.11,57.4091,62.9607,16,5,24.291,17.4528648,14.9,8.4,57.4091,-0.3,4.1,0,86.8, 13, -2.1,0,0,1024,1024,1024,1024,0,0,0,0,0,0,0,97,4.053,4.037,4.037,4.068,4.046,4.05,0,,17.4528648,14.9,14,Waypoint,
21000,2024-11-04 05:58:35,-23.4439308669255,151.917870212062,14.9,,,17.4528648,0,3.81,57.7862,63.3379,16,5,24.291,17.4528648,14.9,8.4,57.7862,-0.3,3.8,0,86.7, 17.3, -1.9,0,0,1024,1024,1024,1024,0,0,0,0,0,0,0,97,4.053,4.037,4.037,4.068,4.046,4.05,0,,17.4528648,14.9,14,Waypoint,"Aircraft is tilted, please keep the aircraft stationary and level before flight__"
21100,2024-11-04 05:58:35,-23.4439307410354,151.91787349278,14.9,,,17.4528648,0,3.41,58.1209,63.6729,16,5,24.291,17.4528648,14.9,8.4,58.1209,-0.3,3.4,0,86.6, 21.1, -1.1,0,0,1024,1024,1024,1024,0,0,0,0,0,0,0,97,4.053,4.037,4.037,4.068,4.046,4.05,0,,17.4528648,14.9,14,Waypoint,
21200,2024-11-04 05:58:35,-23.4439308327704,151.91787635307,14.9,,,17.4528648,0,2.92,58.4127,63.9649,16,5,24.291,17.4528648,14.9,8.4,58.4127,-0.3,2.9,0.1,86.5, 23.2, -0.5,0,0,1024,1024,1024,1024,0,0,0,0,0,0,0,97,4.053,4.037,4.037,4.068,4.046,4.05,0,,17.4528648,14.9,14,Waypoint,
21300,2024-11-04 05:58:36,-23.4439307571188,151.917878596429,14.9,,,17.4528648,0,2.42,58.6416,64.194,16,5,24.291,17.4528648,14.9,8.4,58.6416,-0.3,2.4,0.1,86.4, 24, 0,0,0,1024,1024,1024,1024,0,0,0,0,0,0,0,97,4.053,4.037,4.037,4.068,4.046,4.05,0,,17.4528648,14.9,14,Waypoint,
21400,2024-11-04 05:58:36,-23.4439308962572,151.917880399901,14.9,,,17.4528648,0,1.94,58.8256,64.3786,16,5,24.291,17.4528648,14.9,8.4,58.8256,-0.4,1.9,0.1,86.4, 23.9, 0.5,0,0,1024,1024,1024,1024,0,0,0,0,0,0,0,97,4.053,4.037,4.037,4.068,4.046,4.05,0,,17.4528648,14.9,14,Waypoint,
21500,2024-11-04 05:58:36,-23.4439308923176,151.917881652141,14.8,,,17.3528648,0,1.46,58.9534,64.5064,16,5,24.291,17.4528648,14.9,8.4,58.9534,-0.4,1.4,0.2,86.4, 22.7, 0.9,0,0,1024,1024,1024,1024,0,0,0,0,0,0,0,97,4.053,4.037,4.037,4.068,4.046,4.05,0,,17.3528648,14.8,14,Waypoint,
