time(millisecond),datetime(utc),latitude,longitude,height_above_takeoff(meters),height_above_ground_at_drone_location(meters),ground_elevation_at_drone_location(meters),altitude_above_seaLevel(meters),height_sonar(meters),speed(m/s),distance(meters),mileage(meters),satellites,gpslevel,voltage(v),max_altitude(meters),max_ascent(meters),max_speed(m/s),max_distance(meters), xSpeed(m/s), ySpeed(m/s), zSpeed(m/s), compass_heading(degrees), pitch(degrees), roll(degrees),isPhoto,isVideo,rc_elevator,rc_aileron,rc_throttle,rc_rudder,rc_elevator(percent),rc_aileron(percent),rc_throttle(percent),rc_rudder(percent),gimbal_heading(degrees),gimbal_pitch(degrees),gimbal_roll(degrees),battery_percent,voltageCell1,voltageCell2,voltageCell3,voltageCell4,voltageCell5,voltageCell6,current(A),battery_temperature(c),altitude(meters),ascent(meters),flycStateRaw,flycState,message
0,2024-11-04 06:49:52,-23.4439311372889,151.917292115432,0,Available with any HD 360 subscription,Available with any HD 360 subscription,2.6191504,0,0,0,0,16,5,0,2.6191504,0,0,0,0,0,0,86.3, -1.1, 1.6,0,0,1024,1024,1024,1024,0,0,0,0,0,0,0,99,4.336,4.341,4.341,4.354,4.356,4.35,0,,2.6191504,0,41,Motors_Started,
100,2024-11-04 06:49:52,-23.4439311428362,151.917292109382,0,,,2.6191504,0,0,0.000872658,0.000872658,16,5,0,2.6191504,0,0,0.000872658,0,0,0,86.4, -1.1, 1.6,0,0,1024,1024,1024,1024,0,0,0,0,0,0,0,99,4.336,4.341,4.341,4.354,4.356,4.35,0,,2.6191504,0,41,Motors_Started,
200,2024-11-04 06:49:52,-23.4439311500436,151.917292108926,0,,,2.6191504,0,0,0.00156604,0.00167551,16,5,0,2.6191504,0,0,0.00156604,0,0,0,86.6, -1.1, 1.6,0,0,1024,1024,1024,1024,0,0,0,0,0,0,0,99,4.336,4.341,4.341,4.354,4.356,4.35,0,,2.6191504,0,41,Motors_Started,
300,2024-11-04 06:49:52,-23.4439311454998,151.917292108144,0,,,2.6191504,0,0,0.00117756,0.00218708,16,5,0,2.6191504,0,0,0.00156604,0,0,0,86.7, -1.1, 1.6,0,0,1024,1024,1024,1024,0,0,0,0,0,0,0,99,4.336,4.341,4.341,4.354,4.356,4.35,0,,2.6191504,0,41,Motors_Started,
400,2024-11-04 06:49:52,-23.4439311475574,151.917292109516,0,,,2.6191504,0,0,0.0012916,0.00245536,16,5,0,2.6191504,0,0,0.00156604,0,0,0,86.8, -1.1, 1.6,0,0,1024,1024,1024,1024,0,0,0,0,0,0,0,99,4.336,4.341,4.341,4.354,4.356,4.35,0,,2.6191504,0,41,Motors_Started,
500,2024-11-04 06:49:52,-23.4439311746348,151.917292110919,0,,,2.6191504,0,0,0.00417852,0.00546993,16,5,0,2.6191504,0,0,0.00417852,0,0,0,86.9, -1.1, 1.6,0,0,1024,1024,1024,1024,0,0,0,0,0,0,0,99,4.336,4.341,4.341,4.354,4.356,4.35,0,,2.6191504,0,41,Motors_Started,
600,2024-11-04 06:49:52,-23.4439312009989,151.917292115807,0,,,2.6191504,0,0,0.00708503,0.00844387,16,5,0,2.6191504,0,0,0.00708503,0,0,0,87, -1.1, 1.6,0,0,1024,1024,1024,1024,0,0,0,0,0,0,0,99,4.336,4.341,4.341,4.354,4.356,4.35,0,,2.6191504,0,41,Motors_Started,"Setting new Return-To-Home altitude to 40m (131 ft). Data Recorder File Index is 369. Setting new Maximum Flight Altitude to 120m (394 ft)"
700,2024-11-04 06:49:52,-23.4439312181487,151.917292119028,0,,,2.6191504,0,0,0.00899958,0.0103792,16,5,0,2.6191504,0,0,0.00899958,0,0,0,87, -1.1, 1.6,0,0,1024,1024,1024,1024,0,0,0,0,0,0,0,99,4.336,4.341,4.341,4.354,4.356,4.35,0,,2.6191504,0,41,Motors_Started,
800,2024-11-04 06:49:52,-23.4439312316987,151.917292119787,0,,,2.6191504,0,0,0.0105083,0.011888,16,5,0,2.6191504,0,0,0.0105083,0,0,0,87.1, -1.1, 1.6,0,0,1024,1024,1024,1024,0,0,0,0,0,0,0,99,4.336,4.341,4.341,4.354,4.356,4.35,0,,2.6191504,0,41,Motors_Started,
900,2024-11-04 06:49:53,-23.4439312321041,151.91729211878,0,,,2.6191504,0,0,0.0105496,0.0120002,16,5,0,2.6191504,0,0,0.0105496,0,0,0,87.1, -1.1, 1.6,0,0,1024,1024,1024,1024,0,0,0,0,0,0,0,99,4.336,4.341,4.341,4.354,4.356,4.35,0,,2.6191504,0,41,Motors_Started,
1000,2024-11-04 06:49:53,-23.4439312369446,151.917292123719,0,,,2.6191504,0,0,0.0111145,0.0127376,16,5,0,2.6191504,0,0,0.0111145,0,0,0,87.1, -1.1, 1.6,0,0,1024,1024,1024,1024,0,0,0,0,0,0,0,99,4.336,4.341,4.341,4.354,4.356,4.35,0,,2.6191504,0,41,Motors_Started,
1100,2024-11-04 06:49:53,-23.443931229007,151.917292124923,0,,,2.6191504,0,0,0.0102455,0.0136288,16,5,0,2.6191504,0,0,0.0111145,0,0,0,87.2, -1.1, 1.6,0,0,1024,1024,1024,1024,0,0,0,0,0,0,0,99,4.336,4.341,4.341,4.354,4.356,4.35,0,,2.6191504,0,41,Motors_Started,
1200,2024-11-04 06:49:53,-23.4439312284871,151.917292126041,0,,,2.6191504,0,0,0.0101994,0.0137567,16,5,0,2.6191504,0,0,0.0111145,0,0,0,87.2, -1.1, 1.6,0,0,1024,1024,1024,1024,0,0,0,0,0,0,0,99,4.336,4.341,4.341,4.354,4.356,4.35,0,,2.6191504,0,41,Motors_Started,
1300,2024-11-04 06:49:53,-23.443931216771,151.917292124762,0,,,2.6191504,0,0,0.00888999,0.0150661,16,5,0,2.6191504,0,0,0.0111145,0,0,0,87.2, -1.1, 1.6,0,0,1024,1024,1024,1024,0,0,0,0,0,0,0,99,4.336,4.341,4.341,4.354,4.356,4.35,0,,2.6191504,0,41,Motors_Started,
1400,2024-11-04 06:49:53,-23.4439312134132,151.917292129072,0,,,2.6191504,0,0,0.00857911,0.0156431,16,5,0,2.6191504,0,0,0.0111145,0,0,0,87.3, -1.1, 1.6,0,0,1024,1024,1024,1024,0,0,0,0,0,0,0,99,4.336,4.341,4.341,4.354,4.356,4.35,0,,2.6191504,0,41,Motors_Started,
1500,2024-11-04 06:49:53,-23.4439312392986,151.917292130413,0,,,2.6191504,0,0,0.0114466,0.0185249,16,5,0,2.6191504,0,0,0.0114466,0,0,0,87.3, -1.1, 1.6,0,0,1024,1024,1024,1024,0,0,0,0,0,0,0,99,4.336,4.341,4.341,4.354,4.356,4.35,0,,2.6191504,0,41,Motors_Started,
1600,2024-11-04 06:49:53,-23.4439312648356,151.917292132531,0,,,2.6191504,0,0,0.0142908,0.021373,16,5,0,2.6191504,0,0,0.0142908,0,0,0,87.3, -1.1, 1.6,0,0,1024,1024,1024,1024,0,0,0,0,0,0,0,99,4.336,4.341,4.341,4.354,4.356,4.35,0,,2.6191504,0,41,Motors_Started,
1700,2024-11-04 06:49:53,-23.4439312850729,151.917292130912,0,,,2.6191504,0,0,0.0165102,0.0236296,16,5,26.078,2.6191504,0,0,0.0165102,0,0,0,87.3, -1.1, 1.6,0,0,1024,1024,1024,1024,0,0,0,0,0,0,0,99,4.336,4.341,4.341,4.354,4.356,4.35,0,,2.6191504,0,41,Motors_Started,
1800,2024-11-04 06:49:53,-23.4439312991891,151.917292135193,0,,,2.6191504,0,0,0.0181168,0.025259,16,5,26.078,2.6191504,0,0,0.0181168,0,0,0,87.3, -1.1, 1.6,0,0,1024,1024,1024,1024,0,0,0,0,0,0,0,99,4.336,4.341,4.341,4.354,4.356,4.35,0,,2.6191504,0,41,Motors_Started,
1900,2024-11-04 06:49:54,-23.4439313040435,151.91729209478,0,,,2.6191504,0,0,0.0186634,0.0294174,16,5,26.078,2.6191504,0,0,0.0186634,0,0,0,87.3, -1.1, 1.6,0,0,1024,1024,1024,1024,0,0,0,0,0,0,0,99,4.336,4.341,4.341,4.354,4.356,4.35,0,,2.6191504,0,41,Motors_Started,
2000,2024-11-04 06:49:54,-23.4439313101907,151.917292066251,0,,,2.6191504,0,0,0.0198717,0.0324073,16,5,26.078,2.6191504,0,0,0.0198717,0,0,0,87.3, -1.1, 1.6,0,0,1024,1024,1024,1024,0,0,0,0,0,0,0,99,4.336,4.341,4.341,4.354,4.356,4.35,0,,2.6191504,0,11,AutoTakeoff,
2100,2024-11-04 06:49:54,-23.4439313069427,151.917292031878,0,,,2.6191504,0,0,0.020703,0.0359328,16,5,26.078,2.6191504,0,0,0.020703,0,0,0,87.3, -1.1, 1.6,0,0,1024,1024,1024,1024,0,0,0,0,0,0,0,99,4.336,4.341,4.341,4.354,4.356,4.35,0,,2.6191504,0,11,AutoTakeoff,
2200,2024-11-04 06:49:54,-23.4439313081127,151.917292016351,0,,,2.6191504,0,0,0.0215189,0.0375223,16,5,26.078,2.6191504,0,0,0.0215189,0,0,0,87.3, -1.1, 1.6,0,0,1024,1024,1024,1024,0,0,0,0,0,0,0,99,4.336,4.341,4.341,4.354,4.356,4.35,0,,2.6191504,0,11,AutoTakeoff,
2300,2024-11-04 06:49:54,-23.4439313413193,151.917292000909,0,,,2.6191504,0,0,0.0255212,0.0415371,16,5,26.078,2.6191504,0,0,0.0255212,0,0,0,87.3, -1.1, 1.6,0,0,1024,1024,1024,1024,0,0,0,0,0,0,0,99,4.336,4.341,4.341,4.354,4.356,4.35,0,,2.6191504,0,11,AutoTakeoff,
2400,2024-11-04 06:49:54,-23.4439313740116,151.917291987019,0,,,2.6191504,0,0,0.029405,0.0454391,16,5,26.078,2.6191504,0,0,0.029405,0,0,0,87.4, -0.9, 1.6,0,0,1024,1024,1024,1024,0,0,0,0,0,0,0,99,4.336,4.341,4.341,4.354,4.356,4.35,0,,2.6191504,0,11,AutoTakeoff,
2500,2024-11-04 06:49:54,-23.4439313959368,151.917291957891,0,,,2.6191504,0,0,0.0329496,0.0492832,16,5,26.078,2.6191504,0,0,0.0329496,0,0,0,87.6, -0.5, 1.6,0,0,1024,1024,1024,1024,0,0,0,0,0,0,0,99,4.336,4.341,4.341,4.354,4.356,4.35,0,,2.6191504,0,11,AutoTakeoff,
2600,2024-11-04 06:49:54,-23.4439314112345,151.917291918386,0,,,2.6191504,0,0,0.0364999,0.053658,16,5,26.078,2.6191504,0,0,0.0364999,0,0,0,87.6, 0, 1.6,0,0,1024,1024,1024,1024,0,0,0,0,0,0,0,99,4.336,4.341,4.341,4.354,4.356,4.35,0,,2.6191504,0,11,AutoTakeoff,
2700,2024-11-04 06:49:54,-23.4439314187655,151.917291853939,0,,,2.6191504,0,0,0.0411289,0.0602865,16,5,26.078,2.6191504,0,0,0.0411289,0,0,0,87.7, 0.1, 1.7,0,0,1024,1024,1024,1024,0,0,0,0,0,0,0,99,4.336,4.341,4.341,4.354,4.356,4.35,0,,2.6191504,0,11,AutoTakeoff,
2800,2024-11-04 06:49:54,-23.4439314322637,151.917291820659,0,,,2.6191504,0,0,0.044503,0.0639989,16,5,26.078,2.6191504,0,0,0.044503,0,0,0,87.7, 0.1, 1.7,0,0,1024,1024,1024,1024,0,0,0,0,0,0,0,99,4.336,4.341,4.341,4.354,4.356,4.35,0,,2.6191504,0,11,AutoTakeoff,
2900,2024-11-04 06:49:55,-23.4439314290527,151.917291791835,0,,,2.6191504,0,0,0.0462898,0.0669613,16,5,26.078,2.6191504,0,0,0.0462898,0,0,0,87.7, 0.1, 1.7,0,0,1024,1024,1024,1024,0,0,0,0,0,0,0,99,4.336,4.341,4.341,4.354,4.356,4.35,0,,2.6191504,0,11,AutoTakeoff,
3000,2024-11-04 06:49:55,-23.4439314382317,151.917291776863,0,,,2.6191504,0,0,0.048096,0.0687985,16,5,26.078,2.6191504,0,0,0.048096,0,0,0,87.8, 0.1, 1.8,0,0,1024,1024,1024,1024,0,0,0,0,0,0,0,99,4.336,4.341,4.341,4.354,4.356,4.35,0,,2.6191504,0,11,AutoTakeoff,
3100,2024-11-04 06:49:55,-23.4439314953174,151.917291825252,0,,,2.6191504,0,0,0.0496159,0.0768405,16,5,26.078,2.6191504,0,0,0.0496159,0,0,0,88, 0.5, 1.9,0,0,1024,1024,1024,1024,0,0,0,0,0,0,0,99,4.336,4.341,4.341,4.354,4.356,4.35,0,,2.6191504,0,11,AutoTakeoff,
3200,2024-11-04 06:49:55,-23.4439315822387,151.917291857733,0,,,2.6191504,0,0,0.0560326,0.0870589,16,5,26.078,2.6191504,0,0,0.0560326,0,0,0,88.3, 1.2, 1.7,0,0,1024,1024,1024,1024,0,0,0,0,0,0,0,99,4.336,4.341,4.341,4.354,4.356,4.35,0,,2.6191504,0,11,AutoTakeoff,
3300,2024-11-04 06:49:55,-23.4439316906222,151.917291816079,0,,,2.6191504,0,0.1,0.0686967,0.0998392,16,5,26.069,2.6191504,0,0.1,0.0686967,-0.1,0,-0.2,88.6, 2.1, 1.5,0,0,1024,1024,1024,1024,0,0,0,0,0,0,0,99,4.335,4.34,4.34,4.352,4.354,4.348,0,,2.6191504,0,11,AutoTakeoff,
3400,2024-11-04 06:49:55,-23.4439318400039,151.917291718044,0,,,2.6191504,0,0.14,0.0880377,0.11923,16,5,26.069,2.6191504,0,0.14,0.0880377,-0.1,-0.1,-0.3,88.6, 2.5, 1.1,0,0,1024,1024,1024,1024,0,0,0,0,0,0,0,99,4.335,4.34,4.34,4.352,4.354,4.348,0,,2.6191504,0,11,AutoTakeoff,
3500,2024-11-04 06:49:55,-23.443932060329,151.917291452116,0,,,2.6191504,0,0.22,0.122949,0.155787,16,5,26.069,2.6191504,0,0.22,0.122949,-0.2,-0.1,-0.4,88.6, 2.2, 0.3,0,0,1024,1024,1024,1024,0,0,0,0,0,0,0,99,4.335,4.34,4.34,4.352,4.354,4.348,0,,2.6191504,0,11,AutoTakeoff,
3600,2024-11-04 06:49:55,-23.4439323030612,151.917291159805,0,,,2.6191504,0,0.28,0.162212,0.196013,16,5,26.069,2.6191504,0,0.28,0.162212,-0.2,-0.2,-0.5,88.5, 2, -0.1,0,0,1024,1024,1024,1024,0,0,0,0,0,0,0,99,4.335,4.34,4.34,4.352,4.354,4.348,0,,2.6191504,0,11,AutoTakeoff,"Home Point recorded. Return-to-Home Altitude:40.0 m"
3700,2024-11-04 06:49:55,-23.4439325523454,151.917290711748,0.1,,,2.7191504,0,0.28,0.212774,0.249475,16,5,26.069,2.7191504,0.1,0.28,0.212774,-0.2,-0.2,-0.6,88.5, 1.5, -0.5,0,0,1024,1024,1024,1024,0,0,0,0,0,0,0,99,4.335,4.34,4.34,4.352,4.354,4.348,0,,2.7191504,0.1,11,AutoTakeoff,
3800,2024-11-04 06:49:55,-23.4439327774656,151.91729030098,0.2,,,2.8191504,0,0.36,0.259882,0.298292,16,5,26.069,2.8191504,0.2,0.36,0.259882,-0.2,-0.3,-0.5,88.5, 1.2, -0.8,0,0,1024,1024,1024,1024,0,0,0,0,0,0,0,99,4.335,4.34,4.34,4.352,4.354,4.348,0,,2.8191504,0.2,11,AutoTakeoff,
3900,2024-11-04 06:49:56,-23.4439330363261,151.917289782924,0.2,,,2.8191504,0,0.36,0.318169,0.358478,16,5,26.069,2.8191504,0.2,0.36,0.318169,-0.2,-0.3,-0.5,88.5, 0.6, -1,0,0,1024,1024,1024,1024,0,0,0,0,0,0,0,99,4.335,4.34,4.34,4.352,4.354,4.348,0,,2.8191504,0.2,11,AutoTakeoff,
4000,2024-11-04 06:49:56,-23.4439332930582,151.917289302682,0.3,,,2.9191504,0,0.45,0.373934,0.415186,16,5,26.069,2.9191504,0.3,0.45,0.373934,-0.2,-0.4,-0.5,88.5, 0, -1,0,0,1024,1024,1024,1024,0,0,0,0,0,0,0,99,4.335,4.34,4.34,4.352,4.354,4.348,0,,2.9191504,0.3,11,AutoTakeoff,
4100,2024-11-04 06:49:56,-23.4439335017342,151.917288744303,0.3,,,2.9191504,0,0.45,0.432937,0.476701,16,5,26.069,2.9191504,0.3,0.45,0.432937,-0.2,-0.4,-0.6,88.5, -0.6, -1.1,0,0,1024,1024,1024,1024,0,0,0,0,0,0,0,99,4.335,4.34,4.34,4.352,4.354,4.348,0,,2.9191504,0.3,11,AutoTakeoff,
4200,2024-11-04 06:49:56,-23.4439337188729,151.917288240868,0.4,,,3.0191504,0,0.45,0.488556,0.533457,16,5,26.069,3.0191504,0.4,0.45,0.488556,-0.2,-0.4,-0.5,88.5, -1.2, -1.3,0,0,1024,1024,1024,1024,0,0,0,0,0,0,0,99,4.335,4.34,4.34,4.352,4.354,4.348,0,,3.0191504,0.4,11,AutoTakeoff,
4300,2024-11-04 06:49:56,-23.4439339130608,151.9172876229,0.4,,,3.0191504,0,0.45,0.552607,0.600102,16,5,26.069,3.0191504,0.4,0.45,0.552607,-0.2,-0.4,-0.5,88.6, -1.7, -1.3,0,0,1024,1024,1024,1024,0,0,0,0,0,0,0,99,4.335,4.34,4.34,4.352,4.354,4.348,0,,3.0191504,0.4,11,AutoTakeoff,
4400,2024-11-04 06:49:56,-23.4439341215936,151.917287085916,0.5,,,3.1191504,0,0.45,0.611109,0.659594,16,5,26.069,3.1191504,0.5,0.45,0.611109,-0.2,-0.4,-0.5,88.6, -1.8, -1.1,0,0,1024,1024,1024,1024,0,0,0,0,0,0,0,99,4.335,4.34,4.34,4.352,4.354,4.348,0,,3.1191504,0.5,11,AutoTakeoff,
4500,2024-11-04 06:49:56,-23.4439342504597,151.91728649765,0.5,,,3.1191504,0,0.45,0.669604,0.721299,16,5,26.069,3.1191504,0.5,0.45,0.669604,-0.2,-0.4,-0.5,88.6, -2.1, -1.2,0,0,1024,1024,1024,1024,0,0,0,0,0,0,0,99,4.335,4.34,4.34,4.352,4.354,4.348,0,,3.1191504,0.5,11,AutoTakeoff,
4600,2024-11-04 06:49:56,-23.4439343987198,151.91728600342,0.6,,,3.2191504,0,0.32,0.721389,0.774351,16,5,26.069,3.2191504,0.6,0.45,0.721389,-0.1,-0.3,-0.4,88.6, -2.4, -1.4,0,0,1024,1024,1024,1024,0,0,0,0,0,0,0,99,4.335,4.34,4.34,4.352,4.354,4.348,0,,3.2191504,0.6,11,AutoTakeoff,
4800,2024-11-04 06:49:56,-23.4439345919904,151.917285340228,0.6,,,3.2191504,0,0.32,0.790835,0.845345,16,5,26.069,3.2191504,0.6,0.45,0.790835,-0.1,-0.3,-0.5,88.6, -2.7, -1.6,0,0,1024,1024,1024,1024,0,0,0,0,0,0,0,99,4.335,4.34,4.34,4.352,4.354,4.348,0,,3.2191504,0.6,11,AutoTakeoff,
4900,2024-11-04 06:49:57,-23.4439346971822,151.917285056258,0.7,,,3.3191504,0,0.22,0.821851,0.87659,16,5,26.069,3.3191504,0.7,0.45,0.821851,-0.1,-0.2,-0.5,88.6, -2.4, -1.7,0,0,1024,1024,1024,1024,0,0,0,0,0,0,0,99,4.335,4.34,4.34,4.352,4.354,4.348,0,,3.3191504,0.7,11,AutoTakeoff,
5000,2024-11-04 06:49:57,-23.4439348309475,151.917284787614,0.8,,,3.4191504,0,0.22,0.853035,0.907775,16,5,26.069,3.4191504,0.8,0.45,0.853035,-0.1,-0.2,-0.5,88.6, -2.3, -1.7,0,0,1024,1024,1024,1024,0,0,0,0,0,0,0,99,4.335,4.34,4.34,4.352,4.354,4.348,0,,3.4191504,0.8,11,AutoTakeoff,
5100,2024-11-04 06:49:57,-23.4439349397166,151.917284521208,0.8,,,3.4191504,0,0.22,0.882685,0.937526,15,5,26.069,3.4191504,0.8,0.45,0.882685,-0.1,-0.2,-0.5,88.6, -2.1, -1.7,0,0,1024,1024,1024,1024,0,0,0,0,0,0,0,99,4.335,4.34,4.34,4.352,4.354,4.348,0,,3.4191504,0.8,11,AutoTakeoff,
5200,2024-11-04 06:49:57,-23.443935065603,151.917284278076,0.9,,,3.5191504,0,0.22,0.911166,0.966009,15,5,26.069,3.5191504,0.9,0.45,0.911166,-0.1,-0.2,-0.5,88.7, -1.7, -1.4,0,0,1024,1024,1024,1024,0,0,0,0,0,0,0,99,4.335,4.34,4.34,4.352,4.354,4.348,0,,3.5191504,0.9,11,AutoTakeoff,
5300,2024-11-04 06:49:57,-23.4439352139412,151.917284069109,0.9,,,3.5191504,0,0.22,0.937794,0.992966,15,5,26.013,3.5191504,0.9,0.45,0.937794,-0.1,-0.2,-0.6,88.7, -1.3, -1.3,0,0,1024,1024,1024,1024,0,0,0,0,0,0,0,99,4.327,4.331,4.328,4.343,4.344,4.34,0,,3.5191504,0.9,11,AutoTakeoff,
5400,2024-11-04 06:49:57,-23.443935366331,151.917283862514,1,,,3.6191504,0,0.22,0.964449,1.02001,15,5,26.013,3.6191504,1,0.45,0.964449,-0.1,-0.2,-0.5,88.8, -1, -1.4,0,0,1024,1024,1024,1024,0,0,0,0,0,0,0,99,4.327,4.331,4.328,4.343,4.344,4.34,0,,3.6191504,1,11,AutoTakeoff,
5500,2024-11-04 06:49:57,-23.4439355229035,151.917283542885,1.1,,,3.7191504,0,0.22,1.00141,1.05698,16,5,26.013,3.7191504,1.1,0.45,1.00141,-0.1,-0.2,-0.5,88.8, -1, -1.5,0,0,1024,1024,1024,1024,0,0,0,0,0,0,0,99,4.327,4.331,4.328,4.343,4.344,4.34,0,,3.7191504,1.1,6,P-GPS,
5600,2024-11-04 06:49:57,-23.4439356846519,151.917283227934,1.1,,,3.7191504,0,0.32,1.03824,1.0938,16,5,26.013,3.7191504,1.1,0.45,1.03824,-0.1,-0.3,-0.4,88.8, -1.4, -1.9,0,0,1024,1024,1024,1024,0,0,0,0,0,0,0,99,4.327,4.331,4.328,4.343,4.344,4.34,0,,3.7191504,1.1,14,Waypoint,
5700,2024-11-04 06:49:57,-23.4439358104045,151.917282878391,1.1,,,3.7191504,0,0.32,1.07621,1.13211,16,5,26.013,3.7191504,1.1,0.45,1.07621,-0.1,-0.3,-0.2,88.9, -1.7, -2.1,0,0,1024,1024,1024,1024,0,0,0,0,0,0,0,99,4.327,4.331,4.328,4.343,4.344,4.34,0,,3.7191504,1.1,14,Waypoint,
5800,2024-11-04 06:49:57,-23.4439359531575,151.91728256103,1.2,,,3.8191504,0,0.32,1.11223,1.16817,16,5,26.013,3.8191504,1.2,0.45,1.11223,-0.1,-0.3,-0.2,89, -2.2, -2.2,0,0,1024,1024,1024,1024,0,0,0,0,0,0,0,99,4.327,4.331,4.328,4.343,4.344,4.34,0,,3.8191504,1.2,14,Waypoint,
5900,2024-11-04 06:49:57,-23.4439360828676,151.917282252088,1.2,,,3.8191504,0,0.32,1.1468,1.20284,16,5,26.013,3.8191504,1.2,0.45,1.1468,-0.1,-0.2,-0.2,89.1, -2.8, -2,0,0,1024,1024,1024,1024,0,0,0,0,0,0,0,99,4.327,4.331,4.328,4.343,4.344,4.34,0,,3.8191504,1.2,14,Waypoint,
6000,2024-11-04 06:49:58,-23.4439362155328,151.917281998342,1.2,,,3.8191504,0,0.22,1.17659,1.23263,16,5,26.013,3.8191504,1.2,0.45,1.17659,-0.1,-0.2,-0.2,89.1, -3, -1.3,0,0,1024,1024,1024,1024,0,0,0,0,0,0,0,99,4.327,4.331,4.328,4.343,4.344,4.34,0,,3.8191504,1.2,14,Waypoint,
6100,2024-11-04 06:49:58,-23.4439363455348,151.917281760909,1.2,,,3.8191504,0,0.22,1.20478,1.26084,16,5,26.013,3.8191504,1.2,0.45,1.20478,-0.1,-0.2,-0.4,89.1, -3, -0.5,0,0,1024,1024,1024,1024,0,0,0,0,0,0,0,99,4.327,4.331,4.328,4.343,4.344,4.34,0,,3.8191504,1.2,14,Waypoint,
6200,2024-11-04 06:49:58,-23.4439364942593,151.917281557718,1.3,,,3.9191504,0,0.22,1.23092,1.28736,16,5,26.013,3.9191504,1.3,0.45,1.23092,-0.1,-0.1,-0.6,88.9, -2.6, -0.2,0,0,1024,1024,1024,1024,0,0,0,0,0,0,0,99,4.327,4.331,4.328,4.343,4.344,4.34,0,,3.9191504,1.3,14,Waypoint,
6300,2024-11-04 06:49:58,-23.4439366565305,151.917281378098,1.4,,,4.0191504,0,0.22,1.25571,1.31308,15,5,26.013,4.0191504,1.4,0.45,1.25571,-0.2,-0.1,-0.8,88.8, -2, -0.4,0,0,1024,1024,1024,1024,0,0,0,0,0,0,0,99,4.327,4.331,4.328,4.343,4.344,4.34,0,,4.0191504,1.4,14,Waypoint,
6400,2024-11-04 06:49:58,-23.4439368428103,151.917281224913,1.5,,,4.1191504,0,0.22,1.27951,1.33903,15,5,26.013,4.1191504,1.5,0.45,1.27951,-0.2,-0.1,-1,88.6, -1.3, -1.2,0,0,1024,1024,1024,1024,0,0,0,0,0,0,0,99,4.327,4.331,4.328,4.343,4.344,4.34,0,,4.1191504,1.5,14,Waypoint,
6500,2024-11-04 06:49:58,-23.4439370245055,151.917281102769,1.6,,,4.2191504,0,0.22,1.3004,1.36277,15,5,26.013,4.2191504,1.6,0.45,1.3004,-0.2,-0.1,-1.3,88.6, -0.6, -2.4,0,0,1024,1024,1024,1024,0,0,0,0,0,0,0,99,4.327,4.331,4.328,4.343,4.344,4.34,0,,4.2191504,1.6,14,Waypoint,
6600,2024-11-04 06:49:58,-23.443937195392,151.917280954239,1.8,,,4.4191504,0,0.14,1.32309,1.38708,15,5,26.013,4.4191504,1.8,0.45,1.32309,-0.1,-0.1,-1.5,88.7, -0.4, -3.2,0,0,1024,1024,1024,1024,0,0,0,0,0,0,0,99,4.327,4.331,4.328,4.343,4.344,4.34,0,,4.4191504,1.8,14,Waypoint,
6700,2024-11-04 06:49:58,-23.4439373229024,151.917280725194,2,,,4.6191504,0,0.14,1.35043,1.41441,15,5,26.013,4.6191504,2,0.45,1.35043,-0.1,-0.2,-1.8,88.8, -0.6, -3.3,0,0,1024,1024,1024,1024,0,0,0,0,0,0,0,99,4.327,4.331,4.328,4.343,4.344,4.34,0,,4.6191504,2,14,Waypoint,
6800,2024-11-04 06:49:59,-23.4439374179441,151.917280469247,2.2,,,4.8191504,0,0.2,1.37829,1.44258,15,5,26.013,4.8191504,2.2,0.45,1.37829,0,-0.2,-2.1,88.8, -0.9, -2.6,0,0,1024,1024,1024,1024,0,0,0,0,0,0,0,99,4.327,4.331,4.328,4.343,4.344,4.34,0,,4.8191504,2.2,14,Waypoint,
6900,2024-11-04 06:49:59,-23.4439374358627,151.917280195853,2.5,,,5.1191504,0,0.3,1.4034,1.47055,16,5,26.013,5.1191504,2.5,0.45,1.4034,0,-0.3,-2.3,88.7, -1.4, -1.9,0,0,1024,1024,1024,1024,0,0,0,0,0,0,0,99,4.327,4.331,4.328,4.343,4.344,4.34,0,,5.1191504,2.5,14,Waypoint,
7000,2024-11-04 06:49:59,-23.4439374602405,151.917279905382,2.8,,,5.4191504,0,0.3,1.43049,1.50031,16,5,26.013,5.4191504,2.8,0.45,1.43049,0,-0.3,-2.6,88.6, -2, -1.6,0,0,1024,1024,1024,1024,0,0,0,0,0,0,0,99,4.327,4.331,4.328,4.343,4.344,4.34,0,,5.4191504,2.8,14,Waypoint,
7100,2024-11-04 06:49:59,-23.4439374408457,151.917279553628,3.1,,,5.7191504,0,0.3,1.46081,1.53626,16,5,24.626,5.7191504,3.1,0.45,1.46081,0,-0.3,-2.8,88.6, -2.6, -1.9,0,0,1024,1024,1024,1024,0,0,0,0,0,0,0,99,4.092,4.104,4.098,4.113,4.113,4.106,0,,5.7191504,3.1,14,Waypoint,
7200,2024-11-04 06:49:59,-23.4439374435701,151.917279187664,3.4,,,6.0191504,0,0.3,1.49382,1.5736,16,5,24.626,6.0191504,3.4,0.45,1.49382,0,-0.4,-3,88.7, -3.7, -2.1,0,0,1024,1024,1024,1024,0,0,0,0,0,0,0,99,4.092,4.104,4.098,4.113,4.113,4.106,0,,6.0191504,3.4,14,Waypoint,
7300,2024-11-04 06:49:59,-23.4439373725838,151.917278796792,3.7,,,6.3191504,0,0.4,1.52554,1.61425,16,5,24.626,6.3191504,3.7,0.45,1.52554,0,-0.4,-3.1,88.7, -5.3, -2.3,0,0,1024,1024,1024,1024,0,0,0,0,0,0,0,99,4.092,4.104,4.098,4.113,4.113,4.106,0,,6.3191504,3.7,14,Waypoint,
7400,2024-11-04 06:49:59,-23.4439373268376,151.917278473357,4,,,6.6191504,0,0.3,1.55274,1.64764,16,5,24.626,6.6191504,4,0.45,1.55274,0,-0.3,-3.1,88.8, -6.7, -2.3,0,0,1024,1024,1024,1024,0,0,0,0,0,0,0,99,4.092,4.104,4.098,4.113,4.113,4.106,0,,6.6191504,4,14,Waypoint,
7500,2024-11-04 06:49:59,-23.4439371933931,151.917278295609,4.4,,,7.0191504,0,0.2,1.56257,1.67107,15,5,24.626,7.0191504,4.4,0.45,1.56257,0,-0.2,-3.1,88.9, -7.5, -2.2,0,0,1024,1024,1024,1024,0,0,0,0,0,0,0,99,4.092,4.104,4.098,4.113,4.113,4.106,0,,7.0191504,4.4,14,Waypoint,
7600,2024-11-04 06:49:59,-23.4439370914281,151.917278196061,4.7,,,7.3191504,0,0.1,1.56691,1.6863,15,5,24.626,7.3191504,4.7,0.45,1.56691,0,-0.1,-3.2,88.9, -7.7, -2.2,0,0,1024,1024,1024,1024,0,0,0,0,0,0,0,99,4.092,4.104,4.098,4.113,4.113,4.106,0,,7.3191504,4.7,14,Waypoint,
7800,2024-11-04 06:49:59,-23.4439367707927,151.91727845231,5.3,,,7.9191504,0,0,1.5283,1.73051,15,5,24.626,7.9191504,5.3,0.45,1.56691,0,0,-3.1,88.8, -6.8, -1.7,0,0,1024,1024,1024,1024,0,0,0,0,0,0,0,99,4.092,4.104,4.098,4.113,4.113,4.106,0,,7.9191504,5.3,14,Waypoint,
7900,2024-11-04 06:50:00,-23.443936593901,151.917278782316,5.6,,,8.2191504,0,0.1,1.48953,1.76951,15,5,24.626,8.2191504,5.6,0.45,1.56691,0.1,0,-3,88.7, -5.9, -1.5,0,0,1024,1024,1024,1024,0,0,0,0,0,0,0,99,4.092,4.104,4.098,4.113,4.113,4.106,0,,8.2191504,5.6,14,Waypoint,
8000,2024-11-04 06:50:00,-23.4439364303331,151.917279095838,5.9,,,8.5191504,0,0.14,1.45291,1.8063,15,5,24.626,8.5191504,5.9,0.45,1.56691,0.1,0.1,-3,88.7, -4.9, -1.3,0,0,1024,1024,1024,1024,0,0,0,0,0,0,0,99,4.092,4.104,4.098,4.113,4.113,4.106,0,,8.5191504,5.9,14,Waypoint,
8100,2024-11-04 06:50:00,-23.4439362817315,151.917279594924,6.2,,,8.8191504,0,0.14,1.39967,1.85984,15,5,24.626,8.8191504,6.2,0.45,1.56691,0.1,0.1,-3,88.7, -4.1, -1.4,0,0,1024,1024,1024,1024,0,0,0,0,0,0,0,99,4.092,4.104,4.098,4.113,4.113,4.106,0,,8.8191504,6.2,14,Waypoint,
8200,2024-11-04 06:50:00,-23.4439361466521,151.917280030695,6.5,,,9.1191504,0,0.14,1.35296,1.90677,15,5,24.626,9.1191504,6.5,0.45,1.56691,0.1,0.1,-3,88.7, -3.3, -1.5,0,0,1024,1024,1024,1024,0,0,0,0,0,0,0,99,4.092,4.104,4.098,4.113,4.113,4.106,0,,9.1191504,6.5,14,Waypoint,
8300,2024-11-04 06:50:00,-23.4439359833391,151.917280598982,6.8,,,9.4191504,0,0.14,1.29267,1.96752,15,5,24.626,9.4191504,6.8,0.45,1.56691,0.1,0.1,-3,88.7, -2.7, -1.3,0,0,1024,1024,1024,1024,0,0,0,0,0,0,0,99,4.092,4.104,4.098,4.113,4.113,4.106,0,,9.4191504,6.8,14,Waypoint,
8400,2024-11-04 06:50:00,-23.4439358403821,151.917281086328,7.1,,,9.7191504,0,0.22,1.24086,2.01973,15,5,24.626,9.7191504,7.1,0.45,1.56691,0.1,0.2,-3,88.6, -2.1, -0.8,0,0,1024,1024,1024,1024,0,0,0,0,0,0,0,99,4.092,4.104,4.098,4.113,4.113,4.106,0,,9.7191504,7.1,14,Waypoint,
8500,2024-11-04 06:50:00,-23.4439357283773,151.917281692369,7.4,,,10.0191504,0,0.2,1.17963,2.0828,15,5,24.626,10.0191504,7.4,0.45,1.56691,0,0.2,-3,88.6, -1.7, -0.2,0,0,1024,1024,1024,1024,0,0,0,0,0,0,0,99,4.092,4.104,4.098,4.113,4.113,4.106,0,,10.0191504,7.4,14,Waypoint,
8600,2024-11-04 06:50:00,-23.4439356514443,151.917282163022,7.7,,,10.3191504,0,0.1,1.13272,2.13157,15,5,24.626,10.3191504,7.7,0.45,1.56691,0,0.1,-3.1,88.6, -1.3, -0.1,0,0,1024,1024,1024,1024,0,0,0,0,0,0,0,99,4.092,4.104,4.098,4.113,4.113,4.106,0,,10.3191504,7.7,14,Waypoint,
8700,2024-11-04 06:50:00,-23.4439356451174,151.917282397653,8,,,10.6191504,0,0.1,1.11099,2.15552,15,5,24.626,10.6191504,8,0.45,1.56691,0,0.1,-3,88.7, -1.6, -0.4,0,0,1024,1024,1024,1024,0,0,0,0,0,0,0,99,4.092,4.104,4.098,4.113,4.113,4.106,0,,10.6191504,8,14,Waypoint,
8800,2024-11-04 06:50:00,-23.4439356548982,151.91728260751,8.3,,,10.9191504,0,0.1,1.09243,2.17696,15,5,24.065,10.9191504,8.3,0.45,1.56691,0,0.1,-3,88.7, -2, -0.5,0,0,1024,1024,1024,1024,0,0,0,0,0,0,0,99,3.99,4.035,4,4.039,3.992,4.009,0,,10.9191504,8.3,14,Waypoint,
8900,2024-11-04 06:50:01,-23.4439356868104,151.917282766138,8.6,,,11.2191504,0,0.1,1.07974,2.19353,15,5,24.065,11.2191504,8.6,0.45,1.56691,0,0.1,-3,88.7, -1.9, -0.8,0,0,1024,1024,1024,1024,0,0,0,0,0,0,0,99,3.99,4.035,4,4.039,3.992,4.009,0,,11.2191504,8.6,14,Waypoint,
9000,2024-11-04 06:50:01,-23.4439357199061,151.917282959221,8.9,,,11.5191504,0,0.1,1.06414,2.21357,15,5,24.065,11.5191504,8.9,0.45,1.56691,0,0.1,-3,88.8, -1.8, -1.1,0,0,1024,1024,1024,1024,0,0,0,0,0,0,0,99,3.99,4.035,4,4.039,3.992,4.009,0,,11.5191504,8.9,14,Waypoint,
9100,2024-11-04 06:50:01,-23.4439357614587,151.917283245367,9.2,,,11.8191504,0,0.1,1.04088,2.24313,15,5,24.065,11.8191504,9.2,0.45,1.56691,0,0.1,-3,88.8, -1.6, -1.6,0,0,1024,1024,1024,1024,0,0,0,0,0,0,0,99,3.99,4.035,4,4.039,3.992,4.009,0,,11.8191504,9.2,14,Waypoint,
9200,2024-11-04 06:50:01,-23.4439358057015,151.917283523766,9.5,,,12.1191504,0,0.1,1.01878,2.27196,15,5,24.065,12.1191504,9.5,0.45,1.56691,0,0.1,-3,88.9, -1.6, -2,0,0,1024,1024,1024,1024,0,0,0,0,0,0,0,99,3.99,4.035,4,4.039,3.992,4.009,0,,12.1191504,9.5,14,Waypoint,
9300,2024-11-04 06:50:01,-23.4439357601963,151.917283893749,9.8,,,12.4191504,0,0.1,0.983831,2.31004,15,5,24.065,12.4191504,9.8,0.45,1.56691,0,0.1,-3,88.8, -1.4, -2.3,0,0,1024,1024,1024,1024,0,0,0,0,0,0,0,99,3.99,4.035,4,4.039,3.992,4.009,0,,12.4191504,9.8,14,Waypoint,
9400,2024-11-04 06:50:01,-23.4439357279649,151.917284187214,10.1,,,12.7191504,0,0.1,0.956512,2.3402,15,5,24.065,12.7191504,10.1,0.45,1.56691,0,0.1,-3,88.7, -1.1, -2.1,0,0,1024,1024,1024,1024,0,0,0,0,0,0,0,99,3.99,4.035,4,4.039,3.992,4.009,0,,12.7191504,10.1,14,Waypoint,
9500,2024-11-04 06:50:01,-23.4439355478081,151.917284605388,10.4,,,13.0191504,0,0.1,0.909758,2.38733,15,5,24.065,13.0191504,10.4,0.45,1.56691,0,0.1,-2.9,88.6, -1, -2,0,0,1024,1024,1024,1024,0,0,0,0,0,0,0,99,3.99,4.035,4,4.039,3.992,4.009,0,,13.0191504,10.4,14,Waypoint,
9600,2024-11-04 06:50:01,-23.4439353904096,151.917284936267,10.7,,,13.3191504,0,0.1,0.871896,2.42536,15,5,24.065,13.3191504,10.7,0.45,1.56691,0,0.1,-2.8,88.6, -1, -1.9,0,0,1024,1024,1024,1024,0,0,0,0,0,0,0,99,3.99,4.035,4,4.039,3.992,4.009,0,,13.3191504,10.7,14,Waypoint,
9700,2024-11-04 06:50:01,-23.4439351213894,151.917285437858,11,,,13.6191504,0,0.14,0.812681,2.48463,15,5,24.065,13.6191504,11,0.45,1.56691,0.1,0.1,-2.7,88.7, -1.2, -1.7,0,0,1024,1024,1024,1024,0,0,0,0,0,0,0,99,3.99,4.035,4,4.039,3.992,4.009,0,,13.6191504,11,14,Waypoint,
9800,2024-11-04 06:50:01,-23.4439349458175,151.917285792201,11.3,,,13.9191504,0,0.14,0.771736,2.52572,15,5,24.065,13.9191504,11.3,0.45,1.56691,0.1,0.1,-2.6,88.8, -1.4, -1.4,0,0,1024,1024,1024,1024,0,0,0,0,0,0,0,99,3.99,4.035,4,4.039,3.992,4.009,0,,13.9191504,11.3,14,Waypoint,
9900,2024-11-04 06:50:02,-23.4439346338349,151.917286279285,11.5,,,14.1191504,0,0.14,0.711155,2.58633,16,5,23.721,14.1191504,11.5,0.45,1.56691,0.1,0.1,-2.5,88.8, -1.5, -0.9,0,0,1024,1024,1024,1024,0,0,0,0,0,0,0,99,3.939,3.935,3.962,3.958,3.966,3.961,0,,14.1191504,11.5,14,Waypoint,
10000,2024-11-04 06:50:02,-23.4439344226917,151.917286651833,11.8,,,14.4191504,0,0.22,0.666493,2.63101,16,5,23.721,14.4191504,11.8,0.45,1.56691,0.1,0.2,-2.3,88.8, -1.2, 0,0,0,1024,1024,1024,1024,0,0,0,0,0,0,0,99,3.939,3.935,3.962,3.958,3.966,3.961,0,,14.4191504,11.8,14,Waypoint,
10100,2024-11-04 06:50:02,-23.4439341865364,151.917287144625,12,,,14.6191504,0,0.2,0.610072,2.68773,16,5,23.721,14.6191504,12,0.45,1.56691,0,0.2,-2.2,88.7, -0.7, 0.6,0,0,1024,1024,1024,1024,0,0,0,0,0,0,0,99,3.939,3.935,3.962,3.958,3.966,3.961,0,,14.6191504,12,14,Waypoint,
10200,2024-11-04 06:50:02,-23.4439340539501,151.917287521295,12.2,,,14.8191504,0,0.2,0.570003,2.72889,16,5,23.721,14.8191504,12.2,0.45,1.56691,0,0.2,-2.1,88.8, 0.3, 1,0,0,1024,1024,1024,1024,0,0,0,0,0,0,0,99,3.939,3.935,3.962,3.958,3.966,3.961,0,,14.8191504,12.2,14,Waypoint,
10300,2024-11-04 06:50:02,-23.4439339172268,151.917288043816,12.4,,,15.0191504,0,0.2,0.51782,2.78433,16,5,23.721,15.0191504,12.4,0.45,1.56691,0,0.2,-1.9,88.8, 1.4, 1.2,0,0,1024,1024,1024,1024,0,0,0,0,0,0,0,99,3.939,3.935,3.962,3.958,3.966,3.961,0,,15.0191504,12.4,14,Waypoint,
10400,2024-11-04 06:50:02,-23.4439338794623,151.917288420656,12.6,,,15.2191504,0,0.1,0.484865,2.82301,16,5,23.721,15.2191504,12.6,0.45,1.56691,0,0.1,-1.8,88.7, 2.5, 1.2,0,0,1024,1024,1024,1024,0,0,0,0,0,0,0,99,3.939,3.935,3.962,3.958,3.966,3.961,0,,15.2191504,12.6,14,Waypoint,
10500,2024-11-04 06:50:02,-23.4439338401171,151.917288798311,12.8,,,15.4191504,0,0.1,0.452636,2.86178,17,5,23.721,15.4191504,12.8,0.45,1.56691,0,0.1,-1.6,88.7, 3, 0.6,0,0,1024,1024,1024,1024,0,0,0,0,0,0,0,99,3.939,3.935,3.962,3.958,3.966,3.961,0,,15.4191504,12.8,14,Waypoint,
10600,2024-11-04 06:50:02,-23.4439338798133,151.917288992496,12.9,,,15.5191504,0,0,0.441062,2.88208,17,5,23.721,15.5191504,12.9,0.45,1.56691,0,0,-1.5,88.6, 3.4, 0.2,0,0,1024,1024,1024,1024,0,0,0,0,0,0,0,98,3.939,3.935,3.962,3.958,3.966,3.961,0,,15.5191504,12.9,14,Waypoint,
10700,2024-11-04 06:50:02,-23.4439339300292,151.917289085995,13.1,,,15.7191504,0,0.1,0.438161,2.89314,17,5,23.721,15.7191504,13.1,0.45,1.56691,-0.1,0,-1.4,88.6, 3.7, -0.2,0,0,1024,1024,1024,1024,0,0,0,0,0,0,0,98,3.939,3.935,3.962,3.958,3.966,3.961,0,,15.7191504,13.1,14,Waypoint,
10800,2024-11-04 06:50:02,-23.4439340384367,151.917289033573,13.2,,,15.8191504,0,0.1,0.450503,2.90632,17,5,23.721,15.8191504,13.2,0.45,1.56691,-0.1,0,-1.4,88.7, 3.8, -0.7,0,0,1024,1024,1024,1024,0,0,0,0,0,0,0,98,3.939,3.935,3.962,3.958,3.966,3.961,0,,15.8191504,13.2,14,Waypoint,
10900,2024-11-04 06:50:03,-23.443934144045,151.917288811473,13.3,,,15.9191504,0,0.14,0.474797,2.93185,17,5,23.908,15.9191504,13.3,0.45,1.56691,-0.1,-0.1,-1.3,88.7, 3.6, -1,0,0,1024,1024,1024,1024,0,0,0,0,0,0,0,98,3.971,3.987,3.962,3.998,4,3.99,0,,15.9191504,13.3,14,Waypoint,
11000,2024-11-04 06:50:03,-23.4439342856818,151.917288495874,13.5,,,16.1191504,0,0.22,0.50888,2.96769,17,5,23.908,16.1191504,13.5,0.45,1.56691,-0.1,-0.2,-1.3,88.7, 3, -1.1,0,0,1024,1024,1024,1024,0,0,0,0,0,0,0,98,3.971,3.987,3.962,3.998,4,3.99,0,,16.1191504,13.5,14,Waypoint,
11100,2024-11-04 06:50:03,-23.4439344432683,151.917288050351,13.6,,,16.2191504,0,0.32,0.554234,3.01641,17,5,23.908,16.2191504,13.6,0.45,1.56691,-0.1,-0.3,-1.2,88.8, 2, -1.4,0,0,1024,1024,1024,1024,0,0,0,0,0,0,0,98,3.971,3.987,3.962,3.998,4,3.99,0,,16.2191504,13.6,14,Waypoint,
11200,2024-11-04 06:50:03,-23.4439346189216,151.917287580923,13.7,,,16.3191504,0,0.32,0.603275,3.06813,17,5,23.908,16.3191504,13.7,0.45,1.56691,-0.1,-0.3,-1.2,88.9, 0.9, -1.6,0,0,1024,1024,1024,1024,0,0,0,0,0,0,0,98,3.971,3.987,3.962,3.998,4,3.99,0,,16.3191504,13.7,14,Waypoint,
11300,2024-11-04 06:50:03,-23.4439346637022,151.917287025743,13.9,,,16.5191504,0,0.41,0.650723,3.12499,17,5,23.908,16.5191504,13.9,0.45,1.56691,-0.1,-0.4,-1.2,89, -0.1, -1.5,0,0,1024,1024,1024,1024,0,0,0,0,0,0,0,98,3.971,3.987,3.962,3.998,4,3.99,0,,16.5191504,13.9,14,Waypoint,
11400,2024-11-04 06:50:03,-23.4439347485132,151.917286459475,14,,,16.6191504,0,0.41,0.703041,3.18353,17,5,23.908,16.6191504,14,0.45,1.56691,-0.1,-0.4,-1.2,89, -1.2, -1.1,0,0,1024,1024,1024,1024,0,0,0,0,0,0,0,98,3.971,3.987,3.962,3.998,4,3.99,0,,16.6191504,14,14,Waypoint,
11500,2024-11-04 06:50:03,-23.4439347102073,151.917285937453,14.1,,,16.7191504,0,0.41,0.745096,3.23696,17,5,23.908,16.7191504,14.1,0.45,1.56691,-0.1,-0.4,-1.1,88.9, -2.4, -0.6,0,0,1024,1024,1024,1024,0,0,0,0,0,0,0,98,3.971,3.987,3.962,3.998,4,3.99,0,,16.7191504,14.1,14,Waypoint,
11600,2024-11-04 06:50:03,-23.4439347854695,151.917285428519,14.2,,,16.8191504,0,0.41,0.793752,3.28956,17,5,23.908,16.8191504,14.2,0.45,1.56691,-0.1,-0.4,-1.1,88.8, -3.3, -0.5,0,0,1024,1024,1024,1024,0,0,0,0,0,0,0,98,3.971,3.987,3.962,3.998,4,3.99,0,,16.8191504,14.2,14,Waypoint,
11800,2024-11-04 06:50:03,-23.443934906399,151.917284585974,14.4,,,17.0191504,0,0.36,0.87511,3.37656,17,5,23.908,17.0191504,14.4,0.45,1.56691,-0.2,-0.3,-0.8,91.5, -3.2, -1.2,0,0,1024,1024,1024,1024,0,0,0,0,0,0,0,98,3.971,3.987,3.962,3.998,4,3.99,0,,17.0191504,14.4,14,Waypoint,
11900,2024-11-04 06:50:04,-23.4439349806662,151.917284292745,14.5,,,17.1191504,0,0.36,0.905355,3.4076,17,5,23.95,17.1191504,14.5,0.45,1.56691,-0.2,-0.3,-0.6,96.2, -2, -1.9,0,0,1024,1024,1024,1024,0,0,0,0,0,0,0,98,3.972,3.988,4.001,3.995,4.003,3.991,0,,17.1191504,14.5,14,Waypoint,
12000,2024-11-04 06:50:04,-23.443935138149,151.917283918803,14.6,,,17.2191504,0,0.36,0.947259,3.44958,17,5,23.95,17.2191504,14.6,0.45,1.56691,-0.2,-0.3,-0.4,102.7, -1.2, -2.9,0,0,1024,1024,1024,1024,0,0,0,0,0,0,0,98,3.972,3.988,4.001,3.995,4.003,3.991,0,,17.2191504,14.6,14,Waypoint,
12100,2024-11-04 06:50:04,-23.4439353093868,151.917283583635,14.6,,,17.2191504,0,0.45,0.986393,3.48872,17,5,23.95,17.2191504,14.6,0.45,1.56691,-0.2,-0.4,-0.1,111.3, -0.7, -3.7,0,0,1024,1024,1024,1024,0,0,0,0,0,0,0,98,3.972,3.988,4.001,3.995,4.003,3.991,0,,17.2191504,14.6,14,Waypoint,
12200,2024-11-04 06:50:04,-23.4439355168921,151.917283154746,14.6,,,17.2191504,0,0.45,1.03586,3.53819,17,5,23.95,17.2191504,14.6,0.45,1.56691,-0.2,-0.4,0,121.1, -1.2, -4.7,0,0,1024,1024,1024,1024,0,0,0,0,0,0,0,98,3.972,3.988,4.001,3.995,4.003,3.991,0,,17.2191504,14.6,14,Waypoint,
12300,2024-11-04 06:50:04,-23.4439356539362,151.917282742728,14.6,,,17.2191504,0,0.36,1.08015,3.5829,17,5,23.95,17.2191504,14.6,0.45,1.56691,-0.2,-0.3,0,130.8, -2.3, -5.8,0,0,1024,1024,1024,1024,0,0,0,0,0,0,0,98,3.972,3.988,4.001,3.995,4.003,3.991,0,,17.2191504,14.6,14,Waypoint,
12400,2024-11-04 06:50:04,-23.4439358179352,151.917282312583,14.6,,,17.2191504,0,0.36,1.12749,3.63043,17,5,23.95,17.2191504,14.6,0.45,1.56691,-0.2,-0.3,0,140.4, -3.3, -6.3,0,0,1024,1024,1024,1024,0,0,0,0,0,0,0,98,3.972,3.988,4.001,3.995,4.003,3.991,0,,17.2191504,14.6,14,Waypoint,
12500,2024-11-04 06:50:04,-23.4439359757514,151.917281975798,14.6,,,17.2191504,0,0.28,1.16607,3.66901,16,5,23.95,17.2191504,14.6,0.45,1.56691,-0.2,-0.2,0,148.1, -4.2, -5.9,0,0,1024,1024,1024,1024,0,0,0,0,0,0,0,98,3.972,3.988,4.001,3.995,4.003,3.991,0,,17.2191504,14.6,14,Waypoint,
12600,2024-11-04 06:50:04,-23.443936204586,151.91728170082,14.6,,,17.2191504,0,0.22,1.20274,3.70689,16,5,23.95,17.2191504,14.6,0.45,1.56691,-0.2,-0.1,0,153.4, -4.7, -5.1,0,0,1024,1024,1024,1024,0,0,0,0,0,0,0,98,3.972,3.988,4.001,3.995,4.003,3.991,0,,17.2191504,14.6,14,Waypoint,
12700,2024-11-04 06:50:04,-23.4439364584494,151.917281531189,14.6,,,17.2191504,0,0.32,1.23137,3.74,16,5,23.95,17.2191504,14.6,0.45,1.56691,-0.3,-0.1,0,156.7, -4.4, -4.4,0,0,1024,1024,1024,1024,0,0,0,0,0,0,0,98,3.972,3.988,4.001,3.995,4.003,3.991,0,,17.2191504,14.6,14,Waypoint,
12800,2024-11-04 06:50:04,-23.4439368075911,151.917281404498,14.6,,,17.2191504,0,0.4,1.26167,3.78092,16,5,23.95,17.2191504,14.6,0.45,1.56691,-0.4,0,0,158.1, -3.5, -3.6,0,0,1024,1024,1024,1024,0,0,0,0,0,0,0,98,3.972,3.988,4.001,3.995,4.003,3.991,0,,17.2191504,14.6,14,Waypoint,
12900,2024-11-04 06:50:05,-23.4439371776159,151.917281439996,14.6,,,17.2191504,0,0.5,1.27965,3.82223,17,5,24.177,17.2191504,14.6,0.5,1.56691,-0.5,0,0,158.5, -3, -2.6,0,0,1024,1024,1024,1024,0,0,0,0,0,0,0,98,4.019,4.028,4.018,4.036,4.038,4.038,0,,17.2191504,14.6,14,Waypoint,
13000,2024-11-04 06:50:05,-23.4439376537404,151.917281460707,14.6,,,17.2191504,0,0.5,1.30646,3.87522,17,5,24.177,17.2191504,14.6,0.5,1.56691,-0.5,0,0,158.7, -3.2, -2,0,0,1024,1024,1024,1024,0,0,0,0,0,0,0,98,4.019,4.028,4.018,4.036,4.038,4.038,0,,17.2191504,14.6,14,Waypoint,
13100,2024-11-04 06:50:05,-23.4439381950449,151.917281558556,14.6,,,17.2191504,0,0.6,1.33271,3.93624,17,5,24.177,17.2191504,14.6,0.6,1.56691,-0.6,0,0,158.8, -3.8, -2,0,0,1024,1024,1024,1024,0,0,0,0,0,0,0,98,4.019,4.028,4.018,4.036,4.038,4.038,0,,17.2191504,14.6,14,Waypoint,
13200,2024-11-04 06:50:05,-23.4439388401017,151.917281601937,14.6,,,17.2191504,0,0.7,1.37271,4.00811,17,5,24.177,17.2191504,14.6,0.7,1.56691,-0.7,0,0,158.9, -4.6, -2.6,0,0,1024,1024,1024,1024,0,0,0,0,0,0,0,98,4.019,4.028,4.018,4.036,4.038,4.038,0,,17.2191504,14.6,14,Waypoint,
13300,2024-11-04 06:50:05,-23.443939682749,151.917281632934,14.6,,,17.2191504,0,0.8,1.43069,4.10187,17,5,24.177,17.2191504,14.6,0.8,1.56691,-0.8,0,0,159.1, -5.7, -3.4,0,0,1024,1024,1024,1024,0,0,0,0,0,0,0,98,4.019,4.028,4.018,4.036,4.038,4.038,0,,17.2191504,14.6,14,Waypoint,
13400,2024-11-04 06:50:05,-23.4439406096365,151.9172816673,14.6,,,17.2191504,0,0.9,1.49864,4.20501,17,5,24.177,17.2191504,14.6,0.9,1.56691,-0.9,0,0,159.3, -6.9, -4.4,0,0,1024,1024,1024,1024,0,0,0,0,0,0,0,98,4.019,4.028,4.018,4.036,4.038,4.038,0,,17.2191504,14.6,14,Waypoint,
13500,2024-11-04 06:50:05,-23.4439417137932,151.917281750259,14.7,,,17.3191504,0,1.1,1.58168,4.32809,17,5,24.177,17.3191504,14.7,1.1,1.58168,-1.1,0.1,0,159.5, -7.9, -4.9,0,0,1024,1024,1024,1024,0,0,0,0,0,0,0,98,4.019,4.028,4.018,4.036,4.038,4.038,0,,17.3191504,14.7,14,Waypoint,
13600,2024-11-04 06:50:05,-23.4439428780851,151.917281903745,14.7,,,17.3191504,0,1.22,1.67038,4.45851,17,5,24.177,17.3191504,14.7,1.22,1.67038,-1.2,0.2,0,159.6, -8.8, -5.1,0,0,1024,1024,1024,1024,0,0,0,0,0,0,0,98,4.019,4.028,4.018,4.036,4.038,4.038,0,,17.3191504,14.7,14,Waypoint,
13700,2024-11-04 06:50:05,-23.4439442604679,151.917282127066,14.7,,,17.3191504,0,1.32,1.77997,4.61392,17,5,24.177,17.3191504,14.7,1.32,1.77997,-1.3,0.2,0,159.6, -9.4, -5.2,0,0,1024,1024,1024,1024,0,0,0,0,0,0,0,98,4.019,4.028,4.018,4.036,4.038,4.038,0,,17.3191504,14.7,14,Waypoint,
13800,2024-11-04 06:50:05,-23.443945722156,151.917282441747,14.7,,,17.3191504,0,1.53,1.89862,4.7796,17,5,24.177,17.3191504,14.7,1.53,1.89862,-1.5,0.3,0,159.7, -9.9, -5.3,0,0,1024,1024,1024,1024,0,0,0,0,0,0,0,98,4.019,4.028,4.018,4.036,4.038,4.038,0,,17.3191504,14.7,14,Waypoint,
13900,2024-11-04 06:50:06,-23.4439474812387,151.9172828485,14.7,,,17.3191504,0,1.75,2.04875,4.97958,17,5,24.238,17.3191504,14.7,1.75,2.04875,-1.7,0.4,0,159.6, -10.3, -5.3,0,0,1024,1024,1024,1024,0,0,0,0,0,0,0,98,4.033,4.039,4.028,4.051,4.05,4.037,0,,17.3191504,14.7,14,Waypoint,
14000,2024-11-04 06:50:06,-23.4439493166449,151.917283352596,14.7,,,17.3191504,0,1.87,2.21052,5.19007,17,5,24.238,17.3191504,14.7,1.87,2.21052,-1.8,0.5,0,159.6, -10.3, -5,0,0,1024,1024,1024,1024,0,0,0,0,0,0,0,98,4.033,4.039,4.028,4.051,4.05,4.037,0,,17.3191504,14.7,14,Waypoint,
14100,2024-11-04 06:50:06,-23.44395150834,151.917283956782,14.7,,,17.3191504,0,2.09,2.41347,5.44147,17,5,24.238,17.3191504,14.7,2.09,2.41347,-2,0.6,0,159.5, -10.4, -4.8,0,0,1024,1024,1024,1024,0,0,0,0,0,0,0,98,4.033,4.039,4.028,4.051,4.05,4.037,0,,17.3191504,14.7,14,Waypoint,
14200,2024-11-04 06:50:06,-23.4439537192474,151.917284630641,14.7,,,17.3191504,0,2.31,2.62479,5.69677,17,5,24.238,17.3191504,14.7,2.31,2.62479,-2.2,0.7,0,159.5, -10.5, -4.7,0,0,1024,1024,1024,1024,0,0,0,0,0,0,0,98,4.033,4.039,4.028,4.051,4.05,4.037,0,,17.3191504,14.7,14,Waypoint,
14300,2024-11-04 06:50:06,-23.4439562828124,151.917285467338,14.7,,,17.3191504,0,2.5,2.87742,5.99436,17,5,24.238,17.3191504,14.7,2.5,2.87742,-2.4,0.7,0,159.5, -10.6, -4.7,0,0,1024,1024,1024,1024,0,0,0,0,0,0,0,98,4.033,4.039,4.028,4.051,4.05,4.037,0,,17.3191504,14.7,14,Waypoint,
14400,2024-11-04 06:50:06,-23.4439588498817,151.91728637169,14.7,,,17.3191504,0,2.72,3.13703,6.29437,17,5,24.238,17.3191504,14.7,2.72,3.13703,-2.6,0.8,0,159.4, -10.3, -4.7,0,0,1024,1024,1024,1024,0,0,0,0,0,0,0,98,4.033,4.039,4.028,4.051,4.05,4.037,0,,17.3191504,14.7,14,Waypoint,
14500,2024-11-04 06:50:06,-23.4439618492443,151.917287364963,14.7,,,17.3191504,0,2.85,3.44957,6.64298,17,5,24.238,17.3191504,14.7,2.85,3.44957,-2.7,0.9,0,159.3, -9.9, -4.9,0,0,1024,1024,1024,1024,0,0,0,0,0,0,0,98,4.033,4.039,4.028,4.051,4.05,4.037,0,,17.3191504,14.7,14,Waypoint,
14600,2024-11-04 06:50:06,-23.4439648148428,151.917288409445,14.7,,,17.3191504,0,3.07,3.76419,6.98956,17,5,24.238,17.3191504,14.7,3.07,3.76419,-2.9,1,0,159.3, -9.5, -4.7,0,0,1024,1024,1024,1024,0,0,0,0,0,0,0,97,4.033,4.039,4.028,4.051,4.05,4.037,0,,17.3191504,14.7,14,Waypoint,
14700,2024-11-04 06:50:06,-23.4439681876923,151.917289549458,14.7,,,17.3191504,0,3.26,4.12854,7.38226,17,5,24.238,17.3191504,14.7,3.26,4.12854,-3.1,1,0,159.3, -9.7, -4.4,0,0,1024,1024,1024,1024,0,0,0,0,0,0,0,97,4.033,4.039,4.028,4.051,4.05,4.037,0,,17.3191504,14.7,14,Waypoint,
14800,2024-11-04 06:50:06,-23.4439715003512,151.917290738194,14.7,,,17.3191504,0,3.48,4.49082,7.7701,17,5,24.238,17.3191504,14.7,3.48,4.49082,-3.3,1.1,0,159.3, -10.2, -4.1,0,0,1024,1024,1024,1024,0,0,0,0,0,0,0,97,4.033,4.039,4.028,4.051,4.05,4.037,0,,17.3191504,14.7,14,Waypoint,
14900,2024-11-04 06:50:07,-23.4439752004658,151.917291958989,14.7,,,17.3191504,0,3.67,4.90012,8.20001,17,5,24.174,17.3191504,14.7,3.67,4.90012,-3.5,1.1,0,159.4, -11, -4.1,0,0,1024,1024,1024,1024,0,0,0,0,0,0,0,97,4.015,4.027,4.025,4.033,4.036,4.038,0,,17.3191504,14.7,14,Waypoint,
15000,2024-11-04 06:50:07,-23.4439788661063,151.917293220432,14.7,,,17.3191504,0,3.89,5.30893,8.62749,17,5,24.174,17.3191504,14.7,3.89,5.30893,-3.7,1.2,0.1,159.4, -11.3, -4.4,0,0,1024,1024,1024,1024,0,0,0,0,0,0,0,97,4.015,4.027,4.025,4.033,4.036,4.038,0,,17.3191504,14.7,14,Waypoint,
15100,2024-11-04 06:50:07,-23.4439830333824,151.917294553191,14.7,,,17.3191504,0,4.08,5.77652,9.11045,17,5,24.174,17.3191504,14.7,4.08,5.77652,-3.9,1.2,0.1,159.4, -11.4, -4.8,0,0,1024,1024,1024,1024,0,0,0,0,0,0,0,97,4.015,4.027,4.025,4.033,4.036,4.038,0,,17.3191504,14.7,14,Waypoint,
15200,2024-11-04 06:50:07,-23.4439871315734,151.917295954145,14.7,,,17.3191504,0,4.3,6.23921,9.58808,17,5,24.174,17.3191504,14.7,4.3,6.23921,-4.1,1.3,0.1,159.4, -11.3, -5.1,0,0,1024,1024,1024,1024,0,0,0,0,0,0,0,97,4.015,4.027,4.025,4.033,4.036,4.038,0,,17.3191504,14.7,14,Waypoint,
15300,2024-11-04 06:50:07,-23.4439916890019,151.917297449694,14.7,,,17.3191504,0,4.52,6.75568,10.1174,17,5,24.174,17.3191504,14.7,4.52,6.75568,-4.3,1.4,0.1,159.3, -11.1, -5.5,0,0,1024,1024,1024,1024,0,0,0,0,0,0,0,97,4.015,4.027,4.025,4.033,4.036,4.038,0,,17.3191504,14.7,14,Waypoint,
15400,2024-11-04 06:50:07,-23.4439961442619,151.917299017934,14.7,,,17.3191504,0,4.65,7.26339,10.638,17,5,24.174,17.3191504,14.7,4.65,7.26339,-4.4,1.5,0.1,159.3, -10.9, -5.6,0,0,1024,1024,1024,1024,0,0,0,0,0,0,0,97,4.015,4.027,4.025,4.033,4.036,4.038,0,,17.3191504,14.7,14,Waypoint,
15500,2024-11-04 06:50:07,-23.4440010627229,151.917300697787,14.6,,,17.2191504,0,4.87,7.82528,11.2112,17,5,24.174,17.3191504,14.7,4.87,7.82528,-4.6,1.6,0.2,159.3, -10.8, -5.7,0,0,1024,1024,1024,1024,0,0,0,0,0,0,0,97,4.015,4.027,4.025,4.033,4.036,4.038,0,,17.2191504,14.6,14,Waypoint,
15600,2024-11-04 06:50:07,-23.4440058396071,151.917302406235,14.6,,,17.2191504,0,5.09,8.37344,11.7703,17,5,24.174,17.3191504,14.7,5.09,8.37344,-4.8,1.7,0.1,159.2, -11, -5.6,0,0,1024,1024,1024,1024,0,0,0,0,0,0,0,97,4.015,4.027,4.025,4.033,4.036,4.038,0,,17.2191504,14.6,14,Waypoint,
15700,2024-11-04 06:50:07,-23.4440111875865,151.917304247352,14.6,,,17.2191504,0,5.19,8.98772,12.394,17,5,24.174,17.3191504,14.7,5.19,8.98772,-4.9,1.7,0.1,159.1, -11.2, -5.6,0,0,1024,1024,1024,1024,0,0,0,0,0,0,0,97,4.015,4.027,4.025,4.033,4.036,4.038,0,,17.2191504,14.6,14,Waypoint,
15800,2024-11-04 06:50:07,-23.4440163661947,151.917306126125,14.6,,,17.2191504,0,5.41,9.58516,13.0009,17,5,24.174,17.3191504,14.7,5.41,9.58516,-5.1,1.8,0.1,159.1, -11.3, -5.5,0,0,1024,1024,1024,1024,0,0,0,0,0,0,0,97,4.015,4.027,4.025,4.033,4.036,4.038,0,,17.2191504,14.6,14,Waypoint,
15900,2024-11-04 06:50:08,-23.4440220959336,151.917308134027,14.6,,,17.2191504,0,5.63,10.2463,13.6702,17,5,24.131,17.3191504,14.7,5.63,10.2463,-5.3,1.9,0.1,159.1, -11.5, -5.4,0,0,1024,1024,1024,1024,0,0,0,0,0,0,0,97,4.006,4.017,4.02,4.027,4.028,4.033,0,,17.2191504,14.6,14,Waypoint,
16000,2024-11-04 06:50:08,-23.4440276450063,151.917310161424,14.6,,,17.2191504,0,5.85,10.889,14.3211,17,5,24.131,17.3191504,14.7,5.85,10.889,-5.5,2,0,159.1, -11.5, -5.2,0,0,1024,1024,1024,1024,0,0,0,0,0,0,0,97,4.006,4.017,4.02,4.027,4.028,4.033,0,,17.2191504,14.6,14,Waypoint,
16100,2024-11-04 06:50:08,-23.4440337803775,151.917312397023,14.6,,,17.2191504,0,6.07,11.6006,15.0405,17,5,24.131,17.3191504,14.7,6.07,11.6006,-5.7,2.1,0,159.1, -11.6, -5.4,0,0,1024,1024,1024,1024,0,0,0,0,0,0,0,97,4.006,4.017,4.02,4.027,4.028,4.033,0,,17.2191504,14.6,14,Waypoint,
16200,2024-11-04 06:50:08,-23.4440397096919,151.917314628767,14.6,,,17.2191504,0,6.26,12.2905,15.7381,17,5,24.131,17.3191504,14.7,6.26,12.2905,-5.9,2.1,0,159.2, -11.7, -5.6,0,0,1024,1024,1024,1024,0,0,0,0,0,0,0,97,4.006,4.017,4.02,4.027,4.028,4.033,0,,17.2191504,14.6,14,Waypoint,
16300,2024-11-04 06:50:08,-23.444046235336,151.917317028568,14.6,,,17.2191504,0,6.48,13.0495,16.5039,17,5,24.131,17.3191504,14.7,6.48,13.0495,-6.1,2.2,0,159.1, -11.8, -6,0,0,1024,1024,1024,1024,0,0,0,0,0,0,0,97,4.006,4.017,4.02,4.027,4.028,4.033,0,,17.2191504,14.6,14,Waypoint,
16400,2024-11-04 06:50:08,-23.4440525044936,151.917319388987,14.6,,,17.2191504,0,6.71,13.7806,17.2415,17,5,24.131,17.3191504,14.7,6.71,13.7806,-6.3,2.3,0,159.1, -11.7, -6.1,0,0,1024,1024,1024,1024,0,0,0,0,0,0,0,97,4.006,4.017,4.02,4.027,4.028,4.033,0,,17.2191504,14.6,14,Waypoint,
16500,2024-11-04 06:50:08,-23.4440593683721,151.917321953856,14.6,,,17.2191504,0,6.93,14.5814,18.0484,17,5,24.131,17.3191504,14.7,6.93,14.5814,-6.5,2.4,0,159.2, -11.8, -6,0,0,1024,1024,1024,1024,0,0,0,0,0,0,0,97,4.006,4.017,4.02,4.027,4.028,4.033,0,,17.2191504,14.6,14,Waypoint,
16600,2024-11-04 06:50:08,-23.4440660023924,151.917324481838,14.6,,,17.2191504,0,7.12,15.3571,18.83,17,5,24.131,17.3191504,14.7,7.12,15.3571,-6.7,2.4,0,159.2, -11.8, -6.1,0,0,1024,1024,1024,1024,0,0,0,0,0,0,0,97,4.006,4.017,4.02,4.027,4.028,4.033,0,,17.2191504,14.6,14,Waypoint,
16700,2024-11-04 06:50:08,-23.4440732293356,151.917327209045,14.5,,,17.1191504,0,7.34,16.2021,19.6805,17,5,24.131,17.3191504,14.7,7.34,16.2021,-6.9,2.5,0,159.1, -11.7, -6.1,0,0,1024,1024,1024,1024,0,0,0,0,0,0,0,97,4.006,4.017,4.02,4.027,4.028,4.033,0,,17.1191504,14.5,14,Waypoint,
16800,2024-11-04 06:50:08,-23.444080208104,151.91732991777,14.5,,,17.1191504,0,7.47,17.0203,20.5043,17,5,24.131,17.3191504,14.7,7.47,17.0203,-7,2.6,0,159.1, -11.6, -6.2,0,0,1024,1024,1024,1024,0,0,0,0,0,0,0,97,4.006,4.017,4.02,4.027,4.028,4.033,0,,17.1191504,14.5,14,Waypoint,
16900,2024-11-04 06:50:09,-23.4440876910778,151.917332782808,14.5,,,17.1191504,0,7.66,17.8973,21.3863,17,5,24.131,17.3191504,14.7,7.66,17.8973,-7.2,2.6,0,159.1, -11.5, -6.3,0,0,1024,1024,1024,1024,0,0,0,0,0,0,0,97,4.006,4.017,4.02,4.027,4.028,4.033,0,,17.1191504,14.5,14,Waypoint,
17000,2024-11-04 06:50:09,-23.4440949228933,151.917335631573,14.5,,,17.1191504,0,7.88,18.7473,22.2414,17,5,23.98,17.3191504,14.7,7.88,18.7473,-7.4,2.7,0,159.1, -10, -6.2,0,0,1024,1024,1024,1024,0,0,0,0,0,0,0,97,3.971,4,3.983,4.012,4.011,4.003,0,,17.1191504,14.5,14,Waypoint,
17100,2024-11-04 06:50:09,-23.4441026052928,151.917338624448,14.5,,,17.1191504,0,7.88,19.6498,23.1487,17,5,23.98,17.3191504,14.7,7.88,19.6498,-7.5,2.8,0,158.9, -8.1, -6.6,0,0,1024,1024,1024,1024,0,0,0,0,0,0,0,97,3.971,4,3.983,4.012,4.011,4.003,0,,17.1191504,14.5,14,Waypoint,
17200,2024-11-04 06:50:09,-23.4441100244576,151.917341593939,14.5,,,17.1191504,0,8.1,20.5238,24.0276,17,5,23.98,17.3191504,14.7,8.1,20.5238,-7.6,2.8,0,158.9, -6.3, -7.2,0,0,1024,1024,1024,1024,0,0,0,0,0,0,0,97,3.971,4,3.983,4.012,4.011,4.003,0,,17.1191504,14.5,14,Waypoint,
17300,2024-11-04 06:50:09,-23.444117786703,151.917344664207,14.5,,,17.1191504,0,8.13,21.4378,24.9459,17,5,23.98,17.3191504,14.7,8.13,21.4378,-7.6,2.9,0,158.8, -4.7, -7,0,0,1024,1024,1024,1024,0,0,0,0,0,0,0,97,3.971,4,3.983,4.012,4.011,4.003,0,,17.1191504,14.5,14,Waypoint,
17400,2024-11-04 06:50:09,-23.4441252723865,151.917347700501,14.5,,,17.1191504,0,8.13,22.3214,25.8341,17,5,23.98,17.3191504,14.7,8.13,22.3214,-7.7,2.9,0,158.7, -3, -6.5,0,0,1024,1024,1024,1024,0,0,0,0,0,0,0,97,3.971,4,3.983,4.012,4.011,4.003,0,,17.1191504,14.5,14,Waypoint,
17500,2024-11-04 06:50:09,-23.4441331496261,151.917350865983,14.5,,,17.1191504,0,8.23,23.2509,26.7677,17,5,23.98,17.3191504,14.7,8.23,23.2509,-7.7,2.9,0,158.6, -1.5, -6.5,0,0,1024,1024,1024,1024,0,0,0,0,0,0,0,97,3.971,4,3.983,4.012,4.011,4.003,0,,17.1191504,14.5,14,Waypoint,
17600,2024-11-04 06:50:09,-23.4441407042513,151.917353962012,14.5,,,17.1191504,0,8.23,24.1442,27.6653,17,5,23.98,17.3191504,14.7,8.23,24.1442,-7.7,2.9,0,158.6, -0.3, -6.3,0,0,1024,1024,1024,1024,0,0,0,0,0,0,0,97,3.971,4,3.983,4.012,4.011,4.003,0,,17.1191504,14.5,14,Waypoint,
17700,2024-11-04 06:50:09,-23.444148124771,151.917357029046,14.5,,,17.1191504,0,8.23,25.0227,28.5478,17,5,23.98,17.3191504,14.7,8.23,25.0227,-7.7,2.9,0,158.5, 0, -6.2,0,0,1024,1024,1024,1024,0,0,0,0,0,0,0,97,3.971,4,3.983,4.012,4.011,4.003,0,,17.1191504,14.5,14,Waypoint,
17800,2024-11-04 06:50:09,-23.4441553227019,151.917360046197,14.5,,,17.1191504,0,8.13,25.8762,29.4054,17,5,23.98,17.3191504,14.7,8.23,25.8762,-7.6,2.9,0,158.5, 0.1, -6.1,0,0,1024,1024,1024,1024,0,0,0,0,0,0,0,97,3.971,4,3.983,4.012,4.011,4.003,0,,17.1191504,14.5,14,Waypoint,
17900,2024-11-04 06:50:09,-23.4441624467927,151.917363101358,14.4,,,17.0191504,0,8.13,26.7231,30.2568,17,5,23.98,17.3191504,14.7,8.23,26.7231,-7.6,2.9,0.1,158.6, 0, -6,0,0,1024,1024,1024,1024,0,0,0,0,0,0,0,97,3.971,4,3.983,4.012,4.011,4.003,0,,17.0191504,14.4,14,Waypoint,
18000,2024-11-04 06:50:10,-23.4441694361264,151.91736612604,14.4,,,17.0191504,0,8.04,27.5551,31.0931,17,5,23.935,17.3191504,14.7,8.23,27.5551,-7.5,2.9,0.1,158.6, 0, -5.7,0,0,1024,1024,1024,1024,0,0,0,0,0,0,0,97,3.976,3.973,3.993,3.998,3.987,4.008,0,,17.0191504,14.4,14,Waypoint,
18100,2024-11-04 06:50:10,-23.4441763580035,151.917369221728,14.4,,,17.0191504,0,7.95,28.3821,31.9251,17,5,23.935,17.3191504,14.7,8.23,28.3821,-7.4,2.9,0,158.6, -0.2, -5.2,0,0,1024,1024,1024,1024,0,0,0,0,0,0,0,97,3.976,3.973,3.993,3.998,3.987,4.008,0,,17.0191504,14.4,14,Waypoint,
18200,2024-11-04 06:50:10,-23.444183194498,151.917372249398,14.4,,,17.0191504,0,7.95,29.1983,32.7457,17,5,23.935,17.3191504,14.7,8.23,29.1983,-7.4,2.9,0,158.7, -0.4, -4.6,0,0,1024,1024,1024,1024,0,0,0,0,0,0,0,97,3.976,3.973,3.993,3.998,3.987,4.008,0,,17.0191504,14.4,14,Waypoint,
18300,2024-11-04 06:50:10,-23.4441899993616,151.917375414377,14.4,,,17.0191504,0,7.91,30.0153,33.5685,17,5,23.935,17.3191504,14.7,8.23,30.0153,-7.4,2.8,0,158.7, -0.7, -4,0,0,1024,1024,1024,1024,0,0,0,0,0,0,0,97,3.976,3.973,3.993,3.998,3.987,4.008,0,,17.0191504,14.4,14,Waypoint,
18400,2024-11-04 06:50:10,-23.4441967172012,151.917378452902,14.4,,,17.0191504,0,7.82,30.8197,34.3773,17,5,23.935,17.3191504,14.7,8.23,30.8197,-7.3,2.8,-0.1,158.7, -0.8, -3.6,0,0,1024,1024,1024,1024,0,0,0,0,0,0,0,97,3.976,3.973,3.993,3.998,3.987,4.008,0,,17.0191504,14.4,14,Waypoint,
18500,2024-11-04 06:50:10,-23.4442034844412,151.9173816932,14.4,,,17.0191504,0,7.82,31.6355,35.1993,17,5,23.935,17.3191504,14.7,8.23,31.6355,-7.3,2.8,-0.1,158.8, -1.4, -3.7,0,0,1024,1024,1024,1024,0,0,0,0,0,0,0,97,3.976,3.973,3.993,3.998,3.987,4.008,0,,17.0191504,14.4,14,Waypoint,
18600,2024-11-04 06:50:10,-23.444210177789,151.917384766962,14.4,,,17.0191504,0,7.82,32.4389,36.007,17,5,23.935,17.3191504,14.7,8.23,32.4389,-7.3,2.8,-0.1,158.8, -1.6, -3.9,0,0,1024,1024,1024,1024,0,0,0,0,0,0,0,97,3.976,3.973,3.993,3.998,3.987,4.008,0,,17.0191504,14.4,14,Waypoint,
18900,2024-11-04 06:50:11,-23.444230638367,151.917394492042,14.4,,,17.0191504,0,7.85,34.9058,38.4892,17,5,23.935,17.3191504,14.7,8.23,34.9058,-7.3,2.9,-0.1,158.7, -2, -3.3,0,0,1024,1024,1024,1024,0,0,0,0,0,0,0,97,3.976,3.973,3.993,3.998,3.987,4.008,0,,17.0191504,14.4,14,Waypoint,
19000,2024-11-04 06:50:11,-23.4442373886192,151.917397620029,14.4,,,17.0191504,0,7.85,35.7176,39.3049,17,5,24.144,17.3191504,14.7,8.23,35.7176,-7.3,2.9,-0.1,158.7, -1.8, -3,0,0,1024,1024,1024,1024,0,0,0,0,0,0,0,97,4.016,4.017,4.017,4.019,4.033,4.042,0,,17.0191504,14.4,14,Waypoint,
19100,2024-11-04 06:50:11,-23.4442443342845,151.917400979725,14.4,,,17.0191504,0,7.85,36.5575,40.15,17,5,24.144,17.3191504,14.7,8.23,36.5575,-7.3,2.9,0,158.7, -1.4, -2.7,0,0,1024,1024,1024,1024,0,0,0,0,0,0,0,97,4.016,4.017,4.017,4.019,4.033,4.042,0,,17.0191504,14.4,14,Waypoint,
19200,2024-11-04 06:50:11,-23.4442510933433,151.91740408828,14.4,,,17.0191504,0,7.82,37.3701,40.9658,17,5,24.144,17.3191504,14.7,8.23,37.3701,-7.3,2.8,0,158.7, -1, -2.5,0,0,1024,1024,1024,1024,0,0,0,0,0,0,0,97,4.016,4.017,4.017,4.019,4.033,4.042,0,,17.0191504,14.4,14,Waypoint,
19300,2024-11-04 06:50:11,-23.4442579295772,151.9174072935,14.4,,,17.0191504,0,7.73,38.194,41.7934,17,5,24.144,17.3191504,14.7,8.23,38.194,-7.2,2.8,-0.1,158.6, -0.8, -2,0,0,1024,1024,1024,1024,0,0,0,0,0,0,0,97,4.016,4.017,4.017,4.019,4.033,4.042,0,,17.0191504,14.4,14,Waypoint,
19400,2024-11-04 06:50:11,-23.4442645915547,151.917410284202,14.4,,,17.0191504,0,7.73,38.9928,42.5946,17,5,24.144,17.3191504,14.7,8.23,38.9928,-7.2,2.8,-0.1,158.7, -0.8, -1.6,0,0,1024,1024,1024,1024,0,0,0,0,0,0,0,97,4.016,4.017,4.017,4.019,4.033,4.042,0,,17.0191504,14.4,14,Waypoint,
19500,2024-11-04 06:50:11,-23.4442715315661,151.917413435645,14.4,,,17.0191504,0,7.69,39.8262,43.4307,17,5,24.144,17.3191504,14.7,8.23,39.8262,-7.2,2.7,0,158.6, -0.9, -1.3,0,0,1024,1024,1024,1024,0,0,0,0,0,0,0,97,4.016,4.017,4.017,4.019,4.033,4.042,0,,17.0191504,14.4,14,Waypoint,
19600,2024-11-04 06:50:11,-23.4442782841632,151.917416364801,14.4,,,17.0191504,0,7.69,40.6329,44.2389,17,5,24.144,17.3191504,14.7,8.23,40.6329,-7.2,2.7,0,158.6, -1, -1.5,0,0,1024,1024,1024,1024,0,0,0,0,0,0,0,97,4.016,4.017,4.017,4.019,4.033,4.042,0,,17.0191504,14.4,14,Waypoint,
19700,2024-11-04 06:50:11,-23.44428530617,151.917419393097,14.4,,,17.0191504,0,7.69,41.4712,45.0787,17,5,24.144,17.3191504,14.7,8.23,41.4712,-7.2,2.7,0,158.7, -0.8, -1.7,0,0,1024,1024,1024,1024,0,0,0,0,0,0,0,97,4.016,4.017,4.017,4.019,4.033,4.042,0,,17.0191504,14.4,14,Waypoint,
19800,2024-11-04 06:50:11,-23.4442920952963,151.917422211787,14.4,,,17.0191504,0,7.66,42.2783,45.8866,17,5,24.144,17.3191504,14.7,8.23,42.2783,-7.2,2.6,0,158.7, -0.6, -2,0,0,1024,1024,1024,1024,0,0,0,0,0,0,0,97,4.016,4.017,4.017,4.019,4.033,4.042,0,,17.0191504,14.4,14,Waypoint,
19900,2024-11-04 06:50:12,-23.4442990574807,151.917425098886,14.4,,,17.0191504,0,7.66,43.1059,46.715,17,5,24.267,17.3191504,14.7,8.23,43.1059,-7.2,2.6,0,158.7, -0.7, -2.3,0,0,1024,1024,1024,1024,0,0,0,0,0,0,0,97,4.026,4.027,4.053,4.049,4.044,4.068,0,,17.0191504,14.4,14,Waypoint,
20000,2024-11-04 06:50:12,-23.4443057853254,151.917427809967,14.4,,,17.0191504,0,7.62,43.9031,47.5126,17,5,24.267,17.3191504,14.7,8.23,43.9031,-7.2,2.5,0,158.7, -0.9, -2.5,0,0,1024,1024,1024,1024,0,0,0,0,0,0,0,97,4.026,4.027,4.053,4.049,4.044,4.068,0,,17.0191504,14.4,14,Waypoint,
20100,2024-11-04 06:50:12,-23.444312821897,151.917430591884,14.4,,,17.0191504,0,7.59,44.7352,48.345,17,5,24.267,17.3191504,14.7,8.23,44.7352,-7.2,2.4,0,158.7, -0.9, -2.6,0,0,1024,1024,1024,1024,0,0,0,0,0,0,0,97,4.026,4.027,4.053,4.049,4.044,4.068,0,,17.0191504,14.4,14,Waypoint,
20200,2024-11-04 06:50:12,-23.4443196006534,151.917433185616,14.4,,,17.0191504,0,7.49,45.534,49.144,17,5,24.267,17.3191504,14.7,8.23,45.534,-7.1,2.4,0,158.7, -0.9, -2.7,0,0,1024,1024,1024,1024,0,0,0,0,0,0,0,97,4.026,4.027,4.053,4.049,4.044,4.068,0,,17.0191504,14.4,14,Waypoint,
20300,2024-11-04 06:50:12,-23.4443263825885,151.91743580273,14.4,,,17.0191504,0,7.49,46.334,49.944,17,5,24.267,17.3191504,14.7,8.23,46.334,-7.1,2.4,-0.1,158.6, -1, -2.9,0,0,1024,1024,1024,1024,0,0,0,0,0,0,0,97,4.026,4.027,4.053,4.049,4.044,4.068,0,,17.0191504,14.4,14,Waypoint,
20400,2024-11-04 06:50:12,-23.4443329698139,151.917438287116,14.4,,,17.0191504,0,7.46,47.1091,50.7192,17,5,24.267,17.3191504,14.7,8.23,47.1091,-7.1,2.3,-0.1,158.6, -1.3, -3.3,0,0,1024,1024,1024,1024,0,0,0,0,0,0,0,97,4.026,4.027,4.053,4.049,4.044,4.068,0,,17.0191504,14.4,14,Waypoint,
20500,2024-11-04 06:50:12,-23.444339611807,151.917440832478,14.5,,,17.1191504,0,7.46,47.8919,51.5021,17,5,24.267,17.3191504,14.7,8.23,47.8919,-7.1,2.3,-0.1,158.6, -1.5, -3.5,0,0,1024,1024,1024,1024,0,0,0,0,0,0,0,97,4.026,4.027,4.053,4.049,4.044,4.068,0,,17.1191504,14.5,14,Waypoint,
20600,2024-11-04 06:50:12,-23.4443460833216,151.917443219471,14.5,,,17.1191504,0,7.34,48.6517,52.2619,17,5,24.267,17.3191504,14.7,8.23,48.6517,-7,2.2,-0.1,158.6, -2.1, -3.9,0,0,1024,1024,1024,1024,0,0,0,0,0,0,0,97,4.026,4.027,4.053,4.049,4.044,4.068,0,,17.1191504,14.5,14,Waypoint,
20700,2024-11-04 06:50:12,-23.4443526287285,151.917445716836,14.5,,,17.1191504,0,7.37,49.4228,53.0331,17,5,24.267,17.3191504,14.7,8.23,49.4228,-7,2.3,-0.1,158.7, -3, -4.2,0,0,1024,1024,1024,1024,0,0,0,0,0,0,0,97,4.026,4.027,4.053,4.049,4.044,4.068,0,,17.1191504,14.5,14,Waypoint,
20800,2024-11-04 06:50:12,-23.4443590672834,151.91744813921,14.6,,,17.2191504,0,7.37,50.1802,53.7906,17,5,24.267,17.3191504,14.7,8.23,50.1802,-7,2.3,-0.2,158.7, -3.7, -4.2,0,0,1024,1024,1024,1024,0,0,0,0,0,0,0,97,4.026,4.027,4.053,4.049,4.044,4.068,0,,17.2191504,14.6,14,Waypoint,
20900,2024-11-04 06:50:13,-23.4443656061505,151.917450763141,14.6,,,17.2191504,0,7.37,50.9548,54.5654,17,5,24.267,17.3191504,14.7,8.23,50.9548,-7,2.3,-0.2,158.7, -4.1, -4,0,0,1024,1024,1024,1024,0,0,0,0,0,0,0,97,4.026,4.027,4.053,4.049,4.044,4.068,0,,17.2191504,14.6,14,Waypoint,
21000,2024-11-04 06:50:13,-23.4443720423083,151.917453263046,14.6,,,17.2191504,0,7.4,51.7145,55.3253,17,5,24.276,17.3191504,14.7,8.23,51.7145,-7,2.4,0,158.6, -4.2, -3.9,0,0,1024,1024,1024,1024,0,0,0,0,0,0,0,97,4.038,4.043,4.038,4.05,4.057,4.05,0,,17.2191504,14.6,14,Waypoint,
21100,2024-11-04 06:50:13,-23.4443787123107,151.917456006044,14.6,,,17.2191504,0,7.49,52.5067,56.118,17,5,24.276,17.3191504,14.7,8.23,52.5067,-7.1,2.4,-0.1,158.6, -4, -3.3,0,0,1024,1024,1024,1024,0,0,0,0,0,0,0,97,4.038,4.043,4.038,4.05,4.057,4.05,0,,17.2191504,14.6,14,Waypoint,
21200,2024-11-04 06:50:13,-23.4443852674101,151.917458593697,14.6,,,17.2191504,0,7.49,53.2818,56.8933,17,5,24.276,17.3191504,14.7,8.23,53.2818,-7.1,2.4,-0.1,158.6, -3.5, -3.2,0,0,1024,1024,1024,1024,0,0,0,0,0,0,0,97,4.038,4.043,4.038,4.05,4.057,4.05,0,,17.2191504,14.6,14,Waypoint,
21300,2024-11-04 06:50:13,-23.4443921041651,151.917461316431,14.7,,,17.3191504,0,7.49,54.091,57.7028,17,5,24.276,17.3191504,14.7,8.23,54.091,-7.1,2.4,-0.1,158.6, -3.3, -2.9,0,0,1024,1024,1024,1024,0,0,0,0,0,0,0,97,4.038,4.043,4.038,4.05,4.057,4.05,0,,17.3191504,14.7,14,Waypoint,
21400,2024-11-04 06:50:13,-23.4443987642666,151.917463862223,14.7,,,17.3191504,0,7.49,54.8758,58.4877,17,5,24.276,17.3191504,14.7,8.23,54.8758,-7.1,2.4,-0.1,158.6, -3.2, -3,0,0,1024,1024,1024,1024,0,0,0,0,0,0,0,97,4.038,4.043,4.038,4.05,4.057,4.05,0,,17.3191504,14.7,14,Waypoint,
21500,2024-11-04 06:50:13,-23.44440576668,151.917466499077,14.7,,,17.3191504,0,7.56,55.6996,59.3115,17,5,24.276,17.3191504,14.7,8.23,55.6996,-7.2,2.3,-0.1,158.7, -2.9, -3.3,0,0,1024,1024,1024,1024,0,0,0,0,0,0,0,97,4.038,4.043,4.038,4.05,4.057,4.05,0,,17.3191504,14.7,14,Waypoint,
21600,2024-11-04 06:50:13,-23.4444125423619,151.917468981278,14.7,,,17.3191504,0,7.59,56.4945,60.1064,17,5,24.276,17.3191504,14.7,8.23,56.4945,-7.2,2.4,0,158.7, -2.6, -3.7,0,0,1024,1024,1024,1024,0,0,0,0,0,0,0,97,4.038,4.043,4.038,4.05,4.057,4.05,0,,17.3191504,14.7,14,Waypoint,
21700,2024-11-04 06:50:13,-23.4444195393558,151.917471559528,14.7,,,17.3191504,0,7.56,57.3159,60.9278,16,5,24.276,17.3191504,14.7,8.23,57.3159,-7.2,2.3,0,158.7, -2.2, -3.6,0,0,1024,1024,1024,1024,0,0,0,0,0,0,0,97,4.038,4.043,4.038,4.05,4.057,4.05,0,,17.3191504,14.7,14,Waypoint,
21800,2024-11-04 06:50:13,-23.444426303365,151.917474022997,14.7,,,17.3191504,0,7.56,58.109,61.7209,16,5,24.276,17.3191504,14.7,8.23,58.109,-7.2,2.3,0,158.6, -1.9, -3.6,0,0,1024,1024,1024,1024,0,0,0,0,0,0,0,97,4.038,4.043,4.038,4.05,4.057,4.05,0,,17.3191504,14.7,14,Waypoint,
